Count.ID,Facility,State,Name,Date,Website,Residents.Confirmed,Staff.Confirmed,Resident.Deaths,Staff.Deaths,Residents.Recovered,Staff.Recovered,Residents.Tested,Staff.Tested,Residents.Negative,Staff.Negative,Residents.Pending,Staff.Pending,Residents.Quarantine,Staff.Quarantine,Residents.Released,Resident.Population,Address,Zipcode,City,County,Latitude,Longitude,County.FIPS,hifld_id,Coder,Notes
1,Prison,Alabama,ALEX CITY,9/12/20,http://www.doc.alabama.gov/covid19news,1,4,0,0,1,4,NA,NA,NA,NA,NA,NA,NA,NA,NA,NA,HIGHWAY 22 WEST,35011,ALEX CITY,COOSA,32.9044711,-86.008969,1037,10003721,CH,NA
2,Prison,Alabama,ATEF,9/12/20,http://www.doc.alabama.gov/covid19news,1,2,0,0,1,2,NA,NA,NA,NA,NA,NA,NA,NA,NA,NA,102 INDUSTRIAL PARKWAY,35051,COLUMBIANA,SHELBY,33.181005,-86.624017,1117,10006524,CH,NA
3,Prison,Alabama,BIBB,9/12/20,http://www.doc.alabama.gov/covid19news,4,17,0,0,4,16,NA,NA,NA,NA,NA,NA,NA,NA,NA,NA,565 BIBB LANE,35034,BRENT,BIBB,32.92242,-87.16458,1007,10001954,CH,NA
4,Prison,Alabama,BIRMINGHAM,9/12/20,http://www.doc.alabama.gov/covid19news,0,12,0,0,0,11,NA,NA,NA,NA,NA,NA,NA,NA,NA,NA,1216 25TH ST N,35234,BIRMINGHAM,JEFFERSON,33.5310463,-86.808362,1073,10001204,CH,NA
5,Prison,Alabama,BULLOCK,9/12/20,http://www.doc.alabama.gov/covid19news,56,19,0,0,56,14,NA,NA,NA,NA,NA,NA,NA,NA,NA,NA,104 BULLOCK DR,36089,UNION SPRINGS,BULLOCK,32.1494028,-85.67232,1011,10001223,CH,NA
6,Prison,Alabama,CAMDEN,9/12/20,http://www.doc.alabama.gov/covid19news,0,1,0,0,0,1,NA,NA,NA,NA,NA,NA,NA,NA,NA,NA,1780 ALABAMA HWY 221,36726,CAMDEN,WILCOX,31.9948371,-87.333123,1131,10000142,CH,NA
7,Prison,Alabama,CHILDERSBURG,9/12/20,http://www.doc.alabama.gov/covid19news,0,1,0,0,0,1,NA,NA,NA,NA,NA,NA,NA,NA,NA,NA,13501 PLANT RD,35014,ALPINE,TALLADEGA,33.3649332,-86.332198,1121,10001209,CH,NA
8,Prison,Alabama,CJC,9/12/20,http://www.doc.alabama.gov/covid19news,0,20,0,0,0,17,NA,NA,NA,NA,NA,NA,NA,NA,NA,NA,NA,NA,NA,NA,NA,NA,NA,NA,CH,NA
9,Prison,Alabama,DONALDSON,9/12/20,http://www.doc.alabama.gov/covid19news,1,6,0,0,1,6,NA,NA,NA,NA,NA,NA,NA,NA,NA,NA,100 WARRIOR LN,35023,BESSEMER,JEFFERSON,33.5136666,-87.184784,1073,10000132,CH,NA
1376,Prison,Alabama,DRAPER QIF,9/12/20,http://www.doc.alabama.gov/covid19news,63,0,0,0,45,0,NA,NA,NA,NA,NA,NA,NA,NA,NA,NA,NA,NA,NA,NA,NA,NA,NA,NA,CH,NA
10,Prison,Alabama,EASTERLING,9/12/20,http://www.doc.alabama.gov/covid19news,31,12,1,0,30,9,NA,NA,NA,NA,NA,NA,NA,NA,NA,NA,200 WALLACE DR,36017,CLIO,BARBOUR,31.6893815,-85.585559,1005,10000144,CH,NA
11,Prison,Alabama,ELBA,9/12/20,http://www.doc.alabama.gov/covid19news,1,1,0,0,1,1,NA,NA,NA,NA,NA,NA,NA,NA,NA,NA,1620 BOSWELL ST,36323,ELBA,COFFEE,31.4131239,-86.083737,1031,10001226,CH,NA
12,Prison,Alabama,ELMORE,9/12/20,http://www.doc.alabama.gov/covid19news,27,18,0,0,27,18,NA,NA,NA,NA,NA,NA,NA,NA,NA,NA,3520 MARION SPILLWAY ROAD,36025,ELMORE,ELMORE,32.5743048,-86.320806,1051,10001214,CH,NA
13,Prison,Alabama,FOUNTAIN,9/12/20,http://www.doc.alabama.gov/covid19news,19,24,1,0,18,22,NA,NA,NA,NA,NA,NA,NA,NA,NA,NA,9677 AL HWY 21 N,36503,ATMORE,ESCAMBIA,31.15658,-87.46372,1053,10001957,CH,NA
14,Prison,Alabama,FRANK LEE,9/12/20,http://www.doc.alabama.gov/covid19news,1,9,0,0,1,9,NA,NA,NA,NA,NA,NA,NA,NA,NA,NA,5305 INGRAM RD,36022,DEATSVILLE,ELMORE,32.5823545,-86.392218,1051,10003728,CH,NA
15,Prison,Alabama,HAMILTON A I,9/12/20,http://www.doc.alabama.gov/covid19news,2,5,0,0,1,5,NA,NA,NA,NA,NA,NA,NA,NA,NA,NA,223 SASSER DR,35570,HAMILTON,MARION,34.1243461,-87.991719,1093,10001197,CH,NA
16,Prison,Alabama,HAMILTON CBF,9/12/20,http://www.doc.alabama.gov/covid19news,0,1,0,0,0,1,NA,NA,NA,NA,NA,NA,NA,NA,NA,NA,1826 BEXAR AVE E,35570,HAMILTON,MARION,34.1432956,-87.95896,1093,10001199,CH,NA
17,Prison,Alabama,HOLMAN,9/12/20,http://www.doc.alabama.gov/covid19news,33,19,1,0,9,15,NA,NA,NA,NA,NA,NA,NA,NA,NA,NA,866 ROSS RD,36503,ATMORE,ESCAMBIA,31.1343861,-87.449864,1053,10000149,CH,NA
18,Prison,Alabama,KILBY,9/12/20,http://www.doc.alabama.gov/covid19news,9,37,1,0,8,34,NA,NA,NA,NA,NA,NA,NA,NA,NA,NA,12201 WARES FERRY RD,36117,MONTGOMERY,MONTGOMERY,32.3883565,-86.100981,1101,10001221,CH,NA
19,Prison,Alabama,LIMESTONE,9/12/20,http://www.doc.alabama.gov/covid19news,0,10,0,0,0,9,NA,NA,NA,NA,NA,NA,NA,NA,NA,NA,28779 NICK DAVIS RD,35749,HARVEST,LIMESTONE,34.8125439,-86.804133,1083,10000129,CH,NA
20,Prison,Alabama,LOXLEY,9/12/20,http://www.doc.alabama.gov/covid19news,4,8,0,0,4,7,NA,NA,NA,NA,NA,NA,NA,NA,NA,NA,14880 COUNTY RD 64,36551,LOXLEY,BALDWIN,30.6153358,-87.77031,1003,10000146,CH,NA
21,Prison,Alabama,MOBILE,9/12/20,http://www.doc.alabama.gov/covid19news,0,6,0,0,0,5,NA,NA,NA,NA,NA,NA,NA,NA,NA,NA,2423 N BELTLINE HWY,36610,PRITCHARD,MOBILE,30.7378811,-88.109057,1097,10000150,CH,NA
22,Prison,Alabama,MONTGOMERY WF,9/12/20,http://www.doc.alabama.gov/covid19news,0,5,0,0,0,5,NA,NA,NA,NA,NA,NA,NA,NA,NA,NA,12085 WARES FERRY RD,36117,MONTGOMERY,MONTGOMERY,NA,NA,1101,10001222,CH,NA
23,Prison,Alabama,NORTH ALABAMA,9/12/20,http://www.doc.alabama.gov/covid19news,0,5,0,0,0,5,NA,NA,NA,NA,NA,NA,NA,NA,NA,NA,1401 STATE HIGHWAY 20 WEST,35601,DECATUR,MORGAN,34.6175673,-87.005628,1103,10003698,CH,NA
24,Prison,Alabama,RED EAGLE,9/12/20,http://www.doc.alabama.gov/covid19news,0,0,0,0,0,0,NA,NA,NA,NA,NA,NA,NA,NA,NA,NA,1290 RED EAGLE RD,36110,MONTGOMERY,MONTGOMERY,32.4655944,-86.236904,1101,10001218,CH,NA
25,Prison,Alabama,ST CLAIR,9/12/20,http://www.doc.alabama.gov/covid19news,87,22,10,0,76,22,NA,NA,NA,NA,NA,NA,NA,NA,NA,NA,1000 SAINT CLAIR ROAD,35146,SPRINGVILLE,ST CLAIR,33.7455882,-86.384374,1115,10003710,CH,NA
27,Prison,Alabama,STATON,9/12/20,http://www.doc.alabama.gov/covid19news,38,34,6,0,31,32,NA,NA,NA,NA,NA,NA,NA,NA,NA,NA,2690 MARION SPILLWAY RD,36025,ELMORE,ELMORE,32.5772157,-86.332489,1051,10000140,CH,NA
1704,Prison,Alabama,TRAINING ACADEMY,9/12/20,http://www.doc.alabama.gov/covid19news,0,12,0,0,0,12,NA,NA,NA,NA,NA,NA,NA,NA,NA,NA,NA,NA,NA,NA,NA,NA,NA,NA,CH,NA
28,Prison,Alabama,TUTWILER,9/12/20,http://www.doc.alabama.gov/covid19news,12,39,1,2,11,35,NA,NA,NA,NA,NA,NA,NA,NA,NA,NA,8966 US HWY 231 N,36092,WETUMPKA,ELMORE,32.5640382,-86.194005,1051,10001216,CH,NA
1377,Prison,Alabama,TUTWILER QIF,9/12/20,http://www.doc.alabama.gov/covid19news,2,0,0,0,2,0,NA,NA,NA,NA,NA,NA,NA,NA,NA,NA,NA,NA,NA,NA,NA,NA,NA,NA,CH,NA
29,Prison,Alabama,VENTRESS,9/12/20,http://www.doc.alabama.gov/covid19news,1,25,0,0,0,22,NA,NA,NA,NA,NA,NA,NA,NA,NA,NA,379 ALABAMA HWY 239 N,36016,CLAYTON,BARBOUR,31.8890286,-85.492998,1005,10000143,CH,NA
33,Prison,Alaska,STATEWIDE,9/12/20,https://doc.alaska.gov/covid-19,51,NA,NA,NA,NA,NA,4969,NA,4648,NA,234,NA,NA,NA,NA,NA,NA,NA,NA,NA,NA,NA,NA,NA,CH,NA
30,Prison,Alaska,ANCHORAGE CCC,9/12/20,https://doc.alaska.gov/covid-19,NA,0,0,0,NA,NA,NA,NA,NA,NA,NA,NA,NA,NA,NA,NA,NA,NA,NA,NA,NA,NA,NA,NA,CH,NA
32,Prison,Alaska,LEMON CREEK CC JUNEAU,9/12/20,https://doc.alaska.gov/covid-19,NA,11,0,0,NA,NA,NA,NA,NA,NA,NA,NA,NA,NA,NA,NA,NA,NA,NA,NA,NA,NA,NA,NA,CH,NA
31,Prison,Alaska,GOOSE CREEK CC,9/12/20,https://doc.alaska.gov/covid-19,NA,0,0,0,NA,NA,NA,NA,NA,NA,NA,NA,NA,NA,NA,NA,NA,NA,NA,NA,NA,NA,NA,NA,CH,NA
34,Prison,Arizona,CACF,9/12/20,https://corrections.az.gov/adcrr-covid-19-dashboard,27,NA,3,NA,4,NA,1209,NA,1180,NA,2,NA,NA,NA,NA,1219,1401 E DIVERSION DAM RD,85132,FLORENCE,PINAL,33.0373101,-111.37275,4021,10000618,CH,NA
35,Prison,Arizona,DOUGLAS,9/12/20,https://corrections.az.gov/adcrr-covid-19-dashboard,104,NA,0,NA,104,NA,1949,NA,1845,NA,0,NA,NA,NA,NA,2034,6911 N BDI BLVD,85607,DOUGLAS,COCHISE,31.4624283,-109.59123,4003,10000632,CH,NA
37,Prison,Arizona,EYMAN,9/12/20,https://corrections.az.gov/adcrr-covid-19-dashboard,385,NA,1,NA,194,NA,5281,NA,4375,NA,521,NA,NA,NA,NA,5491,4374 E BUTTE AVE,85132,FLORENCE,PINAL,33.0369187,-111.32644,4021,10000615,CH,NA
38,Prison,Arizona,FLORENCE,9/12/20,https://corrections.az.gov/adcrr-covid-19-dashboard,103,NA,10,NA,87,NA,3086,NA,2972,NA,11,NA,NA,NA,NA,2924,1305 E BUTTE AVE,85132,FLORENCE,PINAL,33.0281695,-111.37073,4021,10003976,CH,NA
40,Prison,Arizona,FLORENCE WEST,9/12/20,https://corrections.az.gov/adcrr-covid-19-dashboard,0,NA,0,NA,0,NA,481,NA,481,NA,0,NA,NA,NA,NA,640,915 EAST DIVERSION DAM ROAD,85132,FLORENCE,PINAL,33.037233,-111.37653,4021,10006312,CH,NA
41,Prison,Arizona,KINGMAN,9/12/20,https://corrections.az.gov/adcrr-covid-19-dashboard,55,NA,1,NA,37,NA,2119,NA,19,NA,2045,NA,NA,NA,NA,2894,4626 WEST ENGLISH DRIVE,86414,GOLDEN VALLEY,MOHAVE,35.028915,-114.17961,4015,10003957,CH,NA
42,Prison,Arizona,LEWIS,9/12/20,https://corrections.az.gov/adcrr-covid-19-dashboard,253,NA,0,NA,109,NA,4168,NA,3820,NA,95,NA,NA,NA,NA,4382,26700 S HWY 85,85326,BUCKEYE,MARICOPA,33.2085241,-112.65146,4013,10000605,CH,NA
43,Prison,Arizona,MARANA,9/12/20,https://corrections.az.gov/adcrr-covid-19-dashboard,8,NA,0,NA,8,NA,340,NA,332,NA,0,NA,NA,NA,NA,348,12610 W SILVERBELL RD,85653,MARANA,PIMA,32.4179103,-111.24122,4019,10000626,CH,NA
45,Prison,Arizona,MRC,9/12/20,https://corrections.az.gov/adcrr-covid-19-dashboard,0,NA,0,NA,0,NA,0,NA,0,NA,0,NA,NA,NA,NA,0,24601 N 29TH AVE,85027,PHOENIX,MARICOPA,33.7066966,-112.11944,4013,10002246,CH,NA
46,Prison,Arizona,PERRYVILLE,9/12/20,https://corrections.az.gov/adcrr-covid-19-dashboard,64,NA,0,NA,26,NA,4674,NA,3842,NA,768,NA,NA,NA,NA,3773,2105 N CITRUS RD,85395,GOODYEAR,MARICOPA,33.4703865,-112.43777,4013,10000606,CH,NA
47,Prison,Arizona,PHOENIX,9/12/20,https://corrections.az.gov/adcrr-covid-19-dashboard,304,NA,0,NA,234,NA,2345,NA,2028,NA,13,NA,NA,NA,NA,611,2500 E VAN BUREN ST,85008,PHOENIX,MARICOPA,33.4531299,-112.02504,4013,10002245,CH,NA
48,Prison,Arizona,PHOENIX WEST,9/12/20,https://corrections.az.gov/adcrr-covid-19-dashboard,1,NA,0,NA,1,NA,420,NA,5,NA,414,NA,NA,NA,NA,472,3402 W COCOPAH ST,85009,PHOENIX,MARICOPA,33.4327771,-112.13261,4013,10002244,CH,NA
49,Prison,Arizona,PRC,9/12/20,https://corrections.az.gov/adcrr-covid-19-dashboard,0,NA,0,NA,0,NA,0,NA,0,NA,0,NA,NA,NA,NA,0,1275 W STARR PASS BLVD,85713,TUCSON,PIMA,32.2037634,-110.99093,4019,10000630,CH,NA
50,Prison,Arizona,RED ROCK,9/12/20,https://corrections.az.gov/adcrr-covid-19-dashboard,62,NA,0,NA,7,NA,1671,NA,1598,NA,11,NA,NA,NA,NA,1940,1750 EAST ARICA ROAD,85131,ELOY,PINAL,32.81056,-111.5196,4021,10003974,CH,NA
51,Prison,Arizona,SAFFORD,9/12/20,https://corrections.az.gov/adcrr-covid-19-dashboard,12,NA,0,NA,11,NA,1441,NA,1427,NA,2,NA,NA,NA,NA,1613,896 S COOK RD,85546,SAFFORD,GRAHAM,32.8281015,-109.56364,4009,10002248,CH,NA
53,Prison,Arizona,TUCSON,9/12/20,https://corrections.az.gov/adcrr-covid-19-dashboard,953,NA,10,NA,589,NA,4516,NA,3559,NA,4,NA,NA,NA,NA,4732,10000 S WILMOT RD,85734,TUCSON,PIMA,32.066401,-110.86631,4019,10000628,CH,NA
54,Prison,Arizona,WINSLOW,9/12/20,https://corrections.az.gov/adcrr-covid-19-dashboard,9,NA,0,NA,4,NA,1273,NA,1261,NA,3,NA,NA,NA,NA,1313,2100 S HWY 87,86047,WINSLOW,NAVAJO,34.9847163,-110.72109,4017,10000595,CH,NA
55,Prison,Arizona,YUMA,9/12/20,https://corrections.az.gov/adcrr-covid-19-dashboard,124,NA,2,NA,122,NA,4585,NA,4323,NA,138,NA,NA,NA,NA,4636,7125 E CESAR CHAVEZ BLVD,85349,SAN LUIS,YUMA,32.4875018,-114.63972,4027,10000622,CH,NA
52,Prison,Arizona,STATEWIDE,9/12/20,https://corrections.az.gov/adcrr-covid-19-dashboard,NA,689,NA,NA,NA,677,NA,NA,NA,NA,NA,NA,NA,NA,NA,NA,NA,NA,NA,NA,NA,NA,NA,NA,CH,NA
57,Prison,Arkansas,STATEWIDE,9/12/20,https://adc.arkansas.gov/coronavirus-covid-19-updates,5748,399,NA,NA,5278,399,16727,5114,NA,NA,NA,NA,NA,NA,NA,NA,NA,NA,NA,NA,NA,NA,NA,NA,CH,NA
56,Prison,Arkansas,CUMMINS UNIT PRISON,9/12/20,https://adc.arkansas.gov/coronavirus-covid-19-updates,NA,NA,5,NA,NA,NA,NA,NA,NA,NA,NA,NA,NA,NA,NA,NA,STATE HWY 388,71644,GRADY,LINCOLN,34.0515223,-91.584072,5079,10000085,CH,NA
1391,Prison,California,CTC RICHARD A MCGEE CORRECTIONAL TRAINING CENTER GALT CTC,9/12/20,https://www.cdcr.ca.gov/covid19/population-status-tracking/,NA,12,NA,NA,NA,10,NA,NA,NA,NA,NA,NA,NA,NA,NA,NA,NA,NA,NA,NA,NA,NA,NA,NA,CH,NA
83,Prison,California,NCYCC NORTHERN CALIFORNIA YOUTH CORRECTIONAL CENTER,9/12/20,https://www.cdcr.ca.gov/covid19/population-status-tracking/,NA,12,NA,NA,NA,5,NA,NA,NA,NA,NA,NA,NA,NA,NA,NA,7650 SOUTH NEWCASTLE ROAD,95215,STOCKTON,SAN JOAQUIN,37.8911829,-121.19782,6077,10000796,CH,NA
86,Prison,California,OH CLOSE YOUTH CORRECTIONAL FACILITY,9/12/20,https://www.cdcr.ca.gov/covid19/population-status-tracking/,NA,8,NA,NA,NA,4,NA,NA,NA,NA,NA,NA,NA,NA,NA,NA,7650 SOUTH NEWCASTLE ROAD,95213,STOCKTON,SAN JOAQUIN,37.8985213,-121.19769,6077,10000793,CH,NA
82,Prison,California,CHADERJIAN YOUTH CORRECTIONAL FACILITY,9/12/20,https://www.cdcr.ca.gov/covid19/population-status-tracking/,NA,4,NA,NA,NA,2,NA,NA,NA,NA,NA,NA,NA,NA,NA,NA,7650 SOUTH NEWCASTLE ROAD,95215,STOCKTON,SAN JOAQUIN,37.8911829,-121.19782,6077,10000796,CH,NA
1687,Prison,California,VENTURA,9/12/20,https://www.cdcr.ca.gov/covid19/population-status-tracking/,NA,20,NA,NA,NA,13,NA,NA,NA,NA,NA,NA,NA,NA,NA,NA,NA,NA,NA,NA,NA,NA,NA,NA,CH,NA
1831,Prison,California,PINE GROVE JUVENILE PRISON CAMP,9/12/20,https://www.cdcr.ca.gov/covid19/population-status-tracking/,NA,0,NA,NA,NA,0,NA,NA,NA,NA,NA,NA,NA,NA,NA,NA,NA,NA,NA,NA,NA,NA,NA,NA,CH,NA
101,Prison,California,CDCR CCHCS WORKSITE LOCATION LOS ANGELES COUNTY,9/12/20,https://www.cdcr.ca.gov/covid19/population-status-tracking/,NA,13,NA,NA,NA,7,NA,NA,NA,NA,NA,NA,NA,NA,NA,NA,NA,NA,NA,NA,NA,NA,6037,NA,CH,NA
1644,Prison,California,CDCR CCHCS WORKSITE LOCATION KERN COUNTY,9/12/20,https://www.cdcr.ca.gov/covid19/population-status-tracking/,NA,5,NA,NA,NA,2,NA,NA,NA,NA,NA,NA,NA,NA,NA,NA,NA,NA,NA,NA,NA,NA,NA,NA,CH,NA
103,Prison,California,CDCR CCHCS WORKSITE SACRAMENTO COUNTY,9/12/20,https://www.cdcr.ca.gov/covid19/population-status-tracking/,NA,38,NA,NA,NA,8,NA,NA,NA,NA,NA,NA,NA,NA,NA,NA,NA,NA,NA,NA,NA,NA,6067,NA,CH,NA
104,Prison,California,CDCR CCHCS WORKSITE SAN BERNARDINO COUNTY,9/12/20,https://www.cdcr.ca.gov/covid19/population-status-tracking/,NA,8,NA,NA,NA,3,NA,NA,NA,NA,NA,NA,NA,NA,NA,NA,NA,NA,NA,NA,NA,NA,6071,NA,CH,NA
1390,Prison,California,CDCR CCHCS WORKSITE SAN DIEGO COUNTY,9/12/20,https://www.cdcr.ca.gov/covid19/population-status-tracking/,NA,1,NA,NA,NA,0,NA,NA,NA,NA,NA,NA,NA,NA,NA,NA,NA,NA,NA,NA,NA,NA,NA,NA,CH,NA
1389,Prison,California,CDCR CCHCS WORKSITE SAN JOAQUIN COUNTY,9/12/20,https://www.cdcr.ca.gov/covid19/population-status-tracking/,NA,2,NA,NA,NA,2,NA,NA,NA,NA,NA,NA,NA,NA,NA,NA,NA,NA,NA,NA,NA,NA,NA,NA,CH,NA
1736,Prison,California,CDCR CCHCS WORKSITE LOCATION ORANGE COUNTY,9/12/20,https://www.cdcr.ca.gov/covid19/population-status-tracking/,NA,0,NA,NA,NA,0,NA,NA,NA,NA,NA,NA,NA,NA,NA,NA,NA,NA,NA,NA,NA,NA,NA,NA,CH,NA
1734,Prison,California,CDCR CCHCS WORKSITE LOCATION SANTA CLARA COUNTY,9/12/20,https://www.cdcr.ca.gov/covid19/population-status-tracking/,NA,1,NA,NA,NA,0,NA,NA,NA,NA,NA,NA,NA,NA,NA,NA,NA,NA,NA,NA,NA,NA,NA,NA,CH,NA
1735,Prison,California,CDCR CCHCS WORKSITE LOCATION SAN LUIS OBISPO COUNTY,9/12/20,https://www.cdcr.ca.gov/covid19/population-status-tracking/,NA,0,NA,NA,NA,0,NA,NA,NA,NA,NA,NA,NA,NA,NA,NA,NA,NA,NA,NA,NA,NA,NA,NA,CH,NA
1683,Prison,California,CDCR CCHCS WORKSITE LOCATION SOLANO COUNTY,9/12/20,https://www.cdcr.ca.gov/covid19/population-status-tracking/,NA,1,NA,NA,NA,1,NA,NA,NA,NA,NA,NA,NA,NA,NA,NA,NA,NA,NA,NA,NA,NA,NA,NA,CH,NA
1686,Prison,California,CDCR CCHCS WORKSITE LOCATION VENTURA COUNTY,9/12/20,https://www.cdcr.ca.gov/covid19/population-status-tracking/,NA,1,NA,NA,NA,0,NA,NA,NA,NA,NA,NA,NA,NA,NA,NA,NA,NA,NA,NA,NA,NA,NA,NA,CH,NA
1682,Prison,California,CDCR CCHCS WORKSITE LOCATION SANTA BARBARA COUNTY,9/12/20,https://www.cdcr.ca.gov/covid19/population-status-tracking/,NA,1,NA,NA,NA,0,NA,NA,NA,NA,NA,NA,NA,NA,NA,NA,NA,NA,NA,NA,NA,NA,NA,NA,CH,NA
1684,Prison,California,CDCR CCHCS WORKSITE LOCATION STANISLAUS COUNTY,9/12/20,https://www.cdcr.ca.gov/covid19/population-status-tracking/,NA,1,NA,NA,NA,1,NA,NA,NA,NA,NA,NA,NA,NA,NA,NA,NA,NA,NA,NA,NA,NA,NA,NA,CH,NA
1685,Prison,California,CDCR CCHCS WORKSITE LOCATION TULARE COUNTY,9/12/20,https://www.cdcr.ca.gov/covid19/population-status-tracking/,NA,1,NA,NA,NA,0,NA,NA,NA,NA,NA,NA,NA,NA,NA,NA,NA,NA,NA,NA,NA,NA,NA,NA,CH,NA
1681,Prison,California,CDCR CCHCS WORKSITE LOCATION MONTEREY COUNTY,9/12/20,https://www.cdcr.ca.gov/covid19/population-status-tracking/,NA,2,NA,NA,NA,1,NA,NA,NA,NA,NA,NA,NA,NA,NA,NA,NA,NA,NA,NA,NA,NA,NA,NA,CH,NA
1737,Prison,California,CDCR CCHCS WORKSITE LOCATION MENDOCINO COUNTY,9/12/20,https://www.cdcr.ca.gov/covid19/population-status-tracking/,NA,1,NA,NA,NA,0,NA,NA,NA,NA,NA,NA,NA,NA,NA,NA,NA,NA,NA,NA,NA,NA,NA,NA,CH,NA
102,Prison,California,CDCR CCHCS WORKSITE RIVERSIDE COUNTY,9/12/20,https://www.cdcr.ca.gov/covid19/population-status-tracking/,NA,1,NA,NA,NA,0,NA,NA,NA,NA,NA,NA,NA,NA,NA,NA,NA,NA,NA,NA,NA,NA,6065,NA,CH,NA
1739,Prison,California,CDCR CCHCS WORKSITE LOCATION FRESNO COUNTY,9/12/20,https://www.cdcr.ca.gov/covid19/population-status-tracking/,NA,2,NA,NA,NA,0,NA,NA,NA,NA,NA,NA,NA,NA,NA,NA,NA,NA,NA,NA,NA,NA,NA,NA,CH,NA
1738,Prison,California,CDCR CCHCS WORKSITE LOCATION IMPERIAL COUNTY,9/12/20,https://www.cdcr.ca.gov/covid19/population-status-tracking/,NA,1,NA,NA,NA,1,NA,NA,NA,NA,NA,NA,NA,NA,NA,NA,NA,NA,NA,NA,NA,NA,NA,NA,CH,NA
58,Prison,California,ASP AVENAL STATE PRISON,9/12/20,https://www.cdcr.ca.gov/covid19/population-status-tracking/,2267,241,5,NA,1834,93,1039,NA,NA,NA,NA,NA,NA,NA,64,NA,1 KINGS WAY,93204,AVENAL,KINGS,35.9739493,-120.1231,6031,10000826,CH,NA
75,Prison,California,FSP FOLSOM STATE PRISON,9/12/20,https://www.cdcr.ca.gov/covid19/population-status-tracking/,644,36,0,NA,303,33,2117,NA,NA,NA,NA,NA,NA,NA,6,NA,300 PRISON ROAD,95671,REPRESA,SACRAMENTO,38.6953834,-121.16303,6067,10000780,CH,NA
98,Prison,California,SATF SUBSTANCE ABUSE TREATMENT FACILITY,9/12/20,https://www.cdcr.ca.gov/covid19/population-status-tracking/,231,110,0,NA,58,71,831,NA,NA,NA,NA,NA,NA,NA,1,NA,NA,NA,NA,NA,NA,NA,NA,NA,CH,NA
71,Prison,California,CRC CALIFORNIA REHABILITATION CENTER,9/12/20,https://www.cdcr.ca.gov/covid19/population-status-tracking/,755,127,0,NA,565,106,1720,NA,NA,NA,NA,NA,NA,NA,22,NA,3195 WESTERN AVENUE,92860,NORCO,RIVERSIDE,33.9269179,-117.57594,6065,10000856,CH,NA
100,Prison,California,VSP VALLEY STATE PRISON,9/12/20,https://www.cdcr.ca.gov/covid19/population-status-tracking/,81,43,0,NA,0,34,2154,NA,NA,NA,NA,NA,NA,NA,0,NA,21633 AVENUE 24,93610,CHOWCHILLA,MADERA,37.1054774,-120.15547,6039,10000802,CH,NA
68,Prison,California,CMC CALIFORNIA MENS COLONY,9/12/20,https://www.cdcr.ca.gov/covid19/population-status-tracking/,291,51,1,NA,209,16,NA,NA,NA,NA,NA,NA,NA,NA,6,NA,COLONY DRIVE,93409,SAN LUIS OBISPO,SAN LUIS OBISPO,35.3245741,-120.6989,6079,10002345,CH,NA
106,Prison,California,WSP WASCO STATE PRISON,9/12/20,https://www.cdcr.ca.gov/covid19/population-status-tracking/,273,115,0,NA,178,71,NA,NA,NA,NA,NA,NA,NA,NA,31,NA,701 SCOFIELD AVENUE,93280,WASCO,KERN,35.5943119,-119.40833,6029,10000847,CH,NA
84,Prison,California,NKSP NORTH KERN STATE PRISON,9/12/20,https://www.cdcr.ca.gov/covid19/population-status-tracking/,74,190,0,NA,11,177,NA,NA,NA,NA,NA,NA,NA,NA,1,NA,2737 WEST CECIL AVENUE,93215,DELANO,KERN,35.7818851,-119.30988,6029,10000841,CH,NA
72,Prison,California,CTF CORRECTIONAL TRAINING FACILITY,9/12/20,https://www.cdcr.ca.gov/covid19/population-status-tracking/,109,42,1,NA,62,14,1262,NA,NA,NA,NA,NA,NA,NA,4,NA,SOLEDAD PRISON ROAD,93960,SOLEDAD,MONTEREY,36.4696479,-121.38223,6053,10000817,CH,NA
99,Prison,California,SVSP SALINAS VALLEY STATE PRISON,9/12/20,https://www.cdcr.ca.gov/covid19/population-status-tracking/,44,57,0,NA,5,39,NA,NA,NA,NA,NA,NA,NA,NA,2,NA,31625 HIGHWAY 101,93960,SOLEDAD,MONTEREY,36.478857,-121.37439,6053,10000821,CH,NA
79,Prison,California,LAC CALIFORNIA STATE PRISON LOS ANGELES COUNTY,9/12/20,https://www.cdcr.ca.gov/covid19/population-status-tracking/,190,101,0,NA,174,59,976,NA,NA,NA,NA,NA,NA,NA,1,NA,44750 60TH STREET WEST,93536,LANCASTER,LOS ANGELES,34.6935965,-118.22761,6037,10002353,CH,NA
62,Prison,California,CCI CALIFORNIA CORRECTIONAL INSTITUTION,9/12/20,https://www.cdcr.ca.gov/covid19/population-status-tracking/,808,179,0,NA,743,152,846,NA,NA,NA,NA,NA,NA,NA,51,NA,24900 HWY 202,93561,TEHACHAPI,KERN,35.1099149,-118.57033,6029,10001530,CH,NA
64,Prison,California,CEN CALIFORNIA STATE PRISON CENTINELA,9/12/20,https://www.cdcr.ca.gov/covid19/population-status-tracking/,61,103,0,NA,45,43,816,NA,NA,NA,NA,NA,NA,NA,3,NA,2302 BROWN ROAD,92251,IMPERIAL,IMPERIAL,32.8233973,-115.78906,6025,10002348,CH,NA
66,Prison,California,CIM CALIFORNIA INSTITUTION FOR MEN,9/12/20,https://www.cdcr.ca.gov/covid19/population-status-tracking/,1117,227,21,NA,1049,115,NA,NA,NA,NA,NA,NA,NA,NA,34,NA,14901 CENTRAL AVENUE,91710,CHINO,SAN BERNARDINO,33.9847122,-117.68239,6071,10000836,CH,NA
77,Prison,California,ISP IRONWOOD STATE PRISON,9/12/20,https://www.cdcr.ca.gov/covid19/population-status-tracking/,81,116,0,NA,64,100,NA,NA,NA,NA,NA,NA,NA,NA,5,NA,19005 WILEYS WELL ROAD,92225,BLYTHE,RIVERSIDE,33.560981,-114.92604,6065,10000861,CH,NA
70,Prison,California,COR CALIFORNIA STATE PRISON CORCORAN,9/12/20,https://www.cdcr.ca.gov/covid19/population-status-tracking/,358,212,1,NA,348,77,NA,NA,NA,NA,NA,NA,NA,NA,2,NA,4001 KING AVENUE,93212,CORCORAN,KINGS,36.0608182,-119.54912,6031,10000824,CH,NA
73,Prison,California,CVSP CHUCKAWALLA VALLEY STATE PRISON,9/12/20,https://www.cdcr.ca.gov/covid19/population-status-tracking/,1060,79,2,NA,1035,77,NA,NA,NA,NA,NA,NA,NA,NA,17,NA,19025 WILEYS WELL ROAD,92225,BLYTHE,RIVERSIDE,33.5625795,-114.90951,6065,10002346,CH,NA
97,Prison,California,SQ CA STATE PRISON SAN QUENTIN,9/12/20,https://www.cdcr.ca.gov/covid19/population-status-tracking/,2237,289,26,NA,2147,212,1071,NA,NA,NA,NA,NA,NA,NA,59,NA,MAIN STREET,94964,SAN QUENTIN,MARIN,37.9400398,-122.49037,6041,10000790,CH,NA
61,Prison,California,CCC CALIFORNIA CORRECTIONAL CENTER,9/12/20,https://www.cdcr.ca.gov/covid19/population-status-tracking/,661,29,0,NA,626,23,1217,NA,NA,NA,NA,NA,NA,NA,33,NA,711-045 CENTER ROAD,96127,SUSANVILLE,LASSEN,40.401958,-120.51673,6035,10000773,CH,NA
69,Prison,California,CMF CALIFORNIA MEDICAL FACILITY,9/12/20,https://www.cdcr.ca.gov/covid19/population-status-tracking/,8,46,0,NA,6,40,NA,NA,NA,NA,NA,NA,NA,NA,0,NA,1600 CALIFORNIA DRIVE,95696,VACAVILLE,SOLANO,38.3285102,-121.97916,6095,10000785,CH,NA
90,Prison,California,PVSP PLEASANT VALLEY STATE PRISON,9/12/20,https://www.cdcr.ca.gov/covid19/population-status-tracking/,3,26,0,NA,1,12,NA,NA,NA,NA,NA,NA,NA,NA,0,NA,24863 WEST JAYNE AVENUE,93210,COALINGA,FRESNO,36.1314731,-120.2489,6019,10000810,CH,NA
65,Prison,California,CHCF CALIFORNIA HEALTH CARE FACILITY,9/12/20,https://www.cdcr.ca.gov/covid19/population-status-tracking/,6,122,0,NA,5,71,NA,NA,NA,NA,NA,NA,NA,NA,0,NA,7707 AUSTIN ROAD,95215,STOCKTON,SAN JOAQUIN,37.8947278,-121.18484,6077,10000799,CH,NA
76,Prison,California,HDSP HIGH DESERT STATE PRISON,9/12/20,https://www.cdcr.ca.gov/covid19/population-status-tracking/,6,21,0,NA,5,15,NA,NA,NA,NA,NA,NA,NA,NA,0,NA,475-750 RICE CANYON ROAD,96127,SUSANVILLE,LASSEN,40.4034569,-120.52586,6035,10002310,CH,NA
78,Prison,California,KVSP KERN VALLEY STATE PRISON,9/12/20,https://www.cdcr.ca.gov/covid19/population-status-tracking/,12,91,0,NA,11,39,NA,NA,NA,NA,NA,NA,NA,NA,0,NA,3000 WEST CECIL AVENUE,93216,DELANO,KERN,35.7664744,-119.32536,6029,10000844,CH,NA
93,Prison,California,SAC CALIFORNIA STATE PRISON SACRAMENTO,9/12/20,https://www.cdcr.ca.gov/covid19/population-status-tracking/,14,39,0,NA,10,21,NA,NA,NA,NA,NA,NA,NA,NA,3,NA,100 PRISON ROAD,95671,REPRESA,SACRAMENTO,38.6944441,-121.1539,6067,10002322,CH,NA
95,Prison,California,SCC SIERRA CONSERVATION CENTER,9/12/20,https://www.cdcr.ca.gov/covid19/population-status-tracking/,18,31,0,NA,15,28,1549,NA,NA,NA,NA,NA,NA,NA,2,NA,5100 OBYRNES FERRY ROAD,95327,JAMESTOWN,TUOLUMNE,37.8916886,-120.53654,6109,10001522,CH,NA
96,Prison,California,SOL CALIFORNIA STATE PRISON SOLANO,9/12/20,https://www.cdcr.ca.gov/covid19/population-status-tracking/,4,38,0,NA,3,32,NA,NA,NA,NA,NA,NA,NA,NA,0,NA,2100 PEABODY ROAD,95687,VACAVILLE,SOLANO,38.3207765,-121.97524,6095,10002323,CH,NA
59,Prison,California,CAC CALIFORNIA CITY CORRECTIONAL FACILITY,9/12/20,https://www.cdcr.ca.gov/covid19/population-status-tracking/,4,35,0,NA,4,18,NA,NA,NA,NA,NA,NA,NA,NA,0,NA,22844 VIRGINIA BLVD,93505,CALIFORNIA CITY,KERN,35.1532512,-117.85888,6029,10000852,CH,NA
60,Prison,California,CAL CALIPATRIA STATE PRISON,9/12/20,https://www.cdcr.ca.gov/covid19/population-status-tracking/,26,90,0,NA,17,44,NA,NA,NA,NA,NA,NA,NA,NA,9,NA,7018 BLAIR ROAD,92233,CALIPATRIA,IMPERIAL,33.1656934,-115.48434,6025,10002347,CH,NA
63,Prison,California,CCWF CENTRAL CA WOMENS FACILITY,9/12/20,https://www.cdcr.ca.gov/covid19/population-status-tracking/,16,39,0,NA,16,15,NA,NA,NA,NA,NA,NA,NA,NA,0,NA,23370 ROAD 22,93610,CHOWCHILLA,MADERA,37.0936807,-120.15271,6039,10000801,CH,NA
67,Prison,California,CIW CALIFORNIA INSTITUTION FOR WOMEN,9/12/20,https://www.cdcr.ca.gov/covid19/population-status-tracking/,351,76,1,NA,340,61,NA,NA,NA,NA,NA,NA,NA,NA,10,NA,16756 CHINO-CORONA ROAD,92880,CORONA,SAN BERNARDINO,33.9497453,-117.63637,6071,10002341,CH,NA
74,Prison,California,DVI DEUEL VOCATIONAL INSTITUTION,9/12/20,https://www.cdcr.ca.gov/covid19/population-status-tracking/,0,49,0,NA,0,12,NA,NA,NA,NA,NA,NA,NA,NA,0,NA,23500 KASSON ROAD,95304,TRACY,SAN JOAQUIN,37.7480576,-121.33063,6077,10000794,CH,NA
81,Prison,California,MCSP MULE CREEK STATE PRISON,9/12/20,https://www.cdcr.ca.gov/covid19/population-status-tracking/,44,27,1,NA,42,11,1173,NA,NA,NA,NA,NA,NA,NA,1,NA,4001 STATE HIGHWAY 104,95640,IONE,AMADOR,38.3707434,-120.95345,6005,10000782,CH,NA
88,Prison,California,PBSP PELICAN BAY STATE PRISON,9/12/20,https://www.cdcr.ca.gov/covid19/population-status-tracking/,0,32,0,NA,0,18,NA,NA,NA,NA,NA,NA,NA,NA,0,NA,5905 LAKE EARL DRIVE,95531,CRESCENT CITY,DEL NORTE,41.8548085,-124.14908,6015,10002309,CH,NA
92,Prison,California,RJD RICHARD J DONOVAN CORRECTIONAL FACILITY,9/12/20,https://www.cdcr.ca.gov/covid19/population-status-tracking/,3,67,0,NA,3,40,NA,NA,NA,NA,NA,NA,NA,NA,0,NA,480 ALTA ROAD,92179,SAN DIEGO,SAN DIEGO,32.5845649,-116.93358,6073,10000869,CH,NA
107,Prison,Colorado,ARKANSAS VALLEY CORRECTIONAL FACILITY,9/12/20,https://www.colorado.gov/pacific/cdoc/covid-19-faq-and-updates,0,NA,0,NA,0,NA,17,NA,NA,NA,NA,NA,NA,NA,NA,NA,12750 HIGHWAY 96 AT LANE 13,81034,ORDWAY,CROWLEY,38.1914683,-103.84219,8025,10002228,CH,NA
108,Prison,Colorado,ARROWHEAD CORRECTIONAL FACILITY,9/12/20,https://www.colorado.gov/pacific/cdoc/covid-19-faq-and-updates,2,NA,0,NA,1,NA,1780,NA,NA,NA,NA,NA,NA,NA,NA,NA,E US HIGHWAY 50 AND EVANS BLVD,81212,CANON CITY,FREMONT,38.4361033,-105.1591,8043,10002225,CH,NA
109,Prison,Colorado,BENT COUNTY CORRECTIONAL FACILITY,9/12/20,https://www.colorado.gov/pacific/cdoc/covid-19-faq-and-updates,0,NA,0,NA,0,NA,209,NA,NA,NA,NA,NA,NA,NA,NA,NA,11560 ROAD FF75,81054,LAS ANIMAS,BENT,38.0645631,-103.20479,8011,10002233,CH,NA
110,Prison,Colorado,BUENA VISTA CORRECTIONAL COMPLEX,9/12/20,https://www.colorado.gov/pacific/cdoc/covid-19-faq-and-updates,198,NA,0,NA,198,NA,7671,NA,NA,NA,NA,NA,NA,NA,NA,NA,5125 HWY 24 285,81211,BUENA VISTA,CHAFFEE,38.8221012,-106.11471,8015,10000573,CH,NA
111,Prison,Colorado,CENTENNIAL CORRECTIONAL FACILITY,9/12/20,https://www.colorado.gov/pacific/cdoc/covid-19-faq-and-updates,16,NA,0,NA,16,NA,3757,NA,NA,NA,NA,NA,NA,NA,NA,NA,E US HIGHWAY 50 EVANS BLVD,81215,CANON CITY,FREMONT,NA,NA,8043,10002226,CH,NA
112,Prison,Colorado,COLORADO CORRECTIONAL CENTER,9/12/20,https://www.colorado.gov/pacific/cdoc/covid-19-faq-and-updates,0,NA,0,NA,0,NA,251,NA,NA,NA,NA,NA,NA,NA,NA,NA,15445 SOUTH GOLDEN ROAD,80401,GOLDEN,JEFFERSON,39.7349374,-105.17134,8059,10000563,CH,NA
113,Prison,Colorado,COLORADO STATE PENITENTIARY,9/12/20,https://www.colorado.gov/pacific/cdoc/covid-19-faq-and-updates,8,NA,0,NA,28,NA,2204,NA,NA,NA,NA,NA,NA,NA,NA,NA,E US HIGHWAY 50 EVANS BLVD,81215,CANON CITY,FREMONT,NA,NA,8043,10002227,CH,NA
114,Prison,Colorado,COLORADO TERRITORIAL CORRECTIONAL FACILITY,9/12/20,https://www.colorado.gov/pacific/cdoc/covid-19-faq-and-updates,0,NA,0,NA,0,NA,1112,NA,NA,NA,NA,NA,NA,NA,NA,NA,275 WEST UNITED STATES HIGHWAY 50,81215,CANON CITY,FREMONT,38.4380232,-105.2487,8043,10000578,CH,NA
115,Prison,Colorado,CROWLEY COUNTY CORRECTIONAL FACILITY,9/12/20,https://www.colorado.gov/pacific/cdoc/covid-19-faq-and-updates,66,NA,0,NA,66,NA,1902,NA,NA,NA,NA,NA,NA,NA,NA,NA,6564 HIGHWAY 96,81062,OLNEY SPRINGS,CROWLEY,38.1567387,-103.9573,8025,10000585,CH,NA
116,Prison,Colorado,DELTA CORRECTIONAL FACILITY,9/12/20,https://www.colorado.gov/pacific/cdoc/covid-19-faq-and-updates,0,NA,0,NA,0,NA,348,NA,NA,NA,NA,NA,NA,NA,NA,NA,11363 LOCKHART ROAD,81416,DELTA,DELTA,38.7091162,-108.14861,8029,10000569,CH,NA
117,Prison,Colorado,DENVER RECEPTION DIAGNOSTIC CENTER,9/12/20,https://www.colorado.gov/pacific/cdoc/covid-19-faq-and-updates,6,NA,0,NA,6,NA,2476,NA,NA,NA,NA,NA,NA,NA,NA,NA,10900 SMITH ROAD,80239,DENVER,DENVER,NA,NA,8031,10000560,CH,NA
118,Prison,Colorado,DENVER WOMENS CORRECTIONAL FACILITY,9/12/20,https://www.colorado.gov/pacific/cdoc/covid-19-faq-and-updates,1,NA,0,NA,1,NA,1948,NA,NA,NA,NA,NA,NA,NA,NA,NA,3600 HAVANA STREET,80239,DENVER,DENVER,39.7651023,-104.86078,8031,10000561,CH,NA
119,Prison,Colorado,FOUR MILE CORRECTIONAL FACILITY,9/12/20,https://www.colorado.gov/pacific/cdoc/covid-19-faq-and-updates,0,NA,0,NA,0,NA,188,NA,NA,NA,NA,NA,NA,NA,NA,NA,E US HIGHWAY 50 EVANS BLVD,81212,CANON CITY,FREMONT,38.4297698,-105.14785,8043,10000577,CH,NA
1707,Prison,Colorado,FREMONT CORRECTIONAL FACILITY,9/12/20,https://www.colorado.gov/pacific/cdoc/covid-19-faq-and-updates,6,NA,0,NA,6,NA,1024,NA,NA,NA,NA,NA,NA,NA,NA,NA,E US HIGHWAY 50 EVANS BLVD,81215,CANON CITY,FREMONT,NA,NA,8043,10000576,CH,NA
121,Prison,Colorado,LA VISTA CORRECTIONAL FACILITY,9/12/20,https://www.colorado.gov/pacific/cdoc/covid-19-faq-and-updates,0,NA,0,NA,0,NA,130,NA,NA,NA,NA,NA,NA,NA,NA,NA,1401 WEST 17TH STREET,81003,PUEBLO,PUEBLO,38.2848497,-104.6282,8101,10000586,CH,NA
1706,Prison,Colorado,LIMON CORRECTIONAL FACILITY,9/12/20,https://www.colorado.gov/pacific/cdoc/covid-19-faq-and-updates,0,NA,0,NA,0,NA,425,NA,NA,NA,NA,NA,NA,NA,NA,NA,NA,NA,NA,NA,NA,NA,NA,NA,CH,NA
123,Prison,Colorado,RIFLE CORRECTIONAL CENTER,9/12/20,https://www.colorado.gov/pacific/cdoc/covid-19-faq-and-updates,0,NA,0,NA,0,NA,25,NA,NA,NA,NA,NA,NA,NA,NA,NA,200 COUNTY ROAD 219,81650,RIFLE,GARFIELD,39.6501663,-107.77905,8045,10000557,CH,NA
124,Prison,Colorado,SAN CARLOS CORRECTIONAL FACILITY,9/12/20,https://www.colorado.gov/pacific/cdoc/covid-19-faq-and-updates,0,NA,0,NA,0,NA,185,NA,NA,NA,NA,NA,NA,NA,NA,NA,1410 WEST 13TH STREET,81003,PUEBLO,PUEBLO,NA,NA,8101,10000587,CH,NA
120,Prison,Colorado,SKYLINE CORRECTIONAL CENTER,9/12/20,https://www.colorado.gov/pacific/cdoc/covid-19-faq-and-updates,0,NA,0,NA,0,NA,8,NA,NA,NA,NA,NA,NA,NA,NA,NA,NA,NA,NA,NA,NA,NA,NA,NA,CH,NA
127,Prison,Colorado,STERLING CORRECTIONAL FACILITY,9/12/20,https://www.colorado.gov/pacific/cdoc/covid-19-faq-and-updates,564,NA,3,NA,561,NA,5221,NA,NA,NA,NA,NA,NA,NA,NA,NA,12101 HIGHWAY 61,80751,STERLING,LOGAN,40.6112346,-103.1621,8075,10000554,CH,NA
128,Prison,Colorado,TRINIDAD CORRECTIONAL FACILITY,9/12/20,https://www.colorado.gov/pacific/cdoc/covid-19-faq-and-updates,0,NA,0,NA,0,NA,192,NA,NA,NA,NA,NA,NA,NA,NA,NA,21000 HIGHWAY 350 EAST,81059,MODEL,LAS ANIMAS,37.3003461,-104.28666,8071,10000593,CH,NA
129,Prison,Colorado,YOUTHFUL OFFENDER SYSTEM,9/12/20,https://www.colorado.gov/pacific/cdoc/covid-19-faq-and-updates,0,NA,0,NA,0,NA,14,NA,NA,NA,NA,NA,NA,NA,NA,NA,1300 WEST 13TH ST,81003,PUEBLO,PUEBLO,NA,NA,8101,10000588,CH,NA
126,NA,Colorado,STATEWIDE,9/12/20,NA,NA,117,NA,NA,NA,100,NA,NA,NA,NA,NA,NA,NA,NA,NA,NA,NA,NA,NA,NA,NA,NA,NA,NA,CH,NA
130,Prison,Connecticut,BRIDGEPORT CC,9/12/20,https://portal.ct.gov/DOC/Common-Elements/Common-Elements/Health-Information-and-Advisories,139,NA,NA,NA,NA,NA,NA,NA,NA,NA,NA,NA,NA,NA,NA,NA,1106 NORTH AVE,6604,BRIDGEPORT,FAIRFIELD,41.1906143,-73.20106,9001,10002400,CH,NA
131,Prison,Connecticut,BROOKLYN CI,9/12/20,https://portal.ct.gov/DOC/Common-Elements/Common-Elements/Health-Information-and-Advisories,151,NA,NA,NA,NA,NA,NA,NA,NA,NA,NA,NA,NA,NA,NA,NA,59 HARTFORD RD,6234,BROOKLYN,WINDHAM,41.7841639,-71.954262,9015,10002399,CH,NA
133,Prison,Connecticut,CHESHIRE CI,9/12/20,https://portal.ct.gov/DOC/Common-Elements/Common-Elements/Health-Information-and-Advisories,26,NA,NA,NA,NA,NA,NA,NA,NA,NA,NA,NA,NA,NA,NA,NA,900 HIGHLAND AVE,6410,CHESHIRE,NEW HAVEN,41.5214912,-72.901765,9009,10000937,CH,NA
134,Prison,Connecticut,CORRIGAN RADGOWSKI CC,9/12/20,https://portal.ct.gov/DOC/Common-Elements/Common-Elements/Health-Information-and-Advisories,256,NA,NA,NA,NA,NA,NA,NA,NA,NA,NA,NA,NA,NA,NA,NA,986 NORWICH-NEW LONDON TURNPIKE,6382,UNCASVILLE,NEW LONDON,41.4541843,-72.112172,9011,10000931,CH,NA
136,Prison,Connecticut,GARNER CI,9/12/20,https://portal.ct.gov/DOC/Common-Elements/Common-Elements/Health-Information-and-Advisories,2,NA,NA,NA,NA,NA,NA,NA,NA,NA,NA,NA,NA,NA,NA,NA,50 NUNNAWAUK RD,6470,NEWTOWN,FAIRFIELD,41.4003589,-73.272112,9001,10000934,CH,NA
137,Prison,Connecticut,HARTFORD CC,9/12/20,https://portal.ct.gov/DOC/Common-Elements/Common-Elements/Health-Information-and-Advisories,120,NA,NA,NA,NA,NA,NA,NA,NA,NA,NA,NA,NA,NA,NA,NA,177 WESTON ST,6120,HARTFORD,HARTFORD,41.7936241,-72.661399,9003,10000926,CH,NA
1688,Prison,Connecticut,MACDOUGALL WALKER CI,9/12/20,https://portal.ct.gov/DOC/Common-Elements/Common-Elements/Health-Information-and-Advisories,6,NA,NA,NA,NA,NA,NA,NA,NA,NA,NA,NA,NA,NA,NA,NA,NA,NA,NA,NA,NA,NA,NA,NA,CH,NA
140,Prison,Connecticut,MANSON YOUTH,9/12/20,https://portal.ct.gov/DOC/Common-Elements/Common-Elements/Health-Information-and-Advisories,1,NA,NA,NA,NA,NA,NA,NA,NA,NA,NA,NA,NA,NA,NA,NA,42 JARVIS ST,6410,CHESHIRE,NEW HAVEN,41.5305002,-72.899798,9009,10000939,CH,NA
142,Prison,Connecticut,NEW HAVEN CC,9/12/20,https://portal.ct.gov/DOC/Common-Elements/Common-Elements/Health-Information-and-Advisories,139,NA,NA,NA,NA,NA,NA,NA,NA,NA,NA,NA,NA,NA,NA,NA,245 WHALLEY AVE,6511,NEW HAVEN,NEW HAVEN,41.3174806,-72.939971,9009,10005380,CH,NA
143,Prison,Connecticut,NORTHERN CI,9/12/20,https://portal.ct.gov/DOC/Common-Elements/Common-Elements/Health-Information-and-Advisories,1,NA,NA,NA,NA,NA,NA,NA,NA,NA,NA,NA,NA,NA,NA,NA,287 BILTON RD,6071,SOMERS,TOLLAND,42.0188064,-72.494881,9013,10000929,CH,NA
1689,Prison,Connecticut,NORTHERN CI INFIRMIRY,9/12/20,https://portal.ct.gov/DOC/Common-Elements/Common-Elements/Health-Information-and-Advisories,0,NA,NA,NA,NA,NA,NA,NA,NA,NA,NA,NA,NA,NA,NA,NA,NA,NA,NA,NA,NA,NA,NA,NA,CH,NA
144,Prison,Connecticut,OSBORN CI,9/12/20,https://portal.ct.gov/DOC/Common-Elements/Common-Elements/Health-Information-and-Advisories,306,NA,NA,NA,NA,NA,NA,NA,NA,NA,NA,NA,NA,NA,NA,NA,335 BILTON RD,6071,SOMERS,TOLLAND,42.0164002,-72.496935,9013,10000928,CH,NA
132,Prison,Connecticut,CARL ROBINSON CI,9/12/20,https://portal.ct.gov/DOC/Common-Elements/Common-Elements/Health-Information-and-Advisories,278,NA,NA,NA,NA,NA,NA,NA,NA,NA,NA,NA,NA,NA,NA,NA,285 SHAKER RD,6082,ENFIELD,HARTFORD,42.0156533,-72.515607,9003,10001605,CH,NA
146,Prison,Connecticut,WILLARD CYBULSKI CI,9/12/20,https://portal.ct.gov/DOC/Common-Elements/Common-Elements/Health-Information-and-Advisories,75,NA,NA,NA,NA,NA,NA,NA,NA,NA,NA,NA,NA,NA,NA,NA,391 SHAKER RD,6082,ENFIELD,TOLLAND,42.0167978,-72.506299,9003,10006149,CH,NA
147,Prison,Connecticut,YORK CI,9/12/20,https://portal.ct.gov/DOC/Common-Elements/Common-Elements/Health-Information-and-Advisories,0,NA,NA,NA,NA,NA,NA,NA,NA,NA,NA,NA,NA,NA,NA,NA,201 W MAIN ST,6357,NIANTIC,NEW LONDON,41.3230818,-72.237542,9011,10000933,CH,NA
145,NA,Connecticut,STATEWIDE,9/12/20,https://portal.ct.gov/DOC/Common-Elements/Common-Elements/Health-Information-and-Advisories,NA,380,7,NA,1338,359,NA,NA,NA,NA,NA,NA,NA,NA,231,NA,NA,NA,NA,NA,NA,NA,NA,NA,CH,NA
154,Prison,Delaware,STATEWIDE,9/12/20,https://doc.delaware.gov/views/covid19.blade.shtml,530,170,NA,NA,519,160,NA,NA,NA,NA,NA,NA,NA,NA,NA,NA,NA,NA,NA,NA,NA,NA,NA,NA,CH,NA
151,Prison,Delaware,JAMES T VAUGHN CORRECTIONAL CENTER,9/12/20,https://doc.delaware.gov/views/covid19.blade.shtml,NA,NA,7,0,NA,NA,NA,NA,NA,NA,NA,NA,NA,NA,NA,NA,1181 PADDOCK RD,19977,SMYRNA,NEW CASTLE,39.3329545,-75.59959,10003,10002262,CH,NA
150,Prison,Delaware,HOWARD R YOUNG CORRECTIONAL INSTITUTION,9/12/20,https://doc.delaware.gov/views/covid19.blade.shtml,NA,NA,0,0,NA,NA,NA,NA,NA,NA,NA,NA,NA,NA,NA,NA,1301 E 12TH ST,19802,WILMINGTON,NEW CASTLE,39.7412423,-75.529406,10003,10000699,CH,NA
148,Prison,Delaware,DELORES J BAYLOR WOMANS CORRECTIONAL INSTITUTION,9/12/20,https://doc.delaware.gov/views/covid19.blade.shtml,NA,NA,0,0,NA,NA,NA,NA,NA,NA,NA,NA,NA,NA,NA,NA,660 BAYLOR BLVD,19720,NEW CASTLE,NEW CASTLE,39.7039322,-75.581258,10003,10002260,CH,NA
156,Prison,Delaware,SUSSEX CORRECTIONAL INSTITUTION,9/12/20,https://doc.delaware.gov/views/covid19.blade.shtml,NA,NA,4,0,NA,NA,NA,NA,NA,NA,NA,NA,NA,NA,NA,NA,23203 DUPONT BLVD,19947,GEORGETOWN,SUSSEX,38.665915,-75.380123,10005,10000707,CH,NA
152,Prison,Delaware,MORRIS COMMUNITY CORRECTIONS CENTER,9/12/20,https://doc.delaware.gov/views/covid19.blade.shtml,NA,NA,0,0,NA,NA,NA,NA,NA,NA,NA,NA,NA,NA,NA,NA,300 WATER ST,19904,DOVER,KENT,39.1532852,-75.527269,10001,10000704,CH,NA
149,Prison,Delaware,HAZEL D PLANT WOMANS TREATMENT FACILITY,9/12/20,https://doc.delaware.gov/views/covid19.blade.shtml,NA,NA,0,0,NA,NA,NA,NA,NA,NA,NA,NA,NA,NA,NA,NA,660 BAYLOR BLVD,19720,NEW CASTLE,NEW CASTLE,39.7039322,-75.581258,10003,10002260,CH,NA
153,Prison,Delaware,PLUMMER COMMUNITY CORRECTIONS CENTER,9/12/20,https://doc.delaware.gov/views/covid19.blade.shtml,NA,NA,0,0,NA,NA,NA,NA,NA,NA,NA,NA,NA,NA,NA,NA,38 TODDS LN,19802,WILMINGTON,NEW CASTLE,39.7566447,-75.529044,10003,10000701,CH,NA
155,Prison,Delaware,SUSSEX COMMUNITY CORRECTIONS CENTER,9/12/20,https://doc.delaware.gov/views/covid19.blade.shtml,NA,NA,0,0,NA,NA,NA,NA,NA,NA,NA,NA,NA,NA,NA,NA,23207 DUPONT BLVD,19947,GEORGETOWN,SUSSEX,38.6584841,-75.371968,10005,10000706,CH,NA
363,Prison,Florida,APALACHEE CI,9/12/20,http://www.dc.state.fl.us/comm/covid-19.html,152,28,0,0,NA,NA,NA,NA,1659,NA,0,NA,53,NA,NA,NA,52 WEST UNIT DR,32460,SNEADS,JACKSON,30.7114832,-84.888182,12063,10000336,CH,NA
364,Prison,Florida,AVON PARK CI,9/12/20,http://www.dc.state.fl.us/comm/covid-19.html,229,52,2,0,NA,NA,NA,NA,1269,NA,1,NA,177,NA,NA,NA,8100 HIGHWAY 64 EAST,33825,AVON PARK,POLK,27.6462871,-81.403652,12105,10002177,CH,NA
365,Prison,Florida,BAKER CI,9/12/20,http://www.dc.state.fl.us/comm/covid-19.html,568,41,1,0,NA,NA,NA,NA,909,NA,0,NA,115,NA,NA,NA,20706 US HIGHWAY 90 W,32087,SANDERSON,BAKER,30.2132514,-82.374512,12003,10000402,CH,NA
366,Prison,Florida,BAY CF,9/12/20,http://www.dc.state.fl.us/comm/covid-19.html,340,40,1,0,NA,NA,NA,NA,663,NA,2,NA,75,NA,NA,NA,5400 BAYLINE DR,32404,PANAMA CITY,BAY,30.2657071,-85.505532,12005,10001445,CH,NA
367,Prison,Florida,BLACKWATER CF,9/12/20,http://www.dc.state.fl.us/comm/covid-19.html,116,26,7,0,NA,NA,NA,NA,2089,NA,29,NA,68,NA,NA,NA,5914 JEFF ATES ROAD,32583,MILTON,SANTA ROSA,30.645687,-86.950609,12113,10006205,CH,NA
369,Prison,Florida,CALHOUN CI,9/12/20,http://www.dc.state.fl.us/comm/covid-19.html,154,14,0,0,NA,NA,NA,NA,1562,NA,0,NA,79,NA,NA,NA,19564 SE INSTITUTION DR,32424,BLOUNTSTOWN,CALHOUN,30.40585,-85.063945,12013,10000387,CH,NA
1758,NA,Florida,CENTRAL OFFICE,9/12/20,http://www.dc.state.fl.us/comm/covid-19.html,NA,2,NA,NA,NA,NA,NA,NA,NA,NA,NA,NA,NA,NA,NA,NA,NA,NA,NA,NA,NA,NA,NA,NA,CH,NA
370,Prison,Florida,CENTURY CI,9/12/20,http://www.dc.state.fl.us/comm/covid-19.html,772,40,3,0,NA,NA,NA,NA,748,NA,3,NA,535,NA,NA,NA,400 TEDDER RD,32535,CENTURY,ESCAMBIA,30.9581764,-87.2995,12033,10002152,CH,NA
371,Prison,Florida,CFRC,9/12/20,http://www.dc.state.fl.us/comm/covid-19.html,265,58,2,0,NA,NA,NA,NA,1983,NA,0,NA,517,NA,NA,NA,7000 H C KELLEY RD,32831,ORLANDO,ORANGE,28.4532751,-81.15901,12095,10000460,CH,NA
372,Prison,Florida,CHARLOTTE CI,9/12/20,http://www.dc.state.fl.us/comm/covid-19.html,54,21,0,0,NA,NA,NA,NA,1259,NA,13,NA,217,NA,NA,NA,33123 OIL WELL RD,33955,PUNTA GORDA,CHARLOTTE,26.8036079,-81.90381,12015,10002187,CH,NA
373,Prison,Florida,COLUMBIA CI,9/12/20,http://www.dc.state.fl.us/comm/covid-19.html,1338,87,8,0,NA,NA,NA,NA,772,NA,1,NA,756,NA,NA,NA,7906 EAST HIGHWAY 90,32055,LAKE CITY,COLUMBIA,30.192528,-82.507739,12023,10000394,CH,NA
374,NA,Florida,COMMUNITY CORRECTIONS¬†REGION 1,9/12/20,http://www.dc.state.fl.us/comm/covid-19.html,NA,24,NA,NA,NA,NA,NA,NA,NA,NA,NA,NA,NA,NA,NA,NA,10650 SOUTHWEST 46TH STREET,10650,JASPER,NA,30.5046671,-82.963194,NA,NA,CH,NA
375,NA,Florida,COMMUNITY CORRECTIONS REGION 2,9/12/20,http://www.dc.state.fl.us/comm/covid-19.html,NA,21,NA,NA,NA,NA,NA,NA,NA,NA,NA,NA,NA,NA,NA,NA,NA,NA,NA,NA,NA,NA,NA,NA,CH,NA
377,NA,Florida,COMMUNITY CORRECTIONS¬†REGION 3,9/12/20,http://www.dc.state.fl.us/comm/covid-19.html,NA,60,NA,NA,NA,NA,NA,NA,NA,NA,NA,NA,NA,NA,NA,NA,2002 E 26TH AVENUE,33605,TAMPA,NA,26.8384331,-81.120802,NA,NA,CH,NA
378,NA,Florida,COMMUNITY CORRECTIONS¬†REGION 4,9/12/20,http://www.dc.state.fl.us/comm/covid-19.html,NA,47,NA,NA,NA,NA,NA,NA,NA,NA,NA,NA,NA,NA,NA,NA,1641 WORTHINGTON ROAD,33409,WEST PALM BEACH FL,NA,30.5046671,-82.963194,NA,NA,CH,NA
379,Prison,Florida,CROSS CITY CI,9/12/20,http://www.dc.state.fl.us/comm/covid-19.html,297,54,2,0,NA,NA,NA,NA,1307,NA,0,NA,305,NA,NA,NA,568 NE 255TH ST,32628,CROSS CITY,DIXIE,29.6347536,-83.098871,12029,10000432,CH,NA
380,Prison,Florida,DADE CI,9/12/20,http://www.dc.state.fl.us/comm/covid-19.html,95,166,10,0,NA,NA,NA,NA,1439,NA,0,NA,206,NA,NA,NA,19000 SW 377TH ST,33034,FLORIDA CITY,MIAMI-DADE,25.4154012,-80.499919,12086,10000546,CH,NA
381,Prison,Florida,DESOTO ANNEX,9/12/20,http://www.dc.state.fl.us/comm/covid-19.html,210,35,0,0,NA,NA,NA,NA,1691,NA,0,NA,138,NA,NA,NA,13617 SE HWY 70,34266,ARCADIA,DESOTO,27.20934,-81.66191,12027,10000504,CH,NA
382,Prison,Florida,EVERGLADES CI,9/12/20,http://www.dc.state.fl.us/comm/covid-19.html,352,106,6,0,NA,NA,NA,NA,2239,NA,0,NA,440,NA,NA,NA,1599 SW 187TH AVE,33194,MIAMI,MIAMI-DADE,25.7508634,-80.488961,12086,10004646,CH,NA
383,Prison,Florida,FLORIDA STATE PRISON,9/12/20,http://www.dc.state.fl.us/comm/covid-19.html,140,55,0,0,NA,NA,NA,NA,1804,NA,0,NA,254,NA,NA,NA,7819 NW 228TH STREET,32026,RAIFORD,BRADFORD,30.0584396,-82.18365,12007,10004580,CH,NA
384,Prison,Florida,FRANKLIN CI,9/12/20,http://www.dc.state.fl.us/comm/covid-19.html,321,37,0,0,NA,NA,NA,NA,886,NA,0,NA,135,NA,NA,NA,1760 HWY 67 NORTH,32322,CARRABELLE,FRANKLIN,29.8779743,-84.645857,12037,10000422,CH,NA
385,Prison,Florida,FWRC,9/12/20,http://www.dc.state.fl.us/comm/covid-19.html,484,47,2,1,NA,NA,NA,NA,279,NA,0,NA,60,NA,NA,NA,3700 NW 111TH PLACE,34482,OCALA,MARION,29.3097992,-82.18626,12083,10006167,CH,NA
386,Prison,Florida,GADSDEN CF,9/12/20,http://www.dc.state.fl.us/comm/covid-19.html,92,26,0,0,NA,NA,NA,NA,1144,NA,0,NA,0,NA,NA,NA,6044 GREENSBORO HWY,32351,QUINCY,GADSDEN,30.5897214,-84.655584,12039,10000369,CH,NA
387,Prison,Florida,GADSDEN RE ENTRY CENTER,9/12/20,http://www.dc.state.fl.us/comm/covid-19.html,NA,NA,0,0,NA,NA,NA,NA,NA,NA,NA,NA,NA,NA,NA,NA,630 OPPORTUNITY LANE,32333,HAVANA,GADSDEN,30.5460808,-84.494899,12039,10006326,CH,NA
387,NA,Florida,GADSDEN RE ENTRY CENTER,9/12/20,http://www.dc.state.fl.us/comm/covid-19.html,206,32,NA,NA,NA,NA,NA,NA,113,NA,0,NA,72,NA,NA,NA,630 OPPORTUNITY LANE,32333,HAVANA,GADSDEN,30.5460808,-84.494899,12039,10006326,CH,NA
388,Prison,Florida,GRACEVILLE CF,9/12/20,http://www.dc.state.fl.us/comm/covid-19.html,660,44,6,0,NA,NA,NA,NA,1237,NA,20,NA,105,NA,NA,NA,5230 EZELL RD,32440,GRACEVILLE,JACKSON,30.9482909,-85.492224,12063,10000332,CH,NA
389,Prison,Florida,GULF CI,9/12/20,http://www.dc.state.fl.us/comm/covid-19.html,262,38,0,0,NA,NA,NA,NA,943,NA,0,NA,90,NA,NA,NA,699 IKE STEELE ROAD,32465,WEWAHITCHKA,GULF,30.1751277,-85.267249,12045,10000411,CH,NA
390,Prison,Florida,HAMILTON CI,9/12/20,http://www.dc.state.fl.us/comm/covid-19.html,266,46,0,0,NA,NA,NA,NA,2050,NA,2,NA,626,NA,NA,NA,10650 SW 46TH ST,32052,JASPER,HAMILTON,30.504668,-82.963192,12047,10000385,CH,NA
391,Prison,Florida,HARDEE CI,9/12/20,http://www.dc.state.fl.us/comm/covid-19.html,98,40,0,0,NA,NA,NA,NA,1573,NA,8,NA,76,NA,NA,NA,6899 STATE RD 62,33834,BOWLING GREEN,HARDEE,27.5936935,-82.006875,12049,10000492,CH,NA
392,Prison,Florida,HERNANDO CI,9/12/20,http://www.dc.state.fl.us/comm/covid-19.html,0,5,0,0,NA,NA,NA,NA,3,NA,0,NA,4,NA,NA,NA,16415 SPRING HILL DR,34604,BROOKSVILLE,HERNANDO,28.483022,-82.454434,12053,10000465,CH,NA
393,Prison,Florida,HOLMES CI,9/12/20,http://www.dc.state.fl.us/comm/covid-19.html,170,32,1,0,NA,NA,NA,NA,1139,NA,0,NA,192,NA,NA,NA,3142 THOMAS DR,32425,BONIFAY,HOLMES,30.7554506,-85.670159,12059,10000356,CH,NA
394,Prison,Florida,HOMESTEAD CI,9/12/20,http://www.dc.state.fl.us/comm/covid-19.html,302,51,2,0,NA,NA,NA,NA,515,NA,0,NA,37,NA,NA,NA,19000 SW 377TH ST,33034,FLORIDA CITY,MIAMI-DADE,25.4129931,-80.4973,12086,10000545,CH,NA
395,NA,Florida,JACKSON CI,9/12/20,http://www.dc.state.fl.us/comm/covid-19.html,195,36,NA,NA,NA,NA,NA,NA,1308,NA,0,NA,205,NA,NA,NA,5563 10TH ST,32445,MALONE,JACKSON,30.9687259,-85.168604,12063,10000334,CH,NA
396,NA,Florida,JEFFERSON CI,9/12/20,http://www.dc.state.fl.us/comm/covid-19.html,257,50,NA,NA,NA,NA,NA,NA,328,NA,1,NA,90,NA,NA,NA,1050 BIG JOE RD,32344,MONTICELLO,JEFFERSON,30.5097362,-83.801576,12065,10000378,CH,NA
397,Prison,Florida,LAKE CI,9/12/20,http://www.dc.state.fl.us/comm/covid-19.html,106,42,1,0,NA,NA,NA,NA,983,NA,4,NA,287,NA,NA,NA,19225 US HWY 27,34715,CLERMONT,LAKE,28.6204936,-81.766428,12069,10000453,CH,NA
398,Prison,Florida,LAKE CITY CF,9/12/20,http://www.dc.state.fl.us/comm/covid-19.html,69,15,0,0,NA,NA,NA,NA,758,NA,0,NA,1,NA,NA,NA,7906 EAST HIGHWAY 90,32055,LAKE CITY,COLUMBIA,30.192528,-82.507739,12023,10000394,CH,NA
399,Prison,Florida,LANCASTER CI,9/12/20,http://www.dc.state.fl.us/comm/covid-19.html,33,23,0,0,NA,NA,NA,NA,706,NA,0,NA,23,NA,NA,NA,3449 SW STATE RD 26,32693,TRENTON,GILCHRIST,29.608012,-82.863474,12041,10000428,CH,NA
400,Prison,Florida,LAWTEY CI,9/12/20,http://www.dc.state.fl.us/comm/covid-19.html,0,5,0,0,NA,NA,NA,NA,6,NA,0,NA,1,NA,NA,NA,22298 NE COUNTY ROAD 200B,32058,LAWTEY,BRADFORD,30.0339212,-82.072365,12007,10000414,CH,NA
401,Prison,Florida,LIBERTY CI,9/12/20,http://www.dc.state.fl.us/comm/covid-19.html,221,33,3,0,NA,NA,NA,NA,1750,NA,0,NA,402,NA,NA,NA,11064 NW DEMPSEY BARRON RD,32321,BRISTOL,LIBERTY,30.4638368,-84.855881,12077,10000391,CH,NA
402,Prison,Florida,LOWELL CI,9/12/20,http://www.dc.state.fl.us/comm/covid-19.html,1004,71,2,0,NA,NA,NA,NA,1273,NA,8,NA,546,NA,NA,NA,11120 NW GAINESVILLE RD,34482,OCALA,MARION,29.3107979,-82.200398,12083,10000437,CH,NA
403,Prison,Florida,MADISON CI,9/12/20,http://www.dc.state.fl.us/comm/covid-19.html,102,55,1,0,NA,NA,NA,NA,1083,NA,1,NA,524,NA,NA,NA,382 SW MCI WAY,32340,MADISON,MADISON,30.4400875,-83.421612,12079,10000381,CH,NA
404,Prison,Florida,MARION CI,9/12/20,http://www.dc.state.fl.us/comm/covid-19.html,313,28,0,0,NA,NA,NA,NA,1124,NA,0,NA,161,NA,NA,NA,3269 NW 105TH ST,34475,OCALA,MARION,29.3081009,-82.175024,12083,10000440,CH,NA
405,Prison,Florida,MARTIN CI,9/12/20,http://www.dc.state.fl.us/comm/covid-19.html,1,10,0,0,NA,NA,NA,NA,20,NA,0,NA,65,NA,NA,NA,1150 SW ALLAPATTAH ROAD,34956,INDIANTOWN,MARTIN,27.1966197,-80.484877,12085,10000508,CH,NA
406,Prison,Florida,MAYO ANNEX,9/12/20,http://www.dc.state.fl.us/comm/covid-19.html,954,50,1,0,NA,NA,NA,NA,476,NA,0,NA,237,NA,NA,NA,8784 US HWY 27 W,32066,MAYO,LAFAYETTE,30.1384625,-83.305142,12067,10000409,CH,NA
407,Prison,Florida,MOORE HAVEN CF,9/12/20,http://www.dc.state.fl.us/comm/covid-19.html,149,29,0,0,NA,NA,NA,NA,690,NA,0,NA,126,NA,NA,NA,1282 EAST STATE ROAD 78,33471,MOORE HAVEN,GLADES,26.8384322,-81.120182,12043,10000510,CH,NA
408,Prison,Florida,NEW RIVER CI,9/12/20,http://www.dc.state.fl.us/comm/covid-19.html,102,14,1,0,NA,NA,NA,NA,1044,NA,0,NA,0,NA,NA,NA,8000 NW 80TH PLACE,32083,RAIFORD,BRADFORD,30.0628479,-82.178092,12007,10000416,CH,NA
409,Prison,Florida,NWFRC,9/12/20,http://www.dc.state.fl.us/comm/covid-19.html,312,45,0,0,NA,NA,NA,NA,1622,NA,10,NA,285,NA,NA,NA,4455 SAM MITCHELL DR,32428,CHIPLEY,WASHINGTON,30.52073,-85.659698,12133,10000365,CH,NA
410,Prison,Florida,OKALOOSA CI,9/12/20,http://www.dc.state.fl.us/comm/covid-19.html,12,16,0,0,NA,NA,NA,NA,1101,NA,0,NA,53,NA,NA,NA,3189 COLONEL GREG MALLOY RD,32539,CRESTVIEW,OKALOOSA,30.696812,-86.527331,12091,10004557,CH,NA
411,Prison,Florida,OKEECHOBEE CI,9/12/20,http://www.dc.state.fl.us/comm/covid-19.html,37,37,0,0,NA,NA,NA,NA,2404,NA,0,NA,271,NA,NA,NA,3420 NE 168TH ST,34972,OKEECHOBEE,OKEECHOBEE,27.3960695,-80.784445,12093,10000495,CH,NA
412,Prison,Florida,POLK CI,9/12/20,http://www.dc.state.fl.us/comm/covid-19.html,210,33,0,0,NA,NA,NA,NA,1063,NA,0,NA,349,NA,NA,NA,10800 EVANS RD,33868,POLK CITY,POLK,28.1915172,-81.786758,12105,10000473,CH,NA
413,Prison,Florida,PUTNAM CI,9/12/20,http://www.dc.state.fl.us/comm/covid-19.html,0,8,0,0,NA,NA,NA,NA,2,NA,0,NA,38,NA,NA,NA,128 YELVINGTON RD,32131,EAST PALATKA,PUTNAM,29.6461701,-81.587786,12107,10000430,CH,NA
414,Prison,Florida,RMC,9/12/20,http://www.dc.state.fl.us/comm/covid-19.html,250,67,10,1,NA,NA,NA,NA,1931,NA,0,NA,459,NA,NA,NA,7765 S COUNTY RD 231,32054,LAKE BUTLER,UNION,29.9896556,-82.359184,12125,10000418,CH,NA
415,Prison,Florida,SANTA ROSA CI,9/12/20,http://www.dc.state.fl.us/comm/covid-19.html,808,164,0,0,NA,NA,NA,NA,1734,NA,1,NA,61,NA,NA,NA,5850 E MILTON RD,32583,MILTON,SANTA ROSA,30.6456153,-86.967429,12113,10000339,CH,NA
416,Prison,Florida,SFRC,9/12/20,http://www.dc.state.fl.us/comm/covid-19.html,204,147,17,0,NA,NA,NA,NA,2100,NA,0,NA,316,NA,NA,NA,14000 NW 41ST ST,33178,DORAL,MIAMI-DADE,25.8058766,-80.426387,12086,10000547,CH,NA
417,Prison,Florida,SOUTH BAY CF,9/12/20,http://www.dc.state.fl.us/comm/covid-19.html,415,84,6,0,NA,NA,NA,NA,1930,NA,29,NA,89,NA,NA,NA,600 US HWY 27 S,33493,SOUTH BAY,PALM BEACH,26.6577477,-80.71929,12099,10000512,CH,NA
420,Prison,Florida,SUMTER CI,9/12/20,http://www.dc.state.fl.us/comm/covid-19.html,103,34,3,0,NA,NA,NA,NA,68,NA,0,NA,28,NA,NA,NA,9544 COUNTY RD 476B,33513,BUSHNELL,SUMTER,28.6174839,-82.207543,12119,10000455,CH,NA
421,Prison,Florida,SUWANNEE CI,9/12/20,http://www.dc.state.fl.us/comm/covid-19.html,820,101,7,0,NA,NA,NA,NA,1075,NA,0,NA,707,NA,NA,NA,5964 US HWY 90,32060,LIVE OAK,SUWANNEE,30.2381941,-82.873118,12121,10000405,CH,NA
422,Prison,Florida,TAYLOR CI,9/12/20,http://www.dc.state.fl.us/comm/covid-19.html,684,31,2,0,NA,NA,NA,NA,1474,NA,5,NA,623,NA,NA,NA,8501 HAMPTON SPRINGS ROAD,32348,PERRY,TAYLOR,30.040944,-83.71342,12123,10004574,CH,NA
423,Prison,Florida,TOMOKA CI,9/12/20,http://www.dc.state.fl.us/comm/covid-19.html,139,29,0,0,NA,NA,NA,NA,98,NA,1,NA,87,NA,NA,NA,3950 TIGER BAY RD,32124,DAYTONA BEACH,VOLUSIA,29.1515709,-81.157268,12127,10000444,CH,NA
424,Prison,Florida,UNION CI,9/12/20,http://www.dc.state.fl.us/comm/covid-19.html,122,48,2,0,NA,NA,NA,NA,1701,NA,0,NA,756,NA,NA,NA,25636 NE SR-16,32083,RAIFORD,UNION,30.0667464,-82.192787,12125,10000417,CH,NA
425,Prison,Florida,WAKULLA CI,9/12/20,http://www.dc.state.fl.us/comm/covid-19.html,247,138,5,0,NA,NA,NA,NA,2588,NA,0,NA,597,NA,NA,NA,110 MELALEUCA DRIVE,32327,CRAWFORDVILLE,WAKULLA,30.2614929,-84.174805,12129,10004575,CH,NA
426,Prison,Florida,WALTON CI,9/12/20,http://www.dc.state.fl.us/comm/covid-19.html,0,4,0,0,NA,NA,NA,NA,3,NA,0,NA,37,NA,NA,NA,691 INSTITUTION RD,32433,DEFUNIAK SPRINGS,WALTON,30.7786801,-86.103185,12131,10000360,CH,NA
427,Prison,Florida,ZEPHYRHILLS CI,9/12/20,http://www.dc.state.fl.us/comm/covid-19.html,0,14,0,0,NA,NA,NA,NA,18,NA,0,NA,5,NA,NA,NA,2739 GALL BLVD,33541,ZEPHYRHILLS,PASCO,28.1990979,-82.198692,12101,10000467,CH,NA
1768,Prison,Georgia,WOMENS PDC,9/12/20,http://www.gdc.ga.gov/content/cases,5,6,0,0,2,3,NA,NA,NA,NA,NA,NA,NA,NA,NA,NA,NA,NA,NA,NA,NA,NA,NA,NA,CH,NA
1760,Prison,Georgia,APPLING ITF,9/12/20,http://www.gdc.ga.gov/content/cases,0,3,0,0,0,2,NA,NA,NA,NA,NA,NA,NA,NA,NA,NA,NA,NA,NA,NA,NA,NA,NA,NA,CH,NA
428,Prison,Georgia,ASMP,9/12/20,http://www.gdc.ga.gov/content/cases,108,62,5,0,61,41,NA,NA,NA,NA,NA,NA,NA,NA,NA,NA,3001 GORDON HWY,30813,GROVETOWN,COLUMBIA,33.4328791,-82.188521,13073,10006153,CH,NA
429,Prison,Georgia,ATLANTA TC,9/12/20,http://www.gdc.ga.gov/content/cases,4,0,0,0,1,0,NA,NA,NA,NA,NA,NA,NA,NA,NA,NA,332 PONCE DE LEON AVE NE,30308,ATLANTA,FULTON,33.7727022,-84.376264,13121,10001411,CH,NA
1761,Prison,Georgia,AUGUSTA TC,9/12/20,http://www.gdc.ga.gov/content/cases,5,1,0,0,5,0,NA,NA,NA,NA,NA,NA,NA,NA,NA,NA,NA,NA,NA,NA,NA,NA,NA,NA,CH,NA
430,Prison,Georgia,AUTRY STATE PRISON,9/12/20,http://www.gdc.ga.gov/content/cases,77,13,3,0,73,12,NA,NA,NA,NA,NA,NA,NA,NA,NA,NA,3178 MOUNT ZION CHURCH RD,31779,PELHAM,MITCHELL,31.1894647,-84.14511,13205,10000325,CH,NA
431,Prison,Georgia,BACON PDC,9/12/20,http://www.gdc.ga.gov/content/cases,3,6,0,0,3,4,NA,NA,NA,NA,NA,NA,NA,NA,NA,NA,165 EAST EASTSIDE INDUSTRIAL BOULEVARD,31510,ALMA,BACON,31.5330826,-82.449877,13005,10004534,CH,NA
432,Prison,Georgia,BAINBRIDGE PSAT,9/12/20,http://www.gdc.ga.gov/content/cases,47,15,0,0,41,14,NA,NA,NA,NA,NA,NA,NA,NA,NA,NA,235 STATE HOSPITAL ROAD,39817,BAINBRIDGE,DECATUR,30.9825299,-84.636775,13087,10006339,CH,NA
433,Prison,Georgia,BALDWIN STATE PRISON,9/12/20,http://www.gdc.ga.gov/content/cases,24,34,2,0,22,30,NA,NA,NA,NA,NA,NA,NA,NA,NA,NA,140 LAYING FARM RD,31034,HARDWICK,BALDWIN,33.0250608,-83.221361,13009,10002129,CH,NA
1762,Prison,Georgia,BLECKLEY PSATC,9/12/20,http://www.gdc.ga.gov/content/cases,33,8,0,0,33,5,NA,NA,NA,NA,NA,NA,NA,NA,NA,NA,NA,NA,NA,NA,NA,NA,NA,NA,CH,NA
434,Prison,Georgia,BURRUSS CTC,9/12/20,http://www.gdc.ga.gov/content/cases,13,16,0,0,9,14,NA,NA,NA,NA,NA,NA,NA,NA,NA,NA,1000 INDIAN SPRINGS DR,31029,FORSYTH,MONROE,33.0555456,-83.975385,13207,10001421,CH,NA
435,Prison,Georgia,CALHOUN STATE PRISON,9/12/20,http://www.gdc.ga.gov/content/cases,57,27,1,1,52,25,NA,NA,NA,NA,NA,NA,NA,NA,NA,NA,27823 MAIN ST,39866,MORGAN,CALHOUN,31.5397572,-84.616688,13037,10002146,CH,NA
436,Prison,Georgia,CENTRAL STATE PRISON,9/12/20,http://www.gdc.ga.gov/content/cases,27,18,0,0,10,13,NA,NA,NA,NA,NA,NA,NA,NA,NA,NA,4600 FULTON MILL RD,31208,MACON,BIBB,32.7768271,-83.751819,13021,10002134,CH,NA
1460,Prison,Georgia,CLARKE COUNTY CI,9/12/20,http://www.gdc.ga.gov/content/cases,15,NA,0,0,15,NA,NA,NA,NA,NA,NA,NA,NA,NA,NA,NA,NA,NA,NA,NA,NA,NA,NA,NA,CH,NA
437,Prison,Georgia,CLAYTON TC,9/12/20,http://www.gdc.ga.gov/content/cases,7,8,0,0,7,7,NA,NA,NA,NA,NA,NA,NA,NA,NA,NA,242 FALCON DR,30297,FOREST PARK,CLAYTON,33.6243019,-84.397681,13063,10002121,CH,NA
438,Prison,Georgia,COASTAL STATE PRISON,9/12/20,http://www.gdc.ga.gov/content/cases,60,10,6,0,48,9,NA,NA,NA,NA,NA,NA,NA,NA,NA,NA,200 GULF STREAM RD,31418,GARDEN CITY,CHATHAM,32.1375922,-81.186567,13051,10000314,CH,NA
439,Prison,Georgia,COFFEE CORRECTIONAL FACILITY,9/12/20,http://www.gdc.ga.gov/content/cases,204,NA,4,0,198,NA,NA,NA,NA,NA,NA,NA,NA,NA,NA,NA,1153 NORTH LIBERTY STREET,31554,NICHOLLS,COFFEE,31.5306354,-82.637913,13069,10002144,CH,NA
440,Prison,Georgia,COLQUITT COUNTY CI,9/12/20,http://www.gdc.ga.gov/content/cases,11,NA,0,0,11,NA,NA,NA,NA,NA,NA,NA,NA,NA,NA,NA,200 SOUTH VANDENBERG DRIVE,31768,MOULTRIE,COLQUITT,31.1297308,-83.707866,13071,10004548,CH,NA
441,Prison,Georgia,COLUMBUS TC,9/12/20,http://www.gdc.ga.gov/content/cases,4,3,0,0,4,3,NA,NA,NA,NA,NA,NA,NA,NA,NA,NA,3900 SCHATULGA ROAD,31907,COLUMBUS,MUSCOGEE,32.4940787,-84.868928,13215,10001426,CH,NA
1763,Prison,Georgia,DECATUR COUNTY CI,9/12/20,http://www.gdc.ga.gov/content/cases,1,NA,0,0,1,NA,NA,NA,NA,NA,NA,NA,NA,NA,NA,NA,NA,NA,NA,NA,NA,NA,NA,NA,CH,NA
442,Prison,Georgia,DODGE STATE PRISON,9/12/20,http://www.gdc.ga.gov/content/cases,21,17,1,1,7,3,NA,NA,NA,NA,NA,NA,NA,NA,NA,NA,2971 OLD BETHEL CHURCH ROAD,31012,CHESTER,DODGE,32.3942334,-83.16746,13091,10002138,CH,NA
443,Prison,Georgia,DOOLY STATE PRISON,9/12/20,http://www.gdc.ga.gov/content/cases,18,13,2,0,16,10,NA,NA,NA,NA,NA,NA,NA,NA,NA,NA,1412 PLUNKETT ROAD,31091,UNADILLA,HOUSTON,32.2809242,-83.715676,13093,10006154,CH,NA
1461,Prison,Georgia,EFFINGHAM COUNTY CI,9/12/20,http://www.gdc.ga.gov/content/cases,47,NA,0,0,47,NA,NA,NA,NA,NA,NA,NA,NA,NA,NA,NA,NA,NA,NA,NA,NA,NA,NA,NA,CH,NA
444,Prison,Georgia,EMANUEL WOMENS FACILITY,9/12/20,http://www.gdc.ga.gov/content/cases,26,11,0,0,26,9,NA,NA,NA,NA,NA,NA,NA,NA,NA,NA,714 GUMLOG ROAD,30401,SWAINSBORO,EMANUEL,32.6130383,-82.356408,13107,10004496,CH,NA
445,Prison,Georgia,GDCP,9/12/20,http://www.gdc.ga.gov/content/cases,121,35,4,0,107,31,NA,NA,NA,NA,NA,NA,NA,NA,NA,NA,2978 STATE HWYY 36 W PRISON BLVD,30233,JACKSON,BUTTS,33.2210737,-84.061618,13035,10000298,CH,NA
446,Prison,Georgia,GDCP SMU,9/12/20,http://www.gdc.ga.gov/content/cases,0,8,0,0,0,7,NA,NA,NA,NA,NA,NA,NA,NA,NA,NA,2978 STATE HWYY 36 W PRISON BLVD,30233,JACKSON,BUTTS,33.2210737,-84.061618,13035,10000298,CH,NA
447,Prison,Georgia,GEORGIA STATE PRISON,9/12/20,http://www.gdc.ga.gov/content/cases,2,10,0,0,2,8,NA,NA,NA,NA,NA,NA,NA,NA,NA,NA,300 1ST AVENUE SOUTH,30453,REIDSVILLE,TATTNALL,32.005129,-82.164734,13267,10002141,CH,NA
1462,Prison,Georgia,GWINNETT COUNTY CI,9/12/20,http://www.gdc.ga.gov/content/cases,15,NA,0,0,15,NA,NA,NA,NA,NA,NA,NA,NA,NA,NA,NA,NA,NA,NA,NA,NA,NA,NA,NA,CH,NA
1826,Prison,Georgia,HALL COUNTY CI,9/12/20,http://www.gdc.ga.gov/content/cases,3,NA,0,0,1,NA,NA,NA,NA,NA,NA,NA,NA,NA,NA,NA,NA,NA,NA,NA,NA,NA,NA,NA,CH,NA
448,Prison,Georgia,HANCOCK STATE PRISON,9/12/20,http://www.gdc.ga.gov/content/cases,4,13,0,0,4,11,NA,NA,NA,NA,NA,NA,NA,NA,NA,NA,701 PRISON BLVD,31087,SPARTA,HANCOCK,33.2454941,-82.950923,13141,10000297,CH,NA
1825,Prison,Georgia,HARRIS COUNTY CI,9/12/20,http://www.gdc.ga.gov/content/cases,3,NA,0,0,1,NA,NA,NA,NA,NA,NA,NA,NA,NA,NA,NA,NA,NA,NA,NA,NA,NA,NA,NA,CH,NA
1463,Prison,Georgia,HAYS STATE PRISON,9/12/20,http://www.gdc.ga.gov/content/cases,37,22,0,0,22,13,NA,NA,NA,NA,NA,NA,NA,NA,NA,NA,NA,NA,NA,NA,NA,NA,NA,NA,CH,NA
1464,Prison,Georgia,HELMS FACILITY,9/12/20,http://www.gdc.ga.gov/content/cases,0,1,0,0,0,1,NA,NA,NA,NA,NA,NA,NA,NA,NA,NA,NA,NA,NA,NA,NA,NA,NA,NA,CH,NA
1465,Prison,Georgia,HUDSON TC,9/12/20,http://www.gdc.ga.gov/content/cases,2,1,0,0,2,1,NA,NA,NA,NA,NA,NA,NA,NA,NA,NA,NA,NA,NA,NA,NA,NA,NA,NA,CH,NA
1764,Prison,Georgia,JEFFERSON COUNTY CI,9/12/20,http://www.gdc.ga.gov/content/cases,3,NA,0,0,3,NA,NA,NA,NA,NA,NA,NA,NA,NA,NA,NA,NA,NA,NA,NA,NA,NA,NA,NA,CH,NA
1765,Prison,Georgia,JENKINS CORRECTIONAL CENTER,9/12/20,http://www.gdc.ga.gov/content/cases,23,NA,0,0,9,NA,NA,NA,NA,NA,NA,NA,NA,NA,NA,NA,NA,NA,NA,NA,NA,NA,NA,NA,CH,NA
1765,Prison,Georgia,JENKINS CORRECTIONAL CENTER,9/12/20,http://www.gdc.ga.gov/content/cases,NA,NA,1,0,NA,NA,NA,NA,NA,NA,NA,NA,NA,NA,NA,NA,NA,NA,NA,NA,NA,NA,NA,NA,CH,NA
449,Prison,Georgia,JOHNSON STATE PRISON,9/12/20,http://www.gdc.ga.gov/content/cases,47,10,1,0,46,9,NA,NA,NA,NA,NA,NA,NA,NA,NA,NA,290 DONOVAN-HARRISON ROAD,31096,WRIGHTSVILLE,JOHNSON,32.7435336,-82.70235,13167,10000303,CH,NA
450,Prison,Georgia,LEE ARRENDALE STATE PRISON,9/12/20,http://www.gdc.ga.gov/content/cases,12,18,0,0,10,16,NA,NA,NA,NA,NA,NA,NA,NA,NA,NA,2023 GAINESVILLE HWY,30510,ALTO,HABERSHAM,34.4510668,-83.595966,13137,10002102,CH,NA
1769,Prison,Georgia,LEE ARRENDALE TC,9/12/20,http://www.gdc.ga.gov/content/cases,0,3,0,0,0,2,NA,NA,NA,NA,NA,NA,NA,NA,NA,NA,NA,NA,NA,NA,NA,NA,NA,NA,CH,NA
451,Prison,Georgia,LEE STATE PRISON,9/12/20,http://www.gdc.ga.gov/content/cases,24,30,2,0,22,29,NA,NA,NA,NA,NA,NA,NA,NA,NA,NA,153 PINEWOOD DRIVE,31763,LEESBURG,LEE,31.7636945,-84.193549,13177,10000323,CH,NA
1801,Prison,Georgia,LONG UNIT,9/12/20,http://www.gdc.ga.gov/content/cases,8,16,1,0,0,16,NA,NA,NA,NA,NA,NA,NA,NA,NA,NA,NA,NA,NA,NA,NA,NA,NA,NA,CH,NA
1710,Prison,Georgia,MACON STATE PRISON,9/12/20,http://www.gdc.ga.gov/content/cases,31,29,2,0,29,23,NA,NA,NA,NA,NA,NA,NA,NA,NA,NA,2728 SOUTH 49 HWY,31068,OGLETHORPE,MACON,32.2593066,-84.09144,13193,10002137,CH,NA
452,Prison,Georgia,MACON TC,9/12/20,http://www.gdc.ga.gov/content/cases,5,1,0,0,2,0,NA,NA,NA,NA,NA,NA,NA,NA,NA,NA,NA,NA,NA,NA,NA,NA,NA,NA,CH,NA
453,Prison,Georgia,MCEVER PDC,9/12/20,http://www.gdc.ga.gov/content/cases,1,5,0,0,1,5,NA,NA,NA,NA,NA,NA,NA,NA,NA,NA,2100 KINGS CHAPEL ROAD,31069,PERRY,HOUSTON,32.4649473,-83.695013,13153,10004500,CH,NA
454,Prison,Georgia,METRO REENTRY FACILITY,9/12/20,http://www.gdc.ga.gov/content/cases,3,13,0,0,2,11,NA,NA,NA,NA,NA,NA,NA,NA,NA,NA,1303 CONSTITUTION ROAD,30316,ATLANTA,DEKALB,33.687261,-84.336355,13089,10001414,CH,NA
455,Prison,Georgia,METRO TC,9/12/20,http://www.gdc.ga.gov/content/cases,8,7,0,0,8,5,NA,NA,NA,NA,NA,NA,NA,NA,NA,NA,1303 CONSTITUTION ROAD,30316,ATLANTA,DEKALB,33.6885252,-84.336397,13089,10001414,CH,NA
457,Prison,Georgia,MITCHELL COUNTY CI,9/12/20,http://www.gdc.ga.gov/content/cases,3,NA,0,0,3,NA,NA,NA,NA,NA,NA,NA,NA,NA,NA,NA,4838 STATE HWY 37 E,31730,CAMILLA,MITCHELL,31.2324018,-84.180085,13205,10002149,CH,NA
1466,Prison,Georgia,MONTGOMERY STATE PRISON,9/12/20,http://www.gdc.ga.gov/content/cases,21,16,1,0,20,16,NA,NA,NA,NA,NA,NA,NA,NA,NA,NA,NA,NA,NA,NA,NA,NA,NA,NA,CH,NA
1766,Prison,Georgia,MUSCOGEE COUNTY CI,9/12/20,http://www.gdc.ga.gov/content/cases,1,NA,0,0,1,NA,NA,NA,NA,NA,NA,NA,NA,NA,NA,NA,NA,NA,NA,NA,NA,NA,NA,NA,CH,NA
1767,Prison,Georgia,NORTHWEST RSAT,9/12/20,http://www.gdc.ga.gov/content/cases,16,0,0,0,3,0,NA,NA,NA,NA,NA,NA,NA,NA,NA,NA,NA,NA,NA,NA,NA,NA,NA,NA,CH,NA
458,Prison,Georgia,PATTEN PDC,9/12/20,http://www.gdc.ga.gov/content/cases,0,10,0,0,0,10,NA,NA,NA,NA,NA,NA,NA,NA,NA,NA,1009 NORTH 10TH AVENUE,31635,LAKELAND,LANIER,31.039883,-83.061754,13173,10004551,CH,NA
459,Prison,Georgia,PAULDING RSAT,9/12/20,http://www.gdc.ga.gov/content/cases,17,1,0,0,2,1,NA,NA,NA,NA,NA,NA,NA,NA,NA,NA,1295 N INDUSTRIAL BLVD,30132,DALLAS,PAULDING,33.9497667,-84.814666,13223,10002108,CH,NA
460,Prison,Georgia,PHILLIPS STATE PRISON,9/12/20,http://www.gdc.ga.gov/content/cases,17,19,0,0,15,19,NA,NA,NA,NA,NA,NA,NA,NA,NA,NA,2989 WEST ROCK QUARRY ROAD,30519,BUFORD,GWINNETT,34.0942918,-83.91052,13135,10002106,CH,NA
461,Prison,Georgia,PHILLIPS TC,9/12/20,http://www.gdc.ga.gov/content/cases,5,2,0,0,5,2,NA,NA,NA,NA,NA,NA,NA,NA,NA,NA,2989 W ROCK QUARRY ROAD,30519,BUFORD,GWINNETT,34.0955462,-83.90947,13135,10002105,CH,NA
462,Prison,Georgia,PULASKI STATE PRISON,9/12/20,http://www.gdc.ga.gov/content/cases,40,33,0,0,2,9,NA,NA,NA,NA,NA,NA,NA,NA,NA,NA,373 UPPER RIVER ROAD,31036,HAWKINSVILLE,PULASKI,32.3115199,-83.457235,13235,10000307,CH,NA
463,Prison,Georgia,RIVERBEND CORRECTIONAL FACILITY,9/12/20,http://www.gdc.ga.gov/content/cases,18,NA,3,0,15,NA,NA,NA,NA,NA,NA,NA,NA,NA,NA,NA,196 LAYING FARM ROAD,31061,MILLEDGEVILLE,BALDWIN,NA,NA,13009,10006322,CH,NA
1467,Prison,Georgia,ROGERS STATE PRISON,9/12/20,http://www.gdc.ga.gov/content/cases,12,19,0,0,12,19,NA,NA,NA,NA,NA,NA,NA,NA,NA,NA,NA,NA,NA,NA,NA,NA,NA,NA,CH,NA
464,Prison,Georgia,RUTLEDGE STATE PRISON,9/12/20,http://www.gdc.ga.gov/content/cases,25,19,2,0,22,18,NA,NA,NA,NA,NA,NA,NA,NA,NA,NA,7175 MANOR ROAD,31907,COLUMBUS,MUSCOGEE,32.495828,-84.86618,13215,10000304,CH,NA
465,Prison,Georgia,SMITH STATE PRISON,9/12/20,http://www.gdc.ga.gov/content/cases,17,16,1,0,13,8,NA,NA,NA,NA,NA,NA,NA,NA,NA,NA,9676 UNITED STATES HIGHWAY 301 NORTH,30427,GLENNVILLE,TATTNALL,31.9731084,-81.915784,13267,10000309,CH,NA
1711,Prison,Georgia,SMITH TC,9/12/20,http://www.gdc.ga.gov/content/cases,6,1,0,0,5,0,NA,NA,NA,NA,NA,NA,NA,NA,NA,NA,NA,NA,NA,NA,NA,NA,NA,NA,CH,NA
1802,Prison,Georgia,TELFAIR STATE PRISON,9/12/20,http://www.gdc.ga.gov/content/cases,2,0,0,0,0,0,NA,NA,NA,NA,NA,NA,NA,NA,NA,NA,NA,NA,NA,NA,NA,NA,NA,NA,CH,NA
466,Prison,Georgia,TREUTLEN PDC,9/12/20,http://www.gdc.ga.gov/content/cases,13,6,0,0,11,4,NA,NA,NA,NA,NA,NA,NA,NA,NA,NA,1 SESSIONS STREET,30457,SOPERTON,TREUTLEN,32.3624615,-82.602381,13283,10005191,CH,NA
467,Prison,Georgia,TURNER RSAT,9/12/20,http://www.gdc.ga.gov/content/cases,33,8,0,0,33,6,NA,NA,NA,NA,NA,NA,NA,NA,NA,NA,514 SOUTH RAILROAD AVE,31790,SYCAMORE,TURNER,31.6621587,-83.633937,13287,10005201,CH,NA
469,Prison,Georgia,VALDOSTA STATE PRISON,9/12/20,http://www.gdc.ga.gov/content/cases,12,58,0,0,11,54,NA,NA,NA,NA,NA,NA,NA,NA,NA,NA,3259 VALTECH RD,31601,VALDOSTA,LOWNDES,30.8599572,-83.345754,13185,10000328,CH,NA
470,Prison,Georgia,VALDOSTA TC,9/12/20,http://www.gdc.ga.gov/content/cases,1,1,0,0,1,1,NA,NA,NA,NA,NA,NA,NA,NA,NA,NA,263 GILL HARBIN INDUSTRIAL BLVD,31601,VALDOSTA,LOWNDES,30.8056587,-83.267507,13185,10001432,CH,NA
1699,Prison,Georgia,WALKER STATE PRISON,9/12/20,http://www.gdc.ga.gov/content/cases,61,14,0,0,1,8,NA,NA,NA,NA,NA,NA,NA,NA,NA,NA,NA,NA,NA,NA,NA,NA,NA,NA,CH,NA
471,Prison,Georgia,WARE STATE PRISON,9/12/20,http://www.gdc.ga.gov/content/cases,26,58,4,0,22,46,NA,NA,NA,NA,NA,NA,NA,NA,NA,NA,3620 NORTH HARRIS ROAD,31501,WAYCROSS,WARE,31.2567308,-82.393357,13299,10002147,CH,NA
472,Prison,Georgia,WASHINGTON STATE PRISON,9/12/20,http://www.gdc.ga.gov/content/cases,23,7,0,0,17,3,NA,NA,NA,NA,NA,NA,NA,NA,NA,NA,13262 HWY 24 E,31018,DAVISBORO,WASHINGTON,32.9887238,-82.594908,13303,10002126,CH,NA
473,Prison,Georgia,WEST CENTRAL ITF,9/12/20,http://www.gdc.ga.gov/content/cases,1,8,0,0,1,4,NA,NA,NA,NA,NA,NA,NA,NA,NA,NA,1070 COUNTY FARM ROAD,30295,ZEBULON,PIKE,33.1160981,-84.36104,13231,10004487,CH,NA
474,Prison,Georgia,WHEELER CORRECTIONAL FACILITY,9/12/20,http://www.gdc.ga.gov/content/cases,160,NA,6,0,66,NA,NA,NA,NA,NA,NA,NA,NA,NA,NA,NA,195 NORTH BROAD STREET,30411,ALAMO,WHEELER,32.1504927,-82.795008,13309,10002142,CH,NA
1468,Prison,Georgia,WHITWORTH WOMENS FACILITY,9/12/20,http://www.gdc.ga.gov/content/cases,18,14,0,0,13,13,NA,NA,NA,NA,NA,NA,NA,NA,NA,NA,NA,NA,NA,NA,NA,NA,NA,NA,CH,NA
1469,Prison,Georgia,WILCOX STATE PRISON,9/12/20,http://www.gdc.ga.gov/content/cases,35,17,2,0,24,11,NA,NA,NA,NA,NA,NA,NA,NA,NA,NA,NA,NA,NA,NA,NA,NA,NA,NA,CH,NA
476,Prison,Hawaii,HCF,9/12/20,https://dps.hawaii.gov/blog/2020/03/17/coronavirus-covid-19-information-and-resources/,1,NA,0,NA,1,NA,40,NA,39,NA,0,NA,0,NA,NA,NA,99-902 MOANALUA RD,96701,AIEA,HONOLULU,21.3737913,-157.89898,15003,10000124,CH,NA
475,Prison,Hawaii,HCCC,9/12/20,https://dps.hawaii.gov/blog/2020/03/17/coronavirus-covid-19-information-and-resources/,0,NA,0,NA,0,NA,54,NA,54,NA,0,NA,0,NA,NA,NA,60 PUNAHELE STREET,96720,HILO,HAWAII,19.7183087,-155.09896,15001,10003694,CH,NA
477,Prison,Hawaii,KCCC,9/12/20,https://dps.hawaii.gov/blog/2020/03/17/coronavirus-covid-19-information-and-resources/,0,NA,0,NA,0,NA,8,NA,8,NA,0,NA,0,NA,NA,NA,3-5351 KUHIO HIGHWAY,96766,LIHUE,KAUAI,22.0251525,-159.34282,15007,10003692,CH,NA
478,Prison,Hawaii,KCF,9/12/20,https://dps.hawaii.gov/blog/2020/03/17/coronavirus-covid-19-information-and-resources/,0,NA,0,NA,0,NA,1,NA,1,NA,0,NA,0,NA,NA,NA,HC 01 STAINBACK HWY,96720,HILO,HAWAII,19.5491789,-155.30111,15001,10000128,CH,NA
479,Prison,Hawaii,MCCC,9/12/20,https://dps.hawaii.gov/blog/2020/03/17/coronavirus-covid-19-information-and-resources/,0,NA,0,NA,0,NA,17,NA,16,NA,0,NA,3,NA,NA,NA,600 WAIALE DR,96793,WAILUKU,MAUI,20.877016,-156.49838,15009,10000127,CH,NA
480,Prison,Hawaii,OCCC,9/12/20,https://dps.hawaii.gov/blog/2020/03/17/coronavirus-covid-19-information-and-resources/,301,NA,0,NA,277,NA,2069,NA,1764,NA,0,NA,NA,NA,NA,NA,2199 KAMEHAMEHA HIGHWAY,96819,HONOLULU,HONOLULU,21.3298938,-157.88487,15003,10003691,CH,NA
482,Prison,Hawaii,WCCC,9/12/20,https://dps.hawaii.gov/blog/2020/03/17/coronavirus-covid-19-information-and-resources/,0,NA,0,NA,0,NA,18,NA,18,NA,0,NA,0,NA,NA,NA,42-477 KALANIANAOLE HWY,96734,KAILUA,HONOLULU,21.378025,-157.74845,15003,10000126,CH,NA
483,Prison,Hawaii,WCF,9/12/20,https://dps.hawaii.gov/blog/2020/03/17/coronavirus-covid-19-information-and-resources/,0,NA,0,NA,0,NA,5,NA,5,NA,0,NA,0,NA,NA,NA,94-560 KAMEHAMEHA HWY,96797,WAIPAHU,HONOLULU,21.44465,-157.96091,15003,10001191,CH,NA
1470,Prison,Hawaii,SAGUARO,9/12/20,https://dps.hawaii.gov/blog/2020/03/17/coronavirus-covid-19-information-and-resources/,0,NA,0,NA,0,NA,44,NA,42,NA,2,NA,4,NA,NA,NA,NA,NA,NA,NA,NA,NA,NA,NA,CH,NA
498,Prison,Idaho,STATEWIDE,9/12/20,https://www.idoc.idaho.gov/content/careers/covid-19,1445,NA,NA,NA,1163,NA,7965,NA,6381,NA,110,NA,NA,NA,NA,NA,NA,NA,NA,NA,NA,NA,NA,NA,CH,NA
485,Prison,Idaho,EAGLE PASS,9/12/20,https://www.idoc.idaho.gov/content/careers/covid-19,12,1,0,0,NA,0,33,NA,20,NA,1,NA,0,NA,NA,NA,NA,NA,NA,NA,NA,NA,48323,NA,CH,NA
1821,Prison,Idaho,SAGUARO CORRECTIONAL CENTER ELOY ARIZONA,9/12/20,https://www.idoc.idaho.gov/content/careers/covid-19,74,NA,0,0,NA,0,438,NA,307,NA,7,NA,0,NA,NA,NA,NA,NA,NA,NA,NA,NA,NA,NA,CH,NA
487,Prison,Idaho,ICIO,9/12/20,https://www.idoc.idaho.gov/content/careers/covid-19,NA,0,0,0,NA,0,NA,NA,NA,NA,NA,NA,0,NA,NA,NA,381 WEST HOSPITAL DRIVE,83544,OROFINO,CLEARWATER,46.4919784,-116.26071,16035,10001172,CH,NA
489,Prison,Idaho,IMSI,9/12/20,https://www.idoc.idaho.gov/content/careers/covid-19,NA,16,0,0,NA,6,NA,NA,NA,NA,NA,NA,0,NA,NA,NA,13500 S PLEASANT VALLEY RD,83634,KUNA,ADA,43.4793879,-116.21896,16001,10001181,CH,NA
490,Prison,Idaho,ISCC,9/12/20,https://www.idoc.idaho.gov/content/careers/covid-19,NA,51,2,0,NA,51,NA,NA,NA,NA,NA,NA,0,NA,NA,NA,14601 S PLEASANT VALLEY RD,83634,KUNA,ADA,43.4711994,-116.23759,16001,10001183,CH,NA
491,Prison,Idaho,ISCI,9/12/20,https://www.idoc.idaho.gov/content/careers/covid-19,NA,22,0,0,NA,20,NA,NA,NA,NA,NA,NA,0,NA,NA,NA,13500 S PLEASANT VALLEY RD,83634,KUNA,ADA,43.4793879,-116.21896,16001,10001181,CH,NA
493,Prison,Idaho,NICI,9/12/20,https://www.idoc.idaho.gov/content/careers/covid-19,NA,1,0,0,NA,0,NA,NA,NA,NA,NA,NA,0,NA,NA,NA,236 RADAR RD,83522,COTTONWOOD,IDAHO,46.0791731,-116.42806,16049,10001173,CH,NA
494,Prison,Idaho,PWCC,9/12/20,https://www.idoc.idaho.gov/content/careers/covid-19,NA,0,0,0,NA,0,NA,NA,NA,NA,NA,NA,0,NA,NA,NA,1451 FORE RD,83204,POCATELLO,BANNOCK,42.8425622,-112.45063,16005,10001187,CH,NA
495,Prison,Idaho,SAWC,9/12/20,https://www.idoc.idaho.gov/content/careers/covid-19,NA,1,0,0,NA,1,NA,NA,NA,NA,NA,NA,0,NA,NA,NA,125 N 8TH W,83445,ST ANTHONY,FREMONT,43.9680985,-111.69354,16043,10001176,CH,NA
496,Prison,Idaho,SBWCC,9/12/20,https://www.idoc.idaho.gov/content/careers/covid-19,NA,3,0,0,NA,3,NA,NA,NA,NA,NA,NA,0,NA,NA,NA,13200 S PLEASANT VALLEY RD,83634,KUNA,ADA,43.48338,-116.23392,16001,10001185,CH,NA
497,Prison,Idaho,SICI,9/12/20,https://www.idoc.idaho.gov/content/careers/covid-19,NA,8,0,0,NA,8,NA,NA,NA,NA,NA,NA,0,NA,NA,NA,13500 S PLEASANT VALLEY RD,83634,KUNA,ADA,43.4793879,-116.21896,16001,10001181,CH,NA
484,Prison,Idaho,CAPP,9/12/20,https://www.idoc.idaho.gov/content/careers/covid-19,NA,0,0,0,NA,0,NA,NA,NA,NA,NA,NA,0,NA,NA,NA,15505 SOUTH PLEASANT VALLEY ROAD,83634,KUNA,ADA,43.4618374,-116.23577,16001,10006544,CH,NA
486,Prison,Idaho,EBCRC,9/12/20,https://www.idoc.idaho.gov/content/careers/covid-19,NA,3,0,0,NA,3,NA,NA,NA,NA,NA,NA,13,NA,NA,NA,2366 OLD PENITENTIARY RD,83712,BOISE,ADA,43.6031409,-116.16384,16001,10001184,CH,NA
499,Prison,Idaho,TVCRC,9/12/20,https://www.idoc.idaho.gov/content/careers/covid-19,NA,0,0,0,NA,0,NA,NA,NA,NA,NA,NA,0,NA,NA,NA,14195 S PLEASANT VALLEY RD,83634,KUNA,ADA,43.6574178,-116.66782,16001,10004339,CH,NA
492,Prison,Idaho,NCRC,9/12/20,https://www.idoc.idaho.gov/content/careers/covid-19,NA,0,0,0,NA,0,NA,NA,NA,NA,NA,NA,0,NA,NA,NA,1640 11TH AVE N,83687,NAMPA,CANYON,43.5989148,-116.53478,16027,10001177,CH,NA
488,Prison,Idaho,IFCRC,9/12/20,https://www.idoc.idaho.gov/content/careers/covid-19,NA,1,0,0,NA,0,NA,NA,NA,NA,NA,NA,81,NA,NA,NA,3955 BOMBARDIER AVE,83402,IDAHO FALLS,BONNEVILLE,43.4623002,-112.06397,16019,10001186,CH,NA
1471,Prison,Idaho,CENTRAL OFFICE,9/12/20,https://www.idoc.idaho.gov/content/careers/covid-19,NA,3,0,0,NA,3,NA,NA,NA,NA,NA,NA,0,NA,NA,NA,NA,NA,NA,NA,NA,NA,NA,NA,CH,NA
1702,Prison,Idaho,DISTRICT 1,9/12/20,https://www.idoc.idaho.gov/content/careers/covid-19,NA,1,0,0,NA,1,NA,NA,NA,NA,NA,NA,0,NA,NA,NA,NA,NA,NA,NA,NA,NA,NA,NA,CH,NA
1805,Prison,Idaho,DISTRICT 4,9/12/20,https://www.idoc.idaho.gov/content/careers/covid-19,NA,1,0,0,NA,1,NA,NA,NA,NA,NA,NA,0,NA,NA,NA,NA,NA,NA,NA,NA,NA,NA,NA,CH,NA
1472,Prison,Idaho,DISTRICT 4,9/12/20,https://www.idoc.idaho.gov/content/careers/covid-19,NA,5,0,0,NA,5,NA,NA,NA,NA,NA,NA,0,NA,NA,NA,NA,NA,NA,NA,NA,NA,NA,NA,CH,NA
1473,Prison,Idaho,DISTRICT 5,9/12/20,https://www.idoc.idaho.gov/content/careers/covid-19,NA,1,0,0,NA,1,NA,NA,NA,NA,NA,NA,0,NA,NA,NA,NA,NA,NA,NA,NA,NA,NA,NA,CH,NA
1829,Prison,Idaho,TWIN FALL CRC,9/12/20,https://www.idoc.idaho.gov/content/careers/covid-19,NA,NA,NA,NA,NA,NA,NA,NA,NA,NA,NA,NA,0,NA,NA,NA,NA,NA,NA,NA,NA,NA,NA,NA,CH,NA
1474,Prison,Illinois,BIG MUDDY RIVER,9/12/20,https://www2.illinois.gov/idoc/facilities/Pages/Covid19Response.aspx,1,6,0,NA,1,5,NA,NA,NA,NA,NA,NA,NA,NA,NA,NA,NA,NA,NA,NA,NA,NA,NA,NA,CH,NA
1770,Prison,Illinois,CENTRALIA,9/12/20,https://www2.illinois.gov/idoc/facilities/Pages/Covid19Response.aspx,0,13,0,NA,0,9,NA,NA,NA,NA,NA,NA,NA,NA,NA,NA,NA,NA,NA,NA,NA,NA,NA,NA,CH,NA
501,Prison,Illinois,CROSSROADS ATC,9/12/20,https://www2.illinois.gov/idoc/facilities/Pages/Covid19Response.aspx,3,1,0,NA,3,1,NA,NA,NA,NA,NA,NA,NA,NA,NA,NA,3210 WEST ARTHINGTON STREET,60624,CHICAGO,COOK,41.8704836,-87.706359,17031,10000635,CH,NA
502,Prison,Illinois,DANVILLE,9/12/20,https://www2.illinois.gov/idoc/facilities/Pages/Covid19Response.aspx,0,7,0,NA,0,1,NA,NA,NA,NA,NA,NA,NA,NA,NA,NA,3820 EAST MAIN STREET,61834,DANVILLE,VERMILION,40.1295668,-87.536456,17183,10000662,CH,NA
1475,Prison,Illinois,DECATUR,9/12/20,https://www2.illinois.gov/idoc/facilities/Pages/Covid19Response.aspx,0,4,0,NA,0,3,NA,NA,NA,NA,NA,NA,NA,NA,NA,NA,NA,NA,NA,NA,NA,NA,NA,NA,CH,NA
503,Prison,Illinois,DIXON CORRECTIONAL INSTITUTE,9/12/20,https://www2.illinois.gov/idoc/facilities/Pages/Covid19Response.aspx,16,14,0,NA,3,10,NA,NA,NA,NA,NA,NA,NA,NA,NA,NA,2600 NORTH BRINTON AVENUE,61021,DIXON,LEE,41.8737451,-89.478173,17103,10000642,CH,NA
504,Prison,Illinois,EAST MOLINE,9/12/20,https://www2.illinois.gov/idoc/facilities/Pages/Covid19Response.aspx,267,9,0,NA,97,8,NA,NA,NA,NA,NA,NA,NA,NA,NA,NA,100 HILLCREST ROAD,61244,EAST MOLINE,ROCK ISLAND,41.5337291,-90.419122,17161,10000644,CH,NA
505,Prison,Illinois,ELGIN TREATMENT CENTER,9/12/20,https://www2.illinois.gov/idoc/facilities/Pages/Covid19Response.aspx,0,5,0,NA,0,5,NA,NA,NA,NA,NA,NA,NA,NA,NA,NA,NA,NA,NA,NA,NA,NA,17089,NA,CH,NA
506,Prison,Illinois,FOX VALLEY ATC,9/12/20,https://www2.illinois.gov/idoc/facilities/Pages/Covid19Response.aspx,4,7,0,NA,4,7,NA,NA,NA,NA,NA,NA,NA,NA,NA,NA,1329 N LAKE ST,60506,AURORA,KANE,41.7879213,-88.320292,17089,10000638,CH,NA
1476,Prison,Illinois,GENERAL OFFICE,9/12/20,https://www2.illinois.gov/idoc/facilities/Pages/Covid19Response.aspx,0,8,0,NA,0,5,NA,NA,NA,NA,NA,NA,NA,NA,NA,NA,NA,NA,NA,NA,NA,NA,NA,NA,CH,NA
507,Prison,Illinois,GRAHAM,9/12/20,https://www2.illinois.gov/idoc/facilities/Pages/Covid19Response.aspx,3,31,0,NA,3,26,NA,NA,NA,NA,NA,NA,NA,NA,NA,NA,12078 ILLINOIS ROUTE 185,62049,HILLSBORO,MONTGOMERY,39.1264897,-89.474933,17135,10000674,CH,NA
508,Prison,Illinois,HILL,9/12/20,https://www2.illinois.gov/idoc/facilities/Pages/Covid19Response.aspx,22,8,0,NA,22,6,NA,NA,NA,NA,NA,NA,NA,NA,NA,NA,600 SOUTH LINWOOD ROAD,61401,GALESBURG,KNOX,40.9397455,-90.406958,17095,10000653,CH,NA
1477,Prison,Illinois,ILLINOIS RIVER,9/12/20,https://www2.illinois.gov/idoc/facilities/Pages/Covid19Response.aspx,0,8,0,NA,0,7,NA,NA,NA,NA,NA,NA,NA,NA,NA,NA,NA,NA,NA,NA,NA,NA,NA,NA,CH,NA
509,Prison,Illinois,JACKSONVILLE,9/12/20,https://www2.illinois.gov/idoc/facilities/Pages/Covid19Response.aspx,215,27,0,NA,117,26,NA,NA,NA,NA,NA,NA,NA,NA,NA,NA,2268 EAST MORTON AVENUE,62650,JACKSONVILLE,MORGAN,39.7266898,-90.175614,17137,10000671,CH,NA
510,Prison,Illinois,JOLIET TREATMENT CENTER,9/12/20,https://www2.illinois.gov/idoc/facilities/Pages/Covid19Response.aspx,1,29,0,NA,0,28,NA,NA,NA,NA,NA,NA,NA,NA,NA,NA,2848 WEST MCDONOUGH,60436,JOLIET,WILL,41.5123467,-88.152646,17197,10000646,CH,NA
511,Prison,Illinois,KEWANEE LSRC,9/12/20,https://www2.illinois.gov/idoc/facilities/Pages/Covid19Response.aspx,0,7,0,NA,0,5,NA,NA,NA,NA,NA,NA,NA,NA,NA,NA,2021 KENTVILLE ROAD,61443,KEWANEE,HENRY,41.2533321,-89.891712,17073,10004677,CH,NA
1771,Prison,Illinois,LAWRENCE,9/12/20,https://www2.illinois.gov/idoc/facilities/Pages/Covid19Response.aspx,2,11,0,NA,2,5,NA,NA,NA,NA,NA,NA,NA,NA,NA,NA,NA,NA,NA,NA,NA,NA,NA,NA,CH,NA
1478,Prison,Illinois,LINCOLN,9/12/20,https://www2.illinois.gov/idoc/facilities/Pages/Covid19Response.aspx,46,15,0,NA,27,13,NA,NA,NA,NA,NA,NA,NA,NA,NA,NA,NA,NA,NA,NA,NA,NA,NA,NA,CH,NA
512,Prison,Illinois,LOGAN,9/12/20,https://www2.illinois.gov/idoc/facilities/Pages/Covid19Response.aspx,79,18,0,NA,79,16,NA,NA,NA,NA,NA,NA,NA,NA,NA,NA,1096 1350TH STREET,62656,LINCOLN,LOGAN,40.1140649,-89.38814,17107,10000665,CH,NA
513,Prison,Illinois,MENARD,9/12/20,https://www2.illinois.gov/idoc/facilities/Pages/Covid19Response.aspx,110,91,0,NA,83,71,NA,NA,NA,NA,NA,NA,NA,NA,NA,NA,711 KASKASKIA STREET,62259,MENARD,RANDOLPH,37.9126857,-89.841978,17157,10000687,CH,NA
1703,Prison,Illinois,MURPHYSBORO,9/12/20,https://www2.illinois.gov/idoc/facilities/Pages/Covid19Response.aspx,0,1,0,NA,0,1,NA,NA,NA,NA,NA,NA,NA,NA,NA,NA,NA,NA,NA,NA,NA,NA,NA,NA,CH,NA
514,Prison,Illinois,NORTH LAWNDALE ATC,9/12/20,https://www2.illinois.gov/idoc/facilities/Pages/Covid19Response.aspx,5,4,0,NA,5,4,NA,NA,NA,NA,NA,NA,NA,NA,NA,NA,2839 WEST FILLMORE STREET,60612,CHICAGO,COOK,41.868038,-87.697785,17031,10000636,CH,NA
1479,Prison,Illinois,PAROLE,9/12/20,https://www2.illinois.gov/idoc/facilities/Pages/Covid19Response.aspx,0,6,0,NA,0,5,NA,NA,NA,NA,NA,NA,NA,NA,NA,NA,NA,NA,NA,NA,NA,NA,NA,NA,CH,NA
1480,Prison,Illinois,PEORIA ATC,9/12/20,https://www2.illinois.gov/idoc/facilities/Pages/Covid19Response.aspx,10,15,0,NA,8,7,NA,NA,NA,NA,NA,NA,NA,NA,NA,NA,NA,NA,NA,NA,NA,NA,NA,NA,CH,NA
1481,Prison,Illinois,PINCKNEYVILLE,9/12/20,https://www2.illinois.gov/idoc/facilities/Pages/Covid19Response.aspx,1,9,0,NA,1,9,NA,NA,NA,NA,NA,NA,NA,NA,NA,NA,NA,NA,NA,NA,NA,NA,NA,NA,CH,NA
515,Prison,Illinois,PONTIAC,9/12/20,https://www2.illinois.gov/idoc/facilities/Pages/Covid19Response.aspx,7,21,1,NA,6,11,NA,NA,NA,NA,NA,NA,NA,NA,NA,NA,700 WEST LINCOLN STREET,61764,PONTIAC,LIVINGSTON,40.8692835,-88.636037,17105,10000655,CH,NA
1482,Prison,Illinois,ROBINSON,9/12/20,https://www2.illinois.gov/idoc/facilities/Pages/Covid19Response.aspx,112,12,0,NA,0,3,NA,NA,NA,NA,NA,NA,NA,NA,NA,NA,NA,NA,NA,NA,NA,NA,NA,NA,CH,NA
1803,Prison,Illinois,SHAWNEE,9/12/20,https://www2.illinois.gov/idoc/facilities/Pages/Covid19Response.aspx,8,15,0,NA,2,13,NA,NA,NA,NA,NA,NA,NA,NA,NA,NA,NA,NA,NA,NA,NA,NA,NA,NA,CH,NA
516,Prison,Illinois,SHERIDAN,9/12/20,https://www2.illinois.gov/idoc/facilities/Pages/Covid19Response.aspx,20,15,0,NA,20,15,NA,NA,NA,NA,NA,NA,NA,NA,NA,NA,4017 EAST 2603 ROAD,60551,SHERIDAN,LA SALLE,41.5160491,-88.68466,17099,10000652,CH,NA
517,Prison,Illinois,SOUTHWESTERN IL,9/12/20,https://www2.illinois.gov/idoc/facilities/Pages/Covid19Response.aspx,0,16,0,NA,0,15,NA,NA,NA,NA,NA,NA,NA,NA,NA,NA,950 KINGSHIGHWAY ST,62203,EAST ST LOUIS,ST CLAIR,38.616913,-90.090818,17163,10000685,CH,NA
518,Prison,Illinois,STATEVILLE,9/12/20,https://www2.illinois.gov/idoc/facilities/Pages/Covid19Response.aspx,275,115,12,NA,267,105,NA,NA,NA,NA,NA,NA,NA,NA,NA,NA,16830 SOUTH BROADWAY STREET,60434,JOLIET,WILL,41.5787378,-88.094563,17197,10000647,CH,NA
519,Prison,Illinois,STATEVILLE NRC,9/12/20,https://www2.illinois.gov/idoc/facilities/Pages/Covid19Response.aspx,64,47,0,NA,50,42,NA,NA,NA,NA,NA,NA,NA,NA,NA,NA,16830 SOUTH BROADWAY STREET,60434,JOLIET,WILL,41.5787378,-88.094563,17197,10000647,CH,NA
1483,Prison,Illinois,TAYLORVILLE,9/12/20,https://www2.illinois.gov/idoc/facilities/Pages/Covid19Response.aspx,8,7,0,NA,2,5,NA,NA,NA,NA,NA,NA,NA,NA,NA,NA,NA,NA,NA,NA,NA,NA,NA,NA,CH,NA
1804,Prison,Illinois,VANDALIA,9/12/20,https://www2.illinois.gov/idoc/facilities/Pages/Covid19Response.aspx,2,13,0,NA,2,7,NA,NA,NA,NA,NA,NA,NA,NA,NA,NA,NA,NA,NA,NA,NA,NA,NA,NA,CH,NA
1484,Prison,Illinois,VIENNA,9/12/20,https://www2.illinois.gov/idoc/facilities/Pages/Covid19Response.aspx,0,6,0,NA,0,5,NA,NA,NA,NA,NA,NA,NA,NA,NA,NA,NA,NA,NA,NA,NA,NA,NA,NA,CH,NA
520,Prison,Illinois,WESTERN IL,9/12/20,https://www2.illinois.gov/idoc/facilities/Pages/Covid19Response.aspx,2,8,0,NA,2,6,NA,NA,NA,NA,NA,NA,NA,NA,NA,NA,2500 RT 99 SOUTH,62353,MOUNT STERLING,BROWN,39.962857,-90.753967,17009,10000667,CH,NA
521,Prison,Indiana,BRANCHVILLE BTC,9/12/20,https://www.in.gov/idoc/3780.htm,15,7,0,0,15,6,32,62,NA,NA,NA,NA,0,NA,NA,NA,21390 OLD STATE RD 37,47514,BRANCHVILLE,PERRY,38.1513783,-86.599801,18123,10001075,CH,NA
523,Prison,Indiana,CHAIN OLAKES COL,9/12/20,https://www.in.gov/idoc/3780.htm,0,0,0,0,0,0,3,1,NA,NA,NA,NA,0,NA,NA,NA,3516 E 75 SOUTH,46701,ALBION,NOBLE,41.3370103,-85.353103,18113,10004895,CH,NA
524,Prison,Indiana,CORRECTIONAL INDUSTRIAL CIF,9/12/20,https://www.in.gov/idoc/3780.htm,0,9,0,0,0,5,44,59,NA,NA,NA,NA,20,NA,NA,NA,5124 W REFORMATORY RD,46064,PENDLETON,MADISON,39.9759849,-85.771359,18095,10001060,CH,NA
526,Prison,Indiana,EDINBURGH JCU,9/12/20,https://www.in.gov/idoc/3780.htm,8,12,0,0,8,12,9,39,NA,NA,NA,NA,0,NA,NA,NA,PO BOX 470 23RD SCHOOLHOUSE RD,46124,EDINBURGH,JOHNSON,39.351453,-86.038603,18081,10004920,CH,NA
527,Prison,Indiana,HERITAGE TRAIL CORRECTIONAL FACILITY,9/12/20,https://www.in.gov/idoc/3780.htm,49,16,0,0,50,12,55,33,NA,NA,NA,NA,0,NA,NA,NA,NA,NA,NA,NA,NA,NA,18063,NA,CH,NA
529,Prison,Indiana,INDIANA STATE PRISON ISP,9/12/20,https://www.in.gov/idoc/3780.htm,7,24,0,0,7,22,28,113,NA,NA,NA,NA,0,NA,NA,NA,1 PARK ROW,46360,MICHIGAN CITY,LAPORTE,41.7034309,-86.917317,18091,10005599,CH,NA
530,Prison,Indiana,INDIANA WOMENS PRISON IWP,9/12/20,https://www.in.gov/idoc/3780.htm,25,15,0,1,25,11,74,48,NA,NA,NA,NA,1,NA,NA,NA,2596 GIRLS SCHOOL ROAD,46214,INDIANAPOLIS,MARION,39.8009402,-86.291898,18097,10001065,CH,NA
532,Prison,Indiana,LAPORTE JUVENILE LPJ,9/12/20,https://www.in.gov/idoc/3780.htm,0,8,0,0,0,7,30,37,NA,NA,NA,NA,0,NA,NA,NA,809 STATE ST,46350,LA PORTE,LAPORTE,41.6120623,-86.722923,18091,10001053,CH,NA
535,Prison,Indiana,LOGANSPORT LJCF,9/12/20,https://www.in.gov/idoc/3780.htm,0,6,0,0,0,6,0,24,NA,NA,NA,NA,0,NA,NA,NA,1118 S STATE RD 25,46947,LOGANSPORT,CASS,40.7415461,-86.401523,18017,10004903,CH,NA
536,Prison,Indiana,MADISON MCU,9/12/20,https://www.in.gov/idoc/3780.htm,0,7,0,0,0,7,23,93,NA,NA,NA,NA,0,NA,NA,NA,1130 MSH 4TH STREET,47250,MADISON,JEFFERSON,38.7477812,-85.400471,18077,10006545,CH,NA
537,Prison,Indiana,MIAMI MCF,9/12/20,https://www.in.gov/idoc/3780.htm,71,10,1,0,0,3,186,25,NA,NA,NA,NA,240,NA,NA,NA,3038 W 850 S,46914,BUNKER HILL,MIAMI,40.6459301,-86.1353,18103,10001059,CH,NA
538,Prison,Indiana,NEW CASTLE NCCF,9/12/20,https://www.in.gov/idoc/3780.htm,165,30,3,0,157,20,404,70,NA,NA,NA,NA,15,NA,NA,NA,1000 VAN NUYS RD,47362,NEW CASTLE,HENRY,39.9623779,-85.370225,18065,10004913,CH,NA
539,Prison,Indiana,PENDLETON ISR,9/12/20,https://www.in.gov/idoc/3780.htm,62,20,4,0,59,20,98,180,NA,NA,NA,NA,1,NA,NA,NA,4490 W REFORMATORY RD,46064,PENDLETON,MADISON,39.9833811,-85.760857,18095,10001061,CH,NA
540,Prison,Indiana,PENDLETON JUVENILE PNJ,9/12/20,https://www.in.gov/idoc/3780.htm,26,32,0,0,26,29,87,101,NA,NA,NA,NA,0,NA,NA,NA,9310 S STATE RD 67,46064,PENDLETON,MADISON,39.9690707,-85.77458,18095,10001062,CH,NA
542,Prison,Indiana,PLAINFIELD IYC,9/12/20,https://www.in.gov/idoc/3780.htm,128,53,8,0,120,51,158,212,NA,NA,NA,NA,0,NA,NA,NA,737 MOON RD,46168,PLAINFIELD,HENDRICKS,39.6889997,-86.41604,18063,10001067,CH,NA
543,Prison,Indiana,PUTNAMVILLE ISF,9/12/20,https://www.in.gov/idoc/3780.htm,185,23,0,0,180,17,890,255,NA,NA,NA,NA,34,NA,NA,NA,1946 W US HWY 40,46135,GREENCASTLE,PUTNAM,39.5650373,-86.886665,18133,10001071,CH,NA
544,Prison,Indiana,RECEPTION DIAGNOSTIC RDC,9/12/20,https://www.in.gov/idoc/3780.htm,140,21,0,0,148,19,1705,108,NA,NA,NA,NA,103,NA,NA,NA,737 MOON RD,46168,PLAINFIELD,HENDRICKS,39.6889997,-86.41604,18063,10001067,CH,NA
545,Prison,Indiana,ROCKVILLE RTC,9/12/20,https://www.in.gov/idoc/3780.htm,2,8,0,0,1,6,64,79,NA,NA,NA,NA,17,NA,NA,NA,811 W 50 N,47872,ROCKVILLE,PARKE,39.7743157,-87.254347,18121,10001063,CH,NA
1795,Prison,Indiana,SOUTH BEND SBWC,9/12/20,https://www.in.gov/idoc/3780.htm,4,1,0,0,4,0,47,6,NA,NA,NA,NA,0,NA,NA,NA,NA,NA,NA,NA,NA,NA,NA,NA,CH,NA
548,Prison,Indiana,WABASH VALLEY WVCF,9/12/20,https://www.in.gov/idoc/3780.htm,6,26,0,1,6,23,104,169,NA,NA,NA,NA,2,NA,NA,NA,6908 S OLD US HWY 41,47838,CARLISLE,SULLIVAN,38.9779291,-87.400303,18153,10001072,CH,NA
550,Prison,Indiana,WESTVILLE WCC,9/12/20,https://www.in.gov/idoc/3780.htm,223,113,6,0,215,109,319,369,NA,NA,NA,NA,30,NA,NA,NA,5501 S 1100 W,46391,WESTVILLE,LAPORTE,41.5257526,-86.908085,18091,10001051,CH,NA
1485,Prison,Indiana,CENTRAL OFFICE,9/12/20,https://www.in.gov/idoc/3780.htm,NA,4,NA,0,NA,4,NA,36,NA,NA,NA,NA,NA,NA,NA,NA,NA,NA,NA,NA,NA,NA,NA,NA,CH,NA
551,Prison,Iowa,ANAMOSA,9/12/20,https://doc.iowa.gov/COVID19,0,8,0,NA,0,8,229,NA,NA,NA,NA,NA,NA,NA,NA,NA,406 N HIGH ST,52205,ANAMOSA,JONES,42.1112907,-91.291272,19105,10001082,CH,NA
552,Prison,Iowa,CLARINDA,9/12/20,https://doc.iowa.gov/COVID19,3,3,0,NA,3,3,478,NA,NA,NA,NA,NA,NA,NA,NA,NA,2000 NORTH 16TH STREET,51632,CLARINDA,PAGE,40.7624909,-95.035826,19145,10001099,CH,NA
553,Prison,Iowa,FORT DODGE,9/12/20,https://doc.iowa.gov/COVID19,360,39,3,NA,360,39,3723,NA,NA,NA,NA,NA,NA,NA,NA,NA,1550 L STREET,50501,FORT DODGE,WEBSTER,42.4848925,-94.196093,19187,10001077,CH,NA
554,Prison,Iowa,ICIW,9/12/20,https://doc.iowa.gov/COVID19,0,11,0,NA,0,8,206,NA,NA,NA,NA,NA,NA,NA,NA,NA,420 MILL STREET SOUTHWEST,50169,MITCHELLVILLE,POLK,41.6629958,-93.366104,19153,10001087,CH,NA
555,Prison,Iowa,IMCC,9/12/20,https://doc.iowa.gov/COVID19,293,33,1,NA,243,26,4539,NA,NA,NA,NA,NA,NA,NA,NA,NA,2700 CORAL RIDGE AVE,52241,CORALVILLE,JOHNSON,41.713696,-91.611826,19103,10001091,CH,NA
556,Prison,Iowa,ISP,9/12/20,https://doc.iowa.gov/COVID19,0,22,0,NA,0,18,110,NA,NA,NA,NA,NA,NA,NA,NA,NA,2111 330TH AVENUE,52627,FORT MADISON,LEE,40.6536188,-91.303268,19111,10001100,CH,NA
557,Prison,Iowa,MT PLEASANT,9/12/20,https://doc.iowa.gov/COVID19,172,7,0,NA,42,3,1409,NA,NA,NA,NA,NA,NA,NA,NA,NA,1200 EAST WASHINGTON STREET,52641,MOUNT PLEASANT,HENRY,40.9558138,-91.536174,19087,10001096,CH,NA
558,Prison,Iowa,NEWTON,9/12/20,https://doc.iowa.gov/COVID19,1,4,0,NA,0,2,373,NA,NA,NA,NA,NA,NA,NA,NA,NA,307 SOUTH 60TH AVENUE WEST,50208,NEWTON,JASPER,41.6271702,-93.056969,19099,10001090,CH,NA
559,Prison,Iowa,NORTH CENTRAL,9/12/20,https://doc.iowa.gov/COVID19,0,0,0,NA,0,0,134,NA,NA,NA,NA,NA,NA,NA,NA,NA,313 LANEDALE,50579,ROCKWELL CITY,CALHOUN,42.3922276,-94.604377,19025,10001080,CH,NA
561,Prison,Kansas,EL DORADO,9/12/20,https://www.doc.ks.gov/kdoc-coronavirus-updates/kdoc-covid-19-status,252,18,0,0,16,16,NA,NA,NA,NA,NA,NA,NA,NA,NA,NA,1737 SOUTHEAST UNITED STATES HIGHWAY 54,67042,EL DORADO,BUTLER,37.8032567,-96.817133,20015,10001045,CH,NA
562,Prison,Kansas,ELLSWORTH,9/12/20,https://www.doc.ks.gov/kdoc-coronavirus-updates/kdoc-covid-19-status,4,4,0,0,4,4,NA,NA,NA,NA,NA,NA,NA,NA,NA,NA,1607 STATE STREET,67439,ELLSWORTH,ELLSWORTH,38.7430115,-98.23215,20053,10001040,CH,NA
563,Prison,Kansas,HUTCHINSON,9/12/20,https://www.doc.ks.gov/kdoc-coronavirus-updates/kdoc-covid-19-status,346,52,0,0,333,23,NA,NA,NA,NA,NA,NA,NA,NA,NA,NA,500 REFORMATORY STREET,67504,HUTCHINSON,RENO,38.0445848,-97.910736,20155,10001043,CH,NA
565,Prison,Kansas,LANSING,9/12/20,https://www.doc.ks.gov/kdoc-coronavirus-updates/kdoc-covid-19-status,852,99,4,2,850,98,NA,NA,NA,NA,NA,NA,NA,NA,NA,NA,301 EAST KANSAS AVE,66043,LANSING,LEAVENWORTH,39.2519041,-94.891305,20103,10001030,CH,NA
566,Prison,Kansas,LARNED,9/12/20,https://www.doc.ks.gov/kdoc-coronavirus-updates/kdoc-covid-19-status,202,32,0,0,198,23,NA,NA,NA,NA,NA,NA,NA,NA,NA,NA,1318 STATE HIGHWAY 264,67550,LARNED,PAWNEE,38.1771079,-99.151013,20145,10001830,CH,NA
567,Prison,Kansas,NORTON,9/12/20,https://www.doc.ks.gov/kdoc-coronavirus-updates/kdoc-covid-19-status,3,1,0,0,3,1,NA,NA,NA,NA,NA,NA,NA,NA,NA,NA,ROAD EAST 4 AND UNITED STATES HIGHWAY 36,67654,NORTON,NORTON,39.8441632,-99.816373,20137,10001028,CH,NA
569,Prison,Kansas,TOPEKA,9/12/20,https://www.doc.ks.gov/kdoc-coronavirus-updates/kdoc-covid-19-status,11,12,0,1,11,10,NA,NA,NA,NA,NA,NA,NA,NA,NA,NA,815 SOUTHEAST RICE ROAD,66607,TOPEKA,SHAWNEE,39.0406927,-95.625471,20177,10001033,CH,NA
571,Prison,Kansas,WINFIELD,9/12/20,https://www.doc.ks.gov/kdoc-coronavirus-updates/kdoc-covid-19-status,19,8,0,0,18,2,NA,NA,NA,NA,NA,NA,NA,NA,NA,NA,1806 PINECREST CIRCLE,67156,WINFIELD,COWLEY,37.2642659,-96.973651,20035,10001050,CH,NA
570,Prison,Kansas,WICHITA WORK RELEASE,9/12/20,https://www.doc.ks.gov/kdoc-coronavirus-updates/kdoc-covid-19-status,58,9,0,0,58,9,NA,NA,NA,NA,NA,NA,NA,NA,NA,NA,401 SOUTH EMPORIA STREET,67202,WICHITA,SEDGWICK,37.6820966,-97.333295,20173,10001048,CH,NA
564,Prison,Kansas,KJCC,9/12/20,https://www.doc.ks.gov/kdoc-coronavirus-updates/kdoc-covid-19-status,3,3,0,0,2,3,NA,NA,NA,NA,NA,NA,NA,NA,NA,NA,1430 NORTHWEST 25TH STREET,66618,TOPEKA,SHAWNEE,39.0967873,-95.684234,20177,10001034,CH,NA
572,Prison,Kentucky,BELL COUNTY FORESTRY CAMP,9/12/20,https://corrections.ky.gov/Facilities/Pages/covid19.aspx,0,1,0,0,NA,NA,NA,NA,NA,NA,NA,NA,NA,NA,NA,NA,560 CORRECTIONAL DR,40977,PINEVILLE,BELL,36.6689938,-83.851692,21013,10000122,CH,NA
573,Prison,Kentucky,BLACKBURN CORRECTIONAL COMPLEX,9/12/20,https://corrections.ky.gov/Facilities/Pages/covid19.aspx,0,1,0,0,NA,NA,NA,NA,NA,NA,NA,NA,NA,NA,NA,NA,3111 SPURR RD,40511,LEXINGTON,FAYETTE,38.1131593,-84.537205,21067,10003650,CH,NA
574,Prison,Kentucky,EASTERN KENTUCKY CORRECTIONAL COMPLEX,9/12/20,https://corrections.ky.gov/Facilities/Pages/covid19.aspx,0,0,0,0,NA,NA,NA,NA,NA,NA,NA,NA,NA,NA,NA,NA,200 ROAD TO JUSTICE,41472,WEST LIBERTY,MORGAN,37.9038891,-83.26931,21175,10000110,CH,NA
575,Prison,Kentucky,GREEN RIVER CORRECTIONAL COMPLEX,9/12/20,https://corrections.ky.gov/Facilities/Pages/covid19.aspx,367,52,3,0,NA,NA,NA,NA,NA,NA,NA,NA,NA,NA,NA,NA,1200 RIVER RD,42330,CENTRAL CITY,MUHLENBERG,37.3143803,-87.113417,21177,10000117,CH,NA
576,Prison,Kentucky,KENTUCKY CORRECTIONAL INSTITUTION FOR WOMEN,9/12/20,https://corrections.ky.gov/Facilities/Pages/covid19.aspx,246,32,0,0,NA,NA,NA,NA,NA,NA,NA,NA,NA,NA,NA,NA,3000 ASH AVE,40056,PEWEE VALLEY,SHELBY,38.2854756,-85.45712,21211,10000106,CH,NA
577,Prison,Kentucky,KENTUCKY STATE PENITENTIARY,9/12/20,https://corrections.ky.gov/Facilities/Pages/covid19.aspx,1,6,1,0,NA,NA,NA,NA,NA,NA,NA,NA,NA,NA,NA,NA,266 WATER ST,42038,EDDYVILLE,LYON,37.049271,-88.075742,21143,10000120,CH,NA
578,Prison,Kentucky,KENTUCKY STATE REFORMATORY,9/12/20,https://corrections.ky.gov/Facilities/Pages/covid19.aspx,239,23,9,1,NA,NA,NA,NA,NA,NA,NA,NA,NA,NA,NA,NA,3001 W HWY 146,40032,LAGRANGE,OLDHAM,38.4038913,-85.416583,21185,10000103,CH,NA
579,Prison,Kentucky,LEE ADJUSTMENT CENTER,9/12/20,https://corrections.ky.gov/Facilities/Pages/covid19.aspx,0,1,0,0,NA,NA,NA,NA,NA,NA,NA,NA,NA,NA,NA,NA,168 LEE ADJUSTMENT CENTER DRIVE,41311,BEATTYVILLE,LEE,37.6066831,-83.705796,21129,10000115,CH,NA
580,Prison,Kentucky,LITTLE SANDY CORRECTIONAL COMPLEX,9/12/20,https://corrections.ky.gov/Facilities/Pages/covid19.aspx,0,1,0,0,NA,NA,NA,NA,NA,NA,NA,NA,NA,NA,NA,NA,505 PRISON CONNECTOR,41171,SANDY HOOK,ELLIOTT,38.1339203,-83.081004,21063,10000107,CH,NA
581,Prison,Kentucky,LUTHER LUCKETT CORRECTIONAL COMPLEX,9/12/20,https://corrections.ky.gov/Facilities/Pages/covid19.aspx,0,2,0,0,NA,NA,NA,NA,NA,NA,NA,NA,NA,NA,NA,NA,1612 DAWKINS RD,40031,LAGRANGE,OLDHAM,38.4124309,-85.425991,21185,10000101,CH,NA
582,Prison,Kentucky,NORTHPOINT TRAINING CENTER,9/12/20,https://corrections.ky.gov/Facilities/Pages/covid19.aspx,22,19,0,0,NA,NA,NA,NA,NA,NA,NA,NA,NA,NA,NA,NA,710 WALTER REED RD,40310,BURGIN,BOYLE,37.7100209,-84.746357,21021,10000116,CH,NA
583,Prison,Kentucky,ROEDERER CORRECTIONAL COMPLEX,9/12/20,https://corrections.ky.gov/Facilities/Pages/covid19.aspx,21,14,0,0,NA,NA,NA,NA,NA,NA,NA,NA,NA,NA,NA,NA,PO BOX 69,40031,LAGRANGE,OLDHAM,38.403128,-85.429763,21185,10000102,CH,NA
585,Prison,Kentucky,WESTERN KENTUCKY CORRECTIONAL COMPLEX,9/12/20,https://corrections.ky.gov/Facilities/Pages/covid19.aspx,0,0,0,0,NA,NA,NA,NA,NA,NA,NA,NA,NA,NA,NA,NA,374 NEW BETHEL CHURCH RD,42411,FREDONIA,LYON,37.1364598,-88.040148,21143,10000121,CH,NA
584,Prison,Kentucky,STATEWIDE,9/12/20,https://corrections.ky.gov/Facilities/Pages/covid19.aspx,NA,NA,NA,NA,852,144,NA,NA,NA,NA,NA,NA,NA,NA,NA,NA,NA,NA,NA,NA,NA,NA,NA,NA,CH,NA
586,Prison,Louisiana,ALLEN CORRECTIONAL CENTER,9/12/20,https://doc.louisiana.gov/doc-covid-19-testing/,264,25,0,0,NA,24,804,167,NA,NA,NA,NA,NA,NA,NA,NA,3751 LAUDERDALE WOODYARD RD,70648,KINDER,ALLEN,30.5614832,-92.789673,22003,10000967,CH,NA
589,Prison,Louisiana,DIXON CORRECTIONAL INSTITUTE,9/12/20,https://doc.louisiana.gov/doc-covid-19-testing/,691,44,5,0,NA,23,1245,351,NA,NA,NA,NA,NA,NA,NA,NA,5568 STATE HWY 68,70748,JACKSON,EAST FELICIANA,30.813239,-91.207514,22037,10004094,CH,NA
588,Prison,Louisiana,DAVID WADE CORRECTIONAL CENTER,9/12/20,https://doc.louisiana.gov/doc-covid-19-testing/,69,41,0,0,NA,33,116,102,NA,NA,NA,NA,NA,NA,NA,NA,670 BELL HILL RD,71040,HOMER,CLAIBORNE,32.9017309,-93.019544,22027,10000948,CH,NA
590,Prison,Louisiana,ELAYN HUNT CORRECTIONAL CENTER,9/12/20,https://doc.louisiana.gov/doc-covid-19-testing/,25,41,1,0,NA,41,116,123,NA,NA,NA,NA,NA,NA,NA,NA,6925 HWY 74,70776,ST GABRIEL,IBERVILLE,30.2656369,-91.086213,22047,10000972,CH,NA
592,Prison,Louisiana,LOUISIANA CORRECTIONAL INSTITUTE FOR WOMEN HUNT,9/12/20,https://doc.louisiana.gov/doc-covid-19-testing/,169,71,2,0,NA,70,199,331,NA,NA,NA,NA,NA,NA,NA,NA,7205 STATE HWY 74,70776,ST GABRIEL,IBERVILLE,30.2631888,-91.073743,22047,10000974,CH,NA
593,Prison,Louisiana,LOUISIANA CORRECTIONAL INSTITUTE FOR WOMEN JETSON,9/12/20,https://doc.louisiana.gov/doc-covid-19-testing/,178,NA,0,NA,NA,NA,274,NA,NA,NA,NA,NA,NA,NA,NA,NA,NA,NA,NA,NA,NA,NA,NA,NA,CH,NA
594,Prison,Louisiana,LOUISIANA STATE PENITENTIARY,9/12/20,https://doc.louisiana.gov/doc-covid-19-testing/,399,148,16,3,NA,94,1354,708,NA,NA,NA,NA,NA,NA,NA,NA,17544 TUNICA TRACE,70712,ANGOLA,WEST FELICIANA,30.9597694,-91.597326,22125,10000963,CH,NA
587,Prison,Louisiana,RAYBURN CORRECTIONAL CENTER,9/12/20,https://doc.louisiana.gov/doc-covid-19-testing/,68,38,1,0,NA,36,1239,258,NA,NA,NA,NA,NA,NA,NA,NA,27268 STATE HWY 21 N,70426,ANGIE,WASHINGTON,30.9216982,-89.815843,22117,10002416,CH,NA
596,Prison,Louisiana,RAYMOND LABORDE CORRECTIONAL CENTER,9/12/20,https://doc.louisiana.gov/doc-covid-19-testing/,78,40,1,2,NA,30,129,115,NA,NA,NA,NA,NA,NA,NA,NA,1630 PRISON RD,71327,COTTONPORT,AVOYELLES,30.9744223,-92.025227,22009,10000960,CH,NA
599,Prison,Maine,STATEWIDE ADULT,9/12/20,https://www.maine.gov/corrections/,NA,3,NA,NA,NA,NA,NA,NA,1706,NA,41,NA,NA,NA,NA,1777,NA,NA,NA,NA,NA,NA,NA,NA,CH,NA
600,Prison,Maine,STATEWIDE JUVENILE,9/12/20,https://www.maine.gov/corrections/,1,1,NA,NA,NA,NA,131,NA,135,NA,3,NA,NA,NA,NA,9,NA,NA,NA,NA,NA,NA,NA,NA,CH,NA
1487,Prison,Maine,MSP,9/12/20,https://www.maine.gov/corrections/,0,1,NA,NA,NA,NA,250,NA,NA,NA,NA,NA,NA,NA,NA,NA,NA,NA,NA,NA,NA,NA,NA,NA,CH,NA
598,Prison,Maine,MAINE CORRECTIONAL CENTER MCC,9/12/20,https://www.maine.gov/corrections/,4,0,NA,NA,NA,NA,1200,NA,NA,NA,NA,NA,NA,NA,NA,NA,NA,NA,NA,NA,NA,NA,23005,NA,CH,NA
1488,Prison,Maine,MVCF,9/12/20,https://www.maine.gov/corrections/,0,0,NA,NA,NA,NA,98,NA,NA,NA,NA,NA,NA,NA,NA,NA,NA,NA,NA,NA,NA,NA,NA,NA,CH,NA
1486,Prison,Maine,BCF,9/12/20,https://www.maine.gov/corrections/,0,0,NA,NA,NA,NA,71,NA,NA,NA,NA,NA,NA,NA,NA,NA,NA,NA,NA,NA,NA,NA,NA,NA,CH,NA
1660,Prison,Maine,WOMEN,9/12/20,https://www.maine.gov/corrections/,0,0,NA,NA,NA,NA,192,NA,NA,NA,NA,NA,NA,NA,NA,NA,NA,NA,NA,NA,NA,NA,NA,NA,CH,NA
601,Prison,Maryland,BALTIMORE CENTRAL BOOKING INTAKE CENTER,9/12/20,https://news.maryland.gov/dpscs/,143,116,0,1,140,90,1610,710,NA,NA,NA,NA,NA,NA,NA,NA,300 E MADISON ST,21202,BALTIMORE,BALTIMORE CITY,39.2990497,-76.610462,24510,10004034,CH,NA
602,Prison,Maryland,BCCC BALTIMORE CITY CC,9/12/20,https://news.maryland.gov/dpscs/,1,8,0,0,1,7,284,89,NA,NA,NA,NA,NA,NA,NA,NA,901 GREENMOUNT AVE,21202,BALTIMORE,BALTIMORE CITY,39.3003053,-76.606507,24510,10001552,CH,NA
605,Prison,Maryland,CDF CHESAPEAKE DETENTION FACILITY,9/12/20,https://news.maryland.gov/dpscs/,7,36,0,0,7,31,333,209,NA,NA,NA,NA,NA,NA,NA,NA,401 E MADISON ST,21202,BALTIMORE,BALTIMORE CITY,39.2983277,-76.609415,24510,10000917,CH,NA
622,Prison,Maryland,MRDCC MARYLAND RECEPTION DIAGNOSTICS AND CLASSICIATION CENTER,9/12/20,https://news.maryland.gov/dpscs/,17,33,0,0,16,32,683,239,NA,NA,NA,NA,NA,NA,NA,NA,550 E MADISON ST,21202,BALTIMORE,BALTIMORE CITY,39.2991796,-76.606822,24510,10000918,CH,NA
623,Prison,Maryland,MTC METROPOLITAN TRANSITION CENTER BALTIMORE,9/12/20,https://news.maryland.gov/dpscs/,41,66,1,0,38,64,703,408,NA,NA,NA,NA,NA,NA,NA,NA,954 FORREST ST,21202,BALTIMORE,BALTIMORE CITY,39.3000616,-76.608566,24510,10004035,CH,NA
632,Prison,Maryland,YDC YOUTH DETENTION CENTER,9/12/20,https://news.maryland.gov/dpscs/,5,8,0,0,5,5,57,115,NA,NA,NA,NA,NA,NA,NA,NA,NA,NA,NA,NA,NA,NA,NA,NA,CH,NA
609,Prison,Maryland,ECI EASTERN CI,9/12/20,https://news.maryland.gov/dpscs/,5,15,0,0,5,11,3058,760,NA,NA,NA,NA,NA,NA,NA,NA,30420 REVELLS NECK RD,21890,WESTOVER,SOMERSET,38.1573852,-75.7044,24039,10001569,CH,NA
611,Prison,Maryland,EPRU EASTERN PRE RELEASE UNIT,9/12/20,https://news.maryland.gov/dpscs/,0,0,0,0,0,0,77,41,NA,NA,NA,NA,NA,NA,NA,NA,NA,NA,NA,NA,NA,NA,NA,NA,CH,NA
616,Prison,Maryland,MCI H MARYLAND CI HAGERSTOWN,9/12/20,https://news.maryland.gov/dpscs/,8,21,0,0,6,6,742,378,NA,NA,NA,NA,NA,NA,NA,NA,NA,NA,NA,NA,NA,NA,24043,NA,CH,NA
620,Prison,Maryland,MARYLAND CORRECTIONAL TRAINING CENTER HAGERSTOWN,9/12/20,https://news.maryland.gov/dpscs/,15,9,0,0,15,9,2790,436,NA,NA,NA,NA,NA,NA,NA,NA,18800 ROXBURY RD,21746,HAGERSTOWN,WASHINGTON,39.5648349,-77.714874,24043,10001546,CH,NA
628,Prison,Maryland,RCI ROXBURY CI,9/12/20,https://news.maryland.gov/dpscs/,25,8,1,0,23,3,1725,331,NA,NA,NA,NA,NA,NA,NA,NA,18701 ROXBURY RD,21746,HAGERSTOWN,WASHINGTON,39.5585136,-77.715179,24043,10001547,CH,NA
604,Prison,Maryland,CMCF CENTRAL MARYLAND CF,9/12/20,https://news.maryland.gov/dpscs/,60,20,2,0,58,20,321,113,NA,NA,NA,NA,NA,NA,NA,NA,NA,NA,NA,NA,NA,NA,17015,NA,CH,NA
607,Prison,Maryland,DRCF DORSEY RUN CF,9/12/20,https://news.maryland.gov/dpscs/,60,38,1,0,59,36,734,241,NA,NA,NA,NA,NA,NA,NA,NA,2020 TOULSON ROAD,20794,JESSUP,ANNE ARUNDEL,39.1390625,-76.776973,24003,10006353,CH,NA
617,Prison,Maryland,JESSUP CORRECTIONAL INSTITUTION,9/12/20,https://news.maryland.gov/dpscs/,98,72,2,0,95,60,1826,781,NA,NA,NA,NA,NA,NA,NA,NA,7803 House of Correction Rd,20794,JESSUP,ANNE ARUNDEL,39.1416755,-76.770361,24003,10001560,CH,NA
617,Prison,Maryland,JESSUP CORRECTIONAL INSTITUTION,9/12/20,https://news.maryland.gov/dpscs/,148,36,0,0,148,35,708,413,NA,NA,NA,NA,NA,NA,NA,NA,7803 House of Correction Rd,20794,JESSUP,ANNE ARUNDEL,39.1416755,-76.770361,24003,10001560,CH,NA
615,Prison,Maryland,MCI W MARYLAND CI FOR WOMEN,9/12/20,https://news.maryland.gov/dpscs/,28,56,0,0,27,53,601,343,NA,NA,NA,NA,NA,NA,NA,NA,7943 BROCK BRIDGE RD,20794,JESSUP,ANNE ARUNDEL,39.132672,-76.775413,24003,10001559,CH,NA
627,Prison,Maryland,PATX PATUXENT INSTITUTION,9/12/20,https://news.maryland.gov/dpscs/,39,63,1,0,38,48,796,460,NA,NA,NA,NA,NA,NA,NA,NA,7555 WATERLOO RD,20794,JESSUP,HOWARD,39.1640425,-76.780302,24027,10002364,CH,NA
629,Prison,Maryland,SMPRU SOUTHERN MARYLAND PRE RELEASE UNIT,9/12/20,https://news.maryland.gov/dpscs/,0,3,0,0,0,2,57,39,NA,NA,NA,NA,NA,NA,NA,NA,NA,NA,NA,NA,NA,NA,24037,NA,CH,NA
626,Prison,Maryland,NBCI NORTH BRANCH CI,9/12/20,https://news.maryland.gov/dpscs/,12,3,0,0,12,3,1259,381,NA,NA,NA,NA,NA,NA,NA,NA,14100 MCMULLEN HWY SW,21502,CUMBERLAND,ALLEGANY,39.602473,-78.818024,24001,10001543,CH,NA
631,Prison,Maryland,WCI WESTERN CI,9/12/20,https://news.maryland.gov/dpscs/,1,5,0,0,1,3,1643,488,NA,NA,NA,NA,NA,NA,NA,NA,13800 MCMULLEN HWY SW,21502,CUMBERLAND,ALLEGANY,39.6067517,-78.81542,24001,10001542,CH,NA
625,Prison,Maryland,NON RESIDENTIAL LOCATION,9/12/20,https://news.maryland.gov/dpscs/,2,36,1,0,2,24,5,458,NA,NA,NA,NA,NA,NA,NA,NA,NA,NA,NA,NA,NA,NA,NA,NA,CH,NA
633,Prison,Massachusetts,BOSTON PRE,9/12/20,https://www.mass.gov/orgs/massachusetts-department-of-correction,0,1,NA,NA,NA,NA,107,28,NA,NA,NA,NA,NA,NA,1,50,430 CANTERBURY ST,2131,ROSLINDALE,SUFFOLK,42.2924953,-71.101384,25025,10002095,CH,NA
634,Prison,Massachusetts,BSH,9/12/20,https://www.mass.gov/orgs/massachusetts-department-of-correction,18,0,NA,NA,NA,NA,507,1,NA,NA,NA,NA,NA,NA,0,206,20 ADMINISTRATION RD,2324,BRIDGEWATER,PLYMOUTH,41.9423627,-70.955339,25023,10002097,CH,NA
