Count.ID,Facility,State,Name,Date,Website,Residents.Confirmed,Staff.Confirmed,Resident.Deaths,Staff.Deaths,Residents.Recovered,Staff.Recovered,Residents.Tested,Staff.Tested,Residents.Negative,Staff.Negative,Residents.Pending,Staff.Pending,Residents.Quarantine,Staff.Quarantine,Residents.Released,Resident.Population,Address,Zipcode,City,County,Latitude,Longitude,County.FIPS,hifld_id,Notes
1,Prison,Alabama,ALEX CITY,9/20/20,http://www.doc.alabama.gov/covid19news,1,4,0,0,1,4,NA,NA,NA,NA,NA,NA,NA,NA,NA,NA,HIGHWAY 22 WEST,35011,ALEX CITY,COOSA,32.90447114,-86.00896897,1037,10003721,NA
2,Prison,Alabama,ATEF,9/20/20,http://www.doc.alabama.gov/covid19news,1,2,0,0,1,2,NA,NA,NA,NA,NA,NA,NA,NA,NA,NA,102 INDUSTRIAL PARKWAY,35051,COLUMBIANA,SHELBY,33.18100499,-86.62401724,1117,10006524,NA
3,Prison,Alabama,BIBB,9/20/20,http://www.doc.alabama.gov/covid19news,4,17,0,0,4,16,NA,NA,NA,NA,NA,NA,NA,NA,NA,NA,565 BIBB LANE,35034,BRENT,BIBB,32.92242,-87.16458,1007,10001954,NA
4,Prison,Alabama,BIRMINGHAM,9/20/20,http://www.doc.alabama.gov/covid19news,0,12,0,0,0,11,NA,NA,NA,NA,NA,NA,NA,NA,NA,NA,1216 25TH ST N,35234,BIRMINGHAM,JEFFERSON,33.53104632,-86.80836181,1073,10001204,NA
5,Prison,Alabama,BULLOCK,9/20/20,http://www.doc.alabama.gov/covid19news,56,19,0,0,56,15,NA,NA,NA,NA,NA,NA,NA,NA,NA,NA,104 BULLOCK DR,36089,UNION SPRINGS,BULLOCK,32.14940285,-85.67232013,1011,10001223,NA
6,Prison,Alabama,CAMDEN,9/20/20,http://www.doc.alabama.gov/covid19news,0,1,0,0,0,1,NA,NA,NA,NA,NA,NA,NA,NA,NA,NA,1780 ALABAMA HWY 221,36726,CAMDEN,WILCOX,31.99483708,-87.33312321,1131,10000142,NA
7,Prison,Alabama,CHILDERSBURG,9/20/20,http://www.doc.alabama.gov/covid19news,0,1,0,0,0,1,NA,NA,NA,NA,NA,NA,NA,NA,NA,NA,13501 PLANT RD,35014,ALPINE,TALLADEGA,33.36493323,-86.33219762,1121,10001209,NA
8,Prison,Alabama,CJC,9/20/20,http://www.doc.alabama.gov/covid19news,0,20,0,0,0,17,NA,NA,NA,NA,NA,NA,NA,NA,NA,NA,NA,NA,NA,NA,NA,NA,NA,NA,NA
9,Prison,Alabama,DONALDSON,9/20/20,http://www.doc.alabama.gov/covid19news,1,6,0,0,1,6,NA,NA,NA,NA,NA,NA,NA,NA,NA,NA,100 WARRIOR LN,35023,BESSEMER,JEFFERSON,33.51366663,-87.18478369,1073,10000132,NA
1376,Prison,Alabama,DRAPER QIF,9/20/20,http://www.doc.alabama.gov/covid19news,63,0,0,0,63,0,NA,NA,NA,NA,NA,NA,NA,NA,NA,NA,NA,NA,NA,NA,NA,NA,NA,NA,NA
10,Prison,Alabama,EASTERLING,9/20/20,http://www.doc.alabama.gov/covid19news,31,13,1,0,30,9,NA,NA,NA,NA,NA,NA,NA,NA,NA,NA,200 WALLACE DR,36017,CLIO,BARBOUR,31.68938149,-85.58555889,1005,10000144,NA
11,Prison,Alabama,ELBA,9/20/20,http://www.doc.alabama.gov/covid19news,1,1,0,0,1,1,NA,NA,NA,NA,NA,NA,NA,NA,NA,NA,1620 BOSWELL ST,36323,ELBA,COFFEE,31.41312386,-86.08373748,1031,10001226,NA
12,Prison,Alabama,ELMORE,9/20/20,http://www.doc.alabama.gov/covid19news,27,18,0,0,27,18,NA,NA,NA,NA,NA,NA,NA,NA,NA,NA,3520 MARION SPILLWAY ROAD,36025,ELMORE,ELMORE,32.57430479,-86.32080582,1051,10001214,NA
13,Prison,Alabama,FOUNTAIN,9/20/20,http://www.doc.alabama.gov/covid19news,19,25,1,0,18,22,NA,NA,NA,NA,NA,NA,NA,NA,NA,NA,9677 AL HWY 21 N,36503,ATMORE,ESCAMBIA,31.15658,-87.46372,1053,10001957,NA
14,Prison,Alabama,FRANK LEE,9/20/20,http://www.doc.alabama.gov/covid19news,1,9,0,0,1,9,NA,NA,NA,NA,NA,NA,NA,NA,NA,NA,5305 INGRAM RD,36022,DEATSVILLE,ELMORE,32.58235451,-86.39221844,1051,10003728,NA
15,Prison,Alabama,HAMILTON A I,9/20/20,http://www.doc.alabama.gov/covid19news,2,5,0,0,2,5,NA,NA,NA,NA,NA,NA,NA,NA,NA,NA,223 SASSER DR,35570,HAMILTON,MARION,34.12434611,-87.99171938,1093,10001197,NA
16,Prison,Alabama,HAMILTON CBF,9/20/20,http://www.doc.alabama.gov/covid19news,0,1,0,0,0,1,NA,NA,NA,NA,NA,NA,NA,NA,NA,NA,1826 BEXAR AVE E,35570,HAMILTON,MARION,34.14329559,-87.95895958,1093,10001199,NA
17,Prison,Alabama,HOLMAN,9/20/20,http://www.doc.alabama.gov/covid19news,36,19,1,0,17,15,NA,NA,NA,NA,NA,NA,NA,NA,NA,NA,866 ROSS RD,36503,ATMORE,ESCAMBIA,31.13438612,-87.4498642,1053,10000149,NA
18,Prison,Alabama,KILBY,9/20/20,http://www.doc.alabama.gov/covid19news,9,37,1,0,8,34,NA,NA,NA,NA,NA,NA,NA,NA,NA,NA,12201 WARES FERRY RD,36117,MONTGOMERY,MONTGOMERY,32.38835654,-86.1009811,1101,10001221,NA
19,Prison,Alabama,LIMESTONE,9/20/20,http://www.doc.alabama.gov/covid19news,0,12,0,0,0,9,NA,NA,NA,NA,NA,NA,NA,NA,NA,NA,28779 NICK DAVIS RD,35749,HARVEST,LIMESTONE,34.81254392,-86.80413307,1083,10000129,NA
20,Prison,Alabama,LOXLEY,9/20/20,http://www.doc.alabama.gov/covid19news,4,8,0,0,4,7,NA,NA,NA,NA,NA,NA,NA,NA,NA,NA,14880 COUNTY RD 64,36551,LOXLEY,BALDWIN,30.6153358,-87.77030984,1003,10000146,NA
21,Prison,Alabama,MOBILE,9/20/20,http://www.doc.alabama.gov/covid19news,0,6,0,0,0,5,NA,NA,NA,NA,NA,NA,NA,NA,NA,NA,2423 N BELTLINE HWY,36610,PRITCHARD,MOBILE,30.73788106,-88.10905742,1097,10000150,NA
22,Prison,Alabama,MONTGOMERY WF,9/20/20,http://www.doc.alabama.gov/covid19news,0,5,0,0,0,5,NA,NA,NA,NA,NA,NA,NA,NA,NA,NA,12085 WARES FERRY RD,36117,MONTGOMERY,MONTGOMERY,NA,NA,1101,10001222,NA
23,Prison,Alabama,NORTH ALABAMA,9/20/20,http://www.doc.alabama.gov/covid19news,0,5,0,0,0,5,NA,NA,NA,NA,NA,NA,NA,NA,NA,NA,1401 STATE HIGHWAY 20 WEST,35601,DECATUR,MORGAN,34.61756728,-87.00562813,1103,10003698,NA
24,Prison,Alabama,RED EAGLE,9/20/20,http://www.doc.alabama.gov/covid19news,0,0,0,0,0,0,NA,NA,NA,NA,NA,NA,NA,NA,NA,NA,1290 RED EAGLE RD,36110,MONTGOMERY,MONTGOMERY,32.46559439,-86.23690422,1101,10001218,NA
25,Prison,Alabama,ST CLAIR,9/20/20,http://www.doc.alabama.gov/covid19news,87,22,11,0,76,22,NA,NA,NA,NA,NA,NA,NA,NA,NA,NA,1000 SAINT CLAIR ROAD,35146,SPRINGVILLE,ST CLAIR,33.74558817,-86.38437373,1115,10003710,NA
27,Prison,Alabama,STATON,9/20/20,http://www.doc.alabama.gov/covid19news,38,34,6,0,31,32,NA,NA,NA,NA,NA,NA,NA,NA,NA,NA,2690 MARION SPILLWAY RD,36025,ELMORE,ELMORE,32.5772157,-86.33248852,1051,10000140,NA
1704,Prison,Alabama,TRAINING ACADEMY,9/20/20,http://www.doc.alabama.gov/covid19news,0,12,0,0,0,12,NA,NA,NA,NA,NA,NA,NA,NA,NA,NA,NA,NA,NA,NA,NA,NA,NA,NA,NA
28,Prison,Alabama,TUTWILER,9/20/20,http://www.doc.alabama.gov/covid19news,12,39,1,2,11,35,NA,NA,NA,NA,NA,NA,NA,NA,NA,NA,8966 US HWY 231 N,36092,WETUMPKA,ELMORE,32.5640382,-86.1940048,1051,10001216,NA
1377,Prison,Alabama,TUTWILER QIF,9/20/20,http://www.doc.alabama.gov/covid19news,2,0,0,0,2,0,NA,NA,NA,NA,NA,NA,NA,NA,NA,NA,NA,NA,NA,NA,NA,NA,NA,NA,NA
29,Prison,Alabama,VENTRESS,9/20/20,http://www.doc.alabama.gov/covid19news,9,26,0,0,0,22,NA,NA,NA,NA,NA,NA,NA,NA,NA,NA,379 ALABAMA HWY 239 N,36016,CLAYTON,BARBOUR,31.88902864,-85.49299808,1005,10000143,NA
33,Prison,Alaska,STATEWIDE,9/20/20,https://doc.alaska.gov/covid-19,60,NA,NA,NA,NA,NA,5325,NA,4950,NA,277,NA,NA,NA,NA,NA,NA,NA,NA,NA,NA,NA,NA,NA,NA
30,Prison,Alaska,ANCHORAGE CCC,9/20/20,https://doc.alaska.gov/covid-19,NA,0,0,0,NA,NA,NA,NA,NA,NA,NA,NA,NA,NA,NA,NA,1400 EAST 4TH AVENUE,99501,ANCHORAGE,ANCHORAGE,61.21842095,-149.8562424,2020,10003757,NA
32,Prison,Alaska,LEMON CREEK CC JUNEAU,9/20/20,https://doc.alaska.gov/covid-19,NA,11,0,0,NA,NA,NA,NA,NA,NA,NA,NA,NA,NA,NA,NA,2000 LEMON CREEK RD,99801,JUNEAU,JUNEAU,58.36260637,-134.4840555,2110,10001241,NA
31,Prison,Alaska,GOOSE CREEK CC,9/20/20,https://doc.alaska.gov/covid-19,NA,0,0,0,NA,NA,NA,NA,NA,NA,NA,NA,NA,NA,NA,NA,22301 WEST ALSOP ROAD,99623,WASILLA,MATANUSKA-SUSITNA,61.36030624,-150.0084479,2170,10006386,NA
34,Prison,Arizona,CACF,9/20/20,https://corrections.az.gov/adcrr-covid-19-dashboard,67,NA,3,NA,63,NA,1210,NA,1141,NA,2,NA,NA,NA,NA,1221,1401 E DIVERSION DAM RD,85132,FLORENCE,PINAL,33.03731012,-111.3727528,4021,10000618,NA
35,Prison,Arizona,DOUGLAS,9/20/20,https://corrections.az.gov/adcrr-covid-19-dashboard,105,NA,0,NA,104,NA,1949,NA,1844,NA,0,NA,NA,NA,NA,2050,6911 N BDI BLVD,85607,DOUGLAS,COCHISE,31.46242829,-109.5912299,4003,10000632,NA
37,Prison,Arizona,EYMAN,9/20/20,https://corrections.az.gov/adcrr-covid-19-dashboard,409,NA,1,NA,405,NA,5316,NA,4897,NA,10,NA,NA,NA,NA,5490,4374 E BUTTE AVE,85132,FLORENCE,PINAL,33.03691871,-111.3264441,4021,10000615,NA
38,Prison,Arizona,FLORENCE,9/20/20,https://corrections.az.gov/adcrr-covid-19-dashboard,109,NA,10,NA,99,NA,3248,NA,3131,NA,8,NA,NA,NA,NA,2743,1305 E BUTTE AVE,85132,FLORENCE,PINAL,33.02816949,-111.3707281,4021,10003976,NA
40,Prison,Arizona,FLORENCE WEST,9/20/20,https://corrections.az.gov/adcrr-covid-19-dashboard,0,NA,0,NA,0,NA,481,NA,481,NA,0,NA,NA,NA,NA,697,915 EAST DIVERSION DAM ROAD,85132,FLORENCE,PINAL,33.037233,-111.376527,4021,10006312,NA
41,Prison,Arizona,KINGMAN,9/20/20,https://corrections.az.gov/adcrr-covid-19-dashboard,55,NA,1,NA,52,NA,2700,NA,2645,NA,0,NA,NA,NA,NA,2873,4626 WEST ENGLISH DRIVE,86414,GOLDEN VALLEY,MOHAVE,35.02891497,-114.1796097,4015,10003957,NA
42,Prison,Arizona,LEWIS,9/20/20,https://corrections.az.gov/adcrr-covid-19-dashboard,259,NA,0,NA,258,NA,4152,NA,3891,NA,2,NA,NA,NA,NA,4348,26700 S HWY 85,85326,BUCKEYE,MARICOPA,33.2085241,-112.6514629,4013,10000605,NA
43,Prison,Arizona,MARANA,9/20/20,https://corrections.az.gov/adcrr-covid-19-dashboard,8,NA,0,NA,8,NA,340,NA,332,NA,0,NA,NA,NA,NA,349,12610 W SILVERBELL RD,85653,MARANA,PIMA,32.41791032,-111.2412161,4019,10000626,NA
45,Prison,Arizona,MRC,9/20/20,https://corrections.az.gov/adcrr-covid-19-dashboard,0,NA,0,NA,0,NA,0,NA,0,NA,0,NA,NA,NA,NA,0,24601 N 29TH AVE,85027,PHOENIX,MARICOPA,33.70669655,-112.1194385,4013,10002246,NA
46,Prison,Arizona,PERRYVILLE,9/20/20,https://corrections.az.gov/adcrr-covid-19-dashboard,63,NA,0,NA,62,NA,3941,NA,3876,NA,2,NA,NA,NA,NA,3767,2105 N CITRUS RD,85395,GOODYEAR,MARICOPA,33.47038654,-112.4377658,4013,10000606,NA
47,Prison,Arizona,PHOENIX,9/20/20,https://corrections.az.gov/adcrr-covid-19-dashboard,298,NA,0,NA,298,NA,2428,NA,2121,NA,9,NA,NA,NA,NA,583,2500 E VAN BUREN ST,85008,PHOENIX,MARICOPA,33.45312989,-112.0250399,4013,10002245,NA
48,Prison,Arizona,PHOENIX WEST,9/20/20,https://corrections.az.gov/adcrr-covid-19-dashboard,1,NA,0,NA,1,NA,361,NA,360,NA,0,NA,NA,NA,NA,477,3402 W COCOPAH ST,85009,PHOENIX,MARICOPA,33.43277711,-112.1326085,4013,10002244,NA
49,Prison,Arizona,PRC,9/20/20,https://corrections.az.gov/adcrr-covid-19-dashboard,0,NA,0,NA,0,NA,0,NA,0,NA,0,NA,NA,NA,NA,0,1275 W STARR PASS BLVD,85713,TUCSON,PIMA,32.2037634,-110.9909333,4019,10000630,NA
50,Prison,Arizona,RED ROCK,9/20/20,https://corrections.az.gov/adcrr-covid-19-dashboard,69,NA,0,NA,63,NA,1678,NA,1601,NA,8,NA,NA,NA,NA,1933,1750 EAST ARICA ROAD,85131,ELOY,PINAL,32.81056,-111.5196,4021,10003974,NA
51,Prison,Arizona,SAFFORD,9/20/20,https://corrections.az.gov/adcrr-covid-19-dashboard,11,NA,0,NA,11,NA,1440,NA,1428,NA,1,NA,NA,NA,NA,1618,896 S COOK RD,85546,SAFFORD,GRAHAM,32.82810149,-109.5636396,4009,10002248,NA
53,Prison,Arizona,TUCSON,9/20/20,https://corrections.az.gov/adcrr-covid-19-dashboard,963,NA,11,NA,921,NA,4528,NA,3564,NA,1,NA,NA,NA,NA,4852,10000 S WILMOT RD,85734,TUCSON,PIMA,32.06640097,-110.8663122,4019,10000628,NA
54,Prison,Arizona,WINSLOW,9/20/20,https://corrections.az.gov/adcrr-covid-19-dashboard,9,NA,0,NA,9,NA,1274,NA,1264,NA,1,NA,NA,NA,NA,1327,2100 S HWY 87,86047,WINSLOW,NAVAJO,34.98471625,-110.7210891,4017,10000595,NA
55,Prison,Arizona,YUMA,9/20/20,https://corrections.az.gov/adcrr-covid-19-dashboard,124,NA,2,NA,122,NA,4449,NA,4324,NA,1,NA,NA,NA,NA,4668,7125 E CESAR CHAVEZ BLVD,85349,SAN LUIS,YUMA,32.48750181,-114.6397153,4027,10000622,NA
52,Prison,Arizona,STATEWIDE,9/20/20,https://corrections.az.gov/adcrr-covid-19-dashboard,NA,695,NA,NA,NA,683,NA,NA,NA,NA,NA,NA,NA,NA,NA,NA,NA,NA,NA,NA,NA,NA,NA,NA,NA
57,Prison,Arkansas,STATEWIDE,9/20/20,https://adc.arkansas.gov/coronavirus-covid-19-updates,5748,399,NA,NA,5278,399,16727,5114,NA,NA,NA,NA,NA,NA,NA,NA,NA,NA,NA,NA,NA,NA,NA,NA,NA
56,Prison,Arkansas,CUMMINS UNIT PRISON,9/20/20,https://adc.arkansas.gov/coronavirus-covid-19-updates,NA,NA,5,NA,NA,NA,NA,NA,NA,NA,NA,NA,NA,NA,NA,NA,STATE HWY 388,71644,GRADY,LINCOLN,34.05152225,-91.58407175,5079,10000085,NA
1391,Prison,California,CTC RICHARD A MCGEE CORRECTIONAL TRAINING CENTER GALT CTC,9/20/20,https://www.cdcr.ca.gov/covid19/population-status-tracking/,NA,12,NA,NA,NA,10,NA,NA,NA,NA,NA,NA,NA,NA,NA,NA,NA,NA,NA,NA,NA,NA,NA,NA,NA
83,Prison,California,NCYCC NORTHERN CALIFORNIA YOUTH CORRECTIONAL CENTER,9/20/20,https://www.cdcr.ca.gov/covid19/population-status-tracking/,NA,14,NA,NA,NA,5,NA,NA,NA,NA,NA,NA,NA,NA,NA,NA,7650 SOUTH NEWCASTLE ROAD,95215,STOCKTON,SAN JOAQUIN,37.8911829,-121.1978213,6077,10000796,NA
86,Prison,California,OH CLOSE YOUTH CORRECTIONAL FACILITY,9/20/20,https://www.cdcr.ca.gov/covid19/population-status-tracking/,NA,8,NA,NA,NA,4,NA,NA,NA,NA,NA,NA,NA,NA,NA,NA,7650 SOUTH NEWCASTLE ROAD,95213,STOCKTON,SAN JOAQUIN,37.89852126,-121.1976947,6077,10000793,NA
82,Prison,California,CHADERJIAN YOUTH CORRECTIONAL FACILITY,9/20/20,https://www.cdcr.ca.gov/covid19/population-status-tracking/,NA,5,NA,NA,NA,2,NA,NA,NA,NA,NA,NA,NA,NA,NA,NA,7650 SOUTH NEWCASTLE ROAD,95215,STOCKTON,SAN JOAQUIN,37.8911829,-121.1978212,6077,10000796,NA
1687,Prison,California,VENTURA,9/20/20,https://www.cdcr.ca.gov/covid19/population-status-tracking/,NA,20,NA,NA,NA,13,NA,NA,NA,NA,NA,NA,NA,NA,NA,NA,NA,NA,NA,NA,NA,NA,NA,NA,NA
1831,Juvenile Services,California,PINE GROVE JUVENILE PRISON CAMP,9/20/20,https://www.cdcr.ca.gov/covid19/population-status-tracking/,NA,0,NA,NA,NA,0,NA,NA,NA,NA,NA,NA,NA,NA,NA,NA,NA,NA,NA,NA,NA,NA,NA,NA,NA
101,Prison,California,CDCR CCHCS WORKSITE LOCATION LOS ANGELES COUNTY,9/20/20,https://www.cdcr.ca.gov/covid19/population-status-tracking/,NA,14,NA,NA,NA,7,NA,NA,NA,NA,NA,NA,NA,NA,NA,NA,NA,NA,NA,NA,NA,NA,6037,NA,NA
1644,Prison,California,CDCR CCHCS WORKSITE LOCATION KERN COUNTY,9/20/20,https://www.cdcr.ca.gov/covid19/population-status-tracking/,NA,5,NA,NA,NA,2,NA,NA,NA,NA,NA,NA,NA,NA,NA,NA,NA,NA,NA,NA,NA,NA,NA,NA,NA
103,Prison,California,CDCR CCHCS WORKSITE SACRAMENTO COUNTY,9/20/20,https://www.cdcr.ca.gov/covid19/population-status-tracking/,NA,40,NA,NA,NA,8,NA,NA,NA,NA,NA,NA,NA,NA,NA,NA,NA,NA,NA,NA,NA,NA,6067,NA,NA
104,Prison,California,CDCR CCHCS WORKSITE SAN BERNARDINO COUNTY,9/20/20,https://www.cdcr.ca.gov/covid19/population-status-tracking/,NA,8,NA,NA,NA,3,NA,NA,NA,NA,NA,NA,NA,NA,NA,NA,NA,NA,NA,NA,NA,NA,6071,NA,NA
1390,Prison,California,CDCR CCHCS WORKSITE SAN DIEGO COUNTY,9/20/20,https://www.cdcr.ca.gov/covid19/population-status-tracking/,NA,1,NA,NA,NA,0,NA,NA,NA,NA,NA,NA,NA,NA,NA,NA,NA,NA,NA,NA,NA,NA,NA,NA,NA
1389,Prison,California,CDCR CCHCS WORKSITE SAN JOAQUIN COUNTY,9/20/20,https://www.cdcr.ca.gov/covid19/population-status-tracking/,NA,2,NA,NA,NA,2,NA,NA,NA,NA,NA,NA,NA,NA,NA,NA,NA,NA,NA,NA,NA,NA,NA,NA,NA
1736,Prison,California,CDCR CCHCS WORKSITE LOCATION ORANGE COUNTY,9/20/20,https://www.cdcr.ca.gov/covid19/population-status-tracking/,NA,0,NA,NA,NA,0,NA,NA,NA,NA,NA,NA,NA,NA,NA,NA,NA,NA,NA,NA,NA,NA,NA,NA,NA
1734,Prison,California,CDCR CCHCS WORKSITE LOCATION SANTA CLARA COUNTY,9/20/20,https://www.cdcr.ca.gov/covid19/population-status-tracking/,NA,1,NA,NA,NA,0,NA,NA,NA,NA,NA,NA,NA,NA,NA,NA,NA,NA,NA,NA,NA,NA,NA,NA,NA
1735,Prison,California,CDCR CCHCS WORKSITE LOCATION SAN LUIS OBISPO COUNTY,9/20/20,https://www.cdcr.ca.gov/covid19/population-status-tracking/,NA,0,NA,NA,NA,0,NA,NA,NA,NA,NA,NA,NA,NA,NA,NA,NA,NA,NA,NA,NA,NA,NA,NA,NA
1683,Prison,California,CDCR CCHCS WORKSITE LOCATION SOLANO COUNTY,9/20/20,https://www.cdcr.ca.gov/covid19/population-status-tracking/,NA,1,NA,NA,NA,1,NA,NA,NA,NA,NA,NA,NA,NA,NA,NA,NA,NA,NA,NA,NA,NA,NA,NA,NA
1686,Prison,California,CDCR CCHCS WORKSITE LOCATION VENTURA COUNTY,9/20/20,https://www.cdcr.ca.gov/covid19/population-status-tracking/,NA,1,NA,NA,NA,0,NA,NA,NA,NA,NA,NA,NA,NA,NA,NA,NA,NA,NA,NA,NA,NA,NA,NA,NA
1682,Prison,California,CDCR CCHCS WORKSITE LOCATION SANTA BARBARA COUNTY,9/20/20,https://www.cdcr.ca.gov/covid19/population-status-tracking/,NA,1,NA,NA,NA,0,NA,NA,NA,NA,NA,NA,NA,NA,NA,NA,NA,NA,NA,NA,NA,NA,NA,NA,NA
1684,Prison,California,CDCR CCHCS WORKSITE LOCATION STANISLAUS COUNTY,9/20/20,https://www.cdcr.ca.gov/covid19/population-status-tracking/,NA,1,NA,NA,NA,1,NA,NA,NA,NA,NA,NA,NA,NA,NA,NA,NA,NA,NA,NA,NA,NA,NA,NA,NA
1685,Prison,California,CDCR CCHCS WORKSITE LOCATION TULARE COUNTY,9/20/20,https://www.cdcr.ca.gov/covid19/population-status-tracking/,NA,1,NA,NA,NA,0,NA,NA,NA,NA,NA,NA,NA,NA,NA,NA,NA,NA,NA,NA,NA,NA,NA,NA,NA
1681,Prison,California,CDCR CCHCS WORKSITE LOCATION MONTEREY COUNTY,9/20/20,https://www.cdcr.ca.gov/covid19/population-status-tracking/,NA,2,NA,NA,NA,1,NA,NA,NA,NA,NA,NA,NA,NA,NA,NA,NA,NA,NA,NA,NA,NA,NA,NA,NA
1737,Prison,California,CDCR CCHCS WORKSITE LOCATION MENDOCINO COUNTY,9/20/20,https://www.cdcr.ca.gov/covid19/population-status-tracking/,NA,1,NA,NA,NA,0,NA,NA,NA,NA,NA,NA,NA,NA,NA,NA,NA,NA,NA,NA,NA,NA,NA,NA,NA
102,Prison,California,CDCR CCHCS WORKSITE RIVERSIDE COUNTY,9/20/20,https://www.cdcr.ca.gov/covid19/population-status-tracking/,NA,1,NA,NA,NA,0,NA,NA,NA,NA,NA,NA,NA,NA,NA,NA,NA,NA,NA,NA,NA,NA,6065,NA,NA
1739,Prison,California,CDCR CCHCS WORKSITE LOCATION FRESNO COUNTY,9/20/20,https://www.cdcr.ca.gov/covid19/population-status-tracking/,NA,2,NA,NA,NA,0,NA,NA,NA,NA,NA,NA,NA,NA,NA,NA,NA,NA,NA,NA,NA,NA,NA,NA,NA
1738,Prison,California,CDCR CCHCS WORKSITE LOCATION IMPERIAL COUNTY,9/20/20,https://www.cdcr.ca.gov/covid19/population-status-tracking/,NA,1,NA,NA,NA,1,NA,NA,NA,NA,NA,NA,NA,NA,NA,NA,NA,NA,NA,NA,NA,NA,NA,NA,NA
75,Prison,California,FSP FOLSOM STATE PRISON,9/20/20,https://www.cdcr.ca.gov/covid19/population-status-tracking/,990,47,0,NA,475,33,1868,NA,NA,NA,NA,NA,NA,NA,10,NA,300 PRISON ROAD,95671,REPRESA,SACRAMENTO,38.69538339,-121.1630324,6067,10000780,NA
71,Prison,California,CRC CALIFORNIA REHABILITATION CENTER,9/20/20,https://www.cdcr.ca.gov/covid19/population-status-tracking/,940,129,0,NA,645,106,1092,NA,NA,NA,NA,NA,NA,NA,35,NA,3195 WESTERN AVENUE,92860,NORCO,RIVERSIDE,33.92691794,-117.5759442,6065,10000856,NA
58,Prison,California,ASP AVENAL STATE PRISON,9/20/20,https://www.cdcr.ca.gov/covid19/population-status-tracking/,2410,254,5,NA,2153,209,853,NA,NA,NA,NA,NA,NA,NA,75,NA,1 KINGS WAY,93204,AVENAL,KINGS,35.97394934,-120.1231018,6031,10000826,NA
98,Prison,California,SATF SUBSTANCE ABUSE TREATMENT FACILITY,9/20/20,https://www.cdcr.ca.gov/covid19/population-status-tracking/,297,125,0,NA,121,72,781,NA,NA,NA,NA,NA,NA,NA,2,NA,NA,NA,NA,NA,NA,NA,NA,NA,NA
73,Prison,California,CVSP CHUCKAWALLA VALLEY STATE PRISON,9/20/20,https://www.cdcr.ca.gov/covid19/population-status-tracking/,1220,85,3,NA,1035,77,NA,NA,NA,NA,NA,NA,NA,NA,23,NA,19025 WILEYS WELL ROAD,92225,BLYTHE,RIVERSIDE,33.56257951,-114.9095058,6065,10002346,NA
100,Prison,California,VSP VALLEY STATE PRISON,9/20/20,https://www.cdcr.ca.gov/covid19/population-status-tracking/,143,50,0,NA,0,34,2137,NA,NA,NA,NA,NA,NA,NA,1,NA,21633 AVENUE 24,93610,CHOWCHILLA,MADERA,37.10547736,-120.1554719,6039,10000802,NA
84,Prison,California,NKSP NORTH KERN STATE PRISON,9/20/20,https://www.cdcr.ca.gov/covid19/population-status-tracking/,81,194,0,NA,28,177,NA,NA,NA,NA,NA,NA,NA,NA,0,NA,2737 WEST CECIL AVENUE,93215,DELANO,KERN,35.78188512,-119.3098757,6029,10000841,NA
66,Prison,California,CIM CALIFORNIA INSTITUTION FOR MEN,9/20/20,https://www.cdcr.ca.gov/covid19/population-status-tracking/,1138,232,21,NA,1049,203,773,NA,NA,NA,NA,NA,NA,NA,33,NA,14901 CENTRAL AVENUE,91710,CHINO,SAN BERNARDINO,33.98471223,-117.6823919,6071,10000836,NA
62,Prison,California,CCI CALIFORNIA CORRECTIONAL INSTITUTION,9/20/20,https://www.cdcr.ca.gov/covid19/population-status-tracking/,831,180,0,NA,744,155,1149,NA,NA,NA,NA,NA,NA,NA,54,NA,24900 HWY 202,93561,TEHACHAPI,KERN,35.10991489,-118.5703307,6029,10001530,NA
68,Prison,California,CMC CALIFORNIA MENS COLONY,9/20/20,https://www.cdcr.ca.gov/covid19/population-status-tracking/,297,56,1,NA,263,41,NA,NA,NA,NA,NA,NA,NA,NA,7,NA,COLONY DRIVE,93409,SAN LUIS OBISPO,SAN LUIS OBISPO,35.32457413,-120.6989005,6079,10002345,NA
99,Prison,California,SVSP SALINAS VALLEY STATE PRISON,9/20/20,https://www.cdcr.ca.gov/covid19/population-status-tracking/,63,67,0,NA,35,39,NA,NA,NA,NA,NA,NA,NA,NA,3,NA,31625 HIGHWAY 101,93960,SOLEDAD,MONTEREY,36.47885699,-121.3743944,6053,10000821,NA
72,Prison,California,CTF CORRECTIONAL TRAINING FACILITY,9/20/20,https://www.cdcr.ca.gov/covid19/population-status-tracking/,120,57,1,NA,89,17,1144,NA,NA,NA,NA,NA,NA,NA,6,NA,SOLEDAD PRISON ROAD,93960,SOLEDAD,MONTEREY,36.46964789,-121.3822324,6053,10000817,NA
106,Prison,California,WSP WASCO STATE PRISON,9/20/20,https://www.cdcr.ca.gov/covid19/population-status-tracking/,276,117,0,NA,233,72,NA,NA,NA,NA,NA,NA,NA,NA,31,NA,701 SCOFIELD AVENUE,93280,WASCO,KERN,35.59431189,-119.4083319,6029,10000847,NA
77,Prison,California,ISP IRONWOOD STATE PRISON,9/20/20,https://www.cdcr.ca.gov/covid19/population-status-tracking/,81,116,0,NA,68,109,NA,NA,NA,NA,NA,NA,NA,NA,5,NA,19005 WILEYS WELL ROAD,92225,BLYTHE,RIVERSIDE,33.56098104,-114.9260354,6065,10000861,NA
70,Prison,California,COR CALIFORNIA STATE PRISON CORCORAN,9/20/20,https://www.cdcr.ca.gov/covid19/population-status-tracking/,360,214,1,NA,350,108,NA,NA,NA,NA,NA,NA,NA,NA,3,NA,4001 KING AVENUE,93212,CORCORAN,KINGS,36.06081823,-119.549121,6031,10000824,NA
97,Prison,California,SQ CA STATE PRISON SAN QUENTIN,9/20/20,https://www.cdcr.ca.gov/covid19/population-status-tracking/,2240,289,26,NA,2150,236,1010,NA,NA,NA,NA,NA,NA,NA,58,NA,MAIN STREET,94964,SAN QUENTIN,MARIN,37.94003982,-122.4903665,6041,10000790,NA
64,Prison,California,CEN CALIFORNIA STATE PRISON CENTINELA,9/20/20,https://www.cdcr.ca.gov/covid19/population-status-tracking/,61,103,0,NA,53,79,NA,NA,NA,NA,NA,NA,NA,NA,3,NA,2302 BROWN ROAD,92251,IMPERIAL,IMPERIAL,32.82339731,-115.7890555,6025,10002348,NA
79,Prison,California,LAC CALIFORNIA STATE PRISON LOS ANGELES COUNTY,9/20/20,https://www.cdcr.ca.gov/covid19/population-status-tracking/,192,106,0,NA,188,63,921,NA,NA,NA,NA,NA,NA,NA,1,NA,44750 60TH STREET WEST,93536,LANCASTER,LOS ANGELES,34.69359649,-118.2276136,6037,10002353,NA
90,Prison,California,PVSP PLEASANT VALLEY STATE PRISON,9/20/20,https://www.cdcr.ca.gov/covid19/population-status-tracking/,3,26,0,NA,1,12,NA,NA,NA,NA,NA,NA,NA,NA,0,NA,24863 WEST JAYNE AVENUE,93210,COALINGA,FRESNO,36.13147309,-120.2488996,6019,10000810,NA
93,Prison,California,SAC CALIFORNIA STATE PRISON SACRAMENTO,9/20/20,https://www.cdcr.ca.gov/covid19/population-status-tracking/,15,46,0,NA,10,21,NA,NA,NA,NA,NA,NA,NA,NA,3,NA,100 PRISON ROAD,95671,REPRESA,SACRAMENTO,38.69444411,-121.1539037,6067,10002322,NA
96,Prison,California,SOL CALIFORNIA STATE PRISON SOLANO,9/20/20,https://www.cdcr.ca.gov/covid19/population-status-tracking/,5,40,0,NA,3,32,NA,NA,NA,NA,NA,NA,NA,NA,0,NA,2100 PEABODY ROAD,95687,VACAVILLE,SOLANO,38.32077652,-121.9752369,6095,10002323,NA
65,Prison,California,CHCF CALIFORNIA HEALTH CARE FACILITY,9/20/20,https://www.cdcr.ca.gov/covid19/population-status-tracking/,6,123,0,NA,5,114,NA,NA,NA,NA,NA,NA,NA,NA,0,NA,7707 AUSTIN ROAD,95215,STOCKTON,SAN JOAQUIN,37.8947278,-121.1848441,6077,10000799,NA
69,Prison,California,CMF CALIFORNIA MEDICAL FACILITY,9/20/20,https://www.cdcr.ca.gov/covid19/population-status-tracking/,8,47,0,NA,7,45,NA,NA,NA,NA,NA,NA,NA,NA,0,NA,1600 CALIFORNIA DRIVE,95696,VACAVILLE,SOLANO,38.32851019,-121.9791645,6095,10000785,NA
76,Prison,California,HDSP HIGH DESERT STATE PRISON,9/20/20,https://www.cdcr.ca.gov/covid19/population-status-tracking/,6,26,0,NA,4,19,NA,NA,NA,NA,NA,NA,NA,NA,1,NA,475-750 RICE CANYON ROAD,96127,SUSANVILLE,LASSEN,40.4034569,-120.5258579,6035,10002310,NA
78,Prison,California,KVSP KERN VALLEY STATE PRISON,9/20/20,https://www.cdcr.ca.gov/covid19/population-status-tracking/,12,93,0,NA,11,46,916,NA,NA,NA,NA,NA,NA,NA,0,NA,3000 WEST CECIL AVENUE,93216,DELANO,KERN,35.76647437,-119.3253627,6029,10000844,NA
59,Prison,California,CAC CALIFORNIA CITY CORRECTIONAL FACILITY,9/20/20,https://www.cdcr.ca.gov/covid19/population-status-tracking/,4,35,0,NA,4,29,NA,NA,NA,NA,NA,NA,NA,NA,0,NA,22844 VIRGINIA BLVD,93505,CALIFORNIA CITY,KERN,35.1532512,-117.8588801,6029,10000852,NA
60,Prison,California,CAL CALIPATRIA STATE PRISON,9/20/20,https://www.cdcr.ca.gov/covid19/population-status-tracking/,26,92,0,NA,17,81,NA,NA,NA,NA,NA,NA,NA,NA,9,NA,7018 BLAIR ROAD,92233,CALIPATRIA,IMPERIAL,33.16569337,-115.484344,6025,10002347,NA
61,Prison,California,CCC CALIFORNIA CORRECTIONAL CENTER,9/20/20,https://www.cdcr.ca.gov/covid19/population-status-tracking/,661,29,0,NA,628,26,1405,NA,NA,NA,NA,NA,NA,NA,33,NA,711-045 CENTER ROAD,96127,SUSANVILLE,LASSEN,40.40195801,-120.5167302,6035,10000773,NA
63,Prison,California,CCWF CENTRAL CA WOMENS FACILITY,9/20/20,https://www.cdcr.ca.gov/covid19/population-status-tracking/,16,43,0,NA,16,33,NA,NA,NA,NA,NA,NA,NA,NA,0,NA,23370 ROAD 22,93610,CHOWCHILLA,MADERA,37.09368073,-120.1527098,6039,10000801,NA
67,Prison,California,CIW CALIFORNIA INSTITUTION FOR WOMEN,9/20/20,https://www.cdcr.ca.gov/covid19/population-status-tracking/,351,79,1,NA,340,71,NA,NA,NA,NA,NA,NA,NA,NA,10,NA,16756 CHINO-CORONA ROAD,92880,CORONA,SAN BERNARDINO,33.94974531,-117.636365,6071,10002341,NA
74,Prison,California,DVI DEUEL VOCATIONAL INSTITUTION,9/20/20,https://www.cdcr.ca.gov/covid19/population-status-tracking/,0,51,0,NA,0,12,NA,NA,NA,NA,NA,NA,NA,NA,0,NA,23500 KASSON ROAD,95304,TRACY,SAN JOAQUIN,37.74805759,-121.3306264,6077,10000794,NA
81,Prison,California,MCSP MULE CREEK STATE PRISON,9/20/20,https://www.cdcr.ca.gov/covid19/population-status-tracking/,44,27,1,NA,42,11,NA,NA,NA,NA,NA,NA,NA,NA,1,NA,4001 STATE HIGHWAY 104,95640,IONE,AMADOR,38.37074335,-120.9534458,6005,10000782,NA
88,Prison,California,PBSP PELICAN BAY STATE PRISON,9/20/20,https://www.cdcr.ca.gov/covid19/population-status-tracking/,0,34,0,NA,0,18,NA,NA,NA,NA,NA,NA,NA,NA,0,NA,5905 LAKE EARL DRIVE,95531,CRESCENT CITY,DEL NORTE,41.85480851,-124.1490751,6015,10002309,NA
92,Prison,California,RJD RICHARD J DONOVAN CORRECTIONAL FACILITY,9/20/20,https://www.cdcr.ca.gov/covid19/population-status-tracking/,3,73,0,NA,3,42,NA,NA,NA,NA,NA,NA,NA,NA,0,NA,480 ALTA ROAD,92179,SAN DIEGO,SAN DIEGO,32.58456487,-116.9335763,6073,10000869,NA
95,Prison,California,SCC SIERRA CONSERVATION CENTER,9/20/20,https://www.cdcr.ca.gov/covid19/population-status-tracking/,18,34,0,NA,16,30,1477,NA,NA,NA,NA,NA,NA,NA,2,NA,5100 OBYRNES FERRY ROAD,95327,JAMESTOWN,TUOLUMNE,37.89168856,-120.5365401,6109,10001522,NA
107,Prison,Colorado,ARKANSAS VALLEY CORRECTIONAL FACILITY,9/20/20,https://www.colorado.gov/pacific/cdoc/covid-19-faq-and-updates,0,NA,0,NA,0,NA,17,NA,NA,NA,NA,NA,NA,NA,NA,NA,12750 HIGHWAY 96 AT LANE 13,81034,ORDWAY,CROWLEY,38.19146827,-103.8421854,8025,10002228,NA
108,Prison,Colorado,ARROWHEAD CORRECTIONAL FACILITY,9/20/20,https://www.colorado.gov/pacific/cdoc/covid-19-faq-and-updates,2,NA,0,NA,1,NA,1785,NA,NA,NA,NA,NA,NA,NA,NA,NA,E US HIGHWAY 50 AND EVANS BLVD,81212,CANON CITY,FREMONT,38.43610328,-105.1590956,8043,10002225,NA
109,Prison,Colorado,BENT COUNTY CORRECTIONAL FACILITY,9/20/20,https://www.colorado.gov/pacific/cdoc/covid-19-faq-and-updates,0,NA,0,NA,0,NA,229,NA,NA,NA,NA,NA,NA,NA,NA,NA,11560 ROAD FF75,81054,LAS ANIMAS,BENT,38.06456309,-103.2047922,8011,10002233,NA
110,Prison,Colorado,BUENA VISTA CORRECTIONAL COMPLEX,9/20/20,https://www.colorado.gov/pacific/cdoc/covid-19-faq-and-updates,198,NA,0,NA,198,NA,7671,NA,NA,NA,NA,NA,NA,NA,NA,NA,5125 HWY 24 285,81211,BUENA VISTA,CHAFFEE,38.82210118,-106.1147135,8015,10000573,NA
111,Prison,Colorado,CENTENNIAL CORRECTIONAL FACILITY,9/20/20,https://www.colorado.gov/pacific/cdoc/covid-19-faq-and-updates,17,NA,0,NA,16,NA,3972,NA,NA,NA,NA,NA,NA,NA,NA,NA,E US HIGHWAY 50 EVANS BLVD,81215,CANON CITY,FREMONT,NA,NA,8043,10002226,NA
112,Prison,Colorado,COLORADO CORRECTIONAL CENTER,9/20/20,https://www.colorado.gov/pacific/cdoc/covid-19-faq-and-updates,0,NA,0,NA,0,NA,305,NA,NA,NA,NA,NA,NA,NA,NA,NA,15445 SOUTH GOLDEN ROAD,80401,GOLDEN,JEFFERSON,39.73493736,-105.171343,8059,10000563,NA
113,Prison,Colorado,COLORADO STATE PENITENTIARY,9/20/20,https://www.colorado.gov/pacific/cdoc/covid-19-faq-and-updates,28,NA,0,NA,28,NA,2213,NA,NA,NA,NA,NA,NA,NA,NA,NA,E US HIGHWAY 50 EVANS BLVD,81215,CANON CITY,FREMONT,NA,NA,8043,10002227,NA
114,Prison,Colorado,COLORADO TERRITORIAL CORRECTIONAL FACILITY,9/20/20,https://www.colorado.gov/pacific/cdoc/covid-19-faq-and-updates,0,NA,0,NA,0,NA,1122,NA,NA,NA,NA,NA,NA,NA,NA,NA,275 WEST UNITED STATES HIGHWAY 50,81215,CANON CITY,FREMONT,38.43802317,-105.2486951,8043,10000578,NA
115,Prison,Colorado,CROWLEY COUNTY CORRECTIONAL FACILITY,9/20/20,https://www.colorado.gov/pacific/cdoc/covid-19-faq-and-updates,66,NA,0,NA,66,NA,1951,NA,NA,NA,NA,NA,NA,NA,NA,NA,6564 HIGHWAY 96,81062,OLNEY SPRINGS,CROWLEY,38.15673868,-103.9573023,8025,10000585,NA
116,Prison,Colorado,DELTA CORRECTIONAL FACILITY,9/20/20,https://www.colorado.gov/pacific/cdoc/covid-19-faq-and-updates,0,NA,0,NA,0,NA,354,NA,NA,NA,NA,NA,NA,NA,NA,NA,11363 LOCKHART ROAD,81416,DELTA,DELTA,38.70911617,-108.1486112,8029,10000569,NA
117,Prison,Colorado,DENVER RECEPTION DIAGNOSTIC CENTER,9/20/20,https://www.colorado.gov/pacific/cdoc/covid-19-faq-and-updates,6,NA,0,NA,6,NA,2622,NA,NA,NA,NA,NA,NA,NA,NA,NA,10900 SMITH ROAD,80239,DENVER,DENVER,NA,NA,8031,10000560,NA
118,Prison,Colorado,DENVER WOMENS CORRECTIONAL FACILITY,9/20/20,https://www.colorado.gov/pacific/cdoc/covid-19-faq-and-updates,1,NA,0,NA,1,NA,1992,NA,NA,NA,NA,NA,NA,NA,NA,NA,3600 HAVANA STREET,80239,DENVER,DENVER,39.76510225,-104.860784,8031,10000561,NA
119,Prison,Colorado,FOUR MILE CORRECTIONAL FACILITY,9/20/20,https://www.colorado.gov/pacific/cdoc/covid-19-faq-and-updates,0,NA,0,NA,0,NA,192,NA,NA,NA,NA,NA,NA,NA,NA,NA,E US HIGHWAY 50 EVANS BLVD,81212,CANON CITY,FREMONT,38.42976983,-105.1478509,8043,10000577,NA
1707,Prison,Colorado,FREMONT CORRECTIONAL FACILITY,9/20/20,https://www.colorado.gov/pacific/cdoc/covid-19-faq-and-updates,6,NA,0,NA,6,NA,1069,NA,NA,NA,NA,NA,NA,NA,NA,NA,E US HIGHWAY 50 EVANS BLVD,81215,CANON CITY,FREMONT,NA,NA,8043,10000576,NA
121,Prison,Colorado,LA VISTA CORRECTIONAL FACILITY,9/20/20,https://www.colorado.gov/pacific/cdoc/covid-19-faq-and-updates,0,NA,0,NA,0,NA,141,NA,NA,NA,NA,NA,NA,NA,NA,NA,1401 WEST 17TH STREET,81003,PUEBLO,PUEBLO,38.28484966,-104.6281974,8101,10000586,NA
1706,Prison,Colorado,LIMON CORRECTIONAL FACILITY,9/20/20,https://www.colorado.gov/pacific/cdoc/covid-19-faq-and-updates,0,NA,0,NA,0,NA,441,NA,NA,NA,NA,NA,NA,NA,NA,NA,NA,NA,NA,NA,NA,NA,NA,NA,NA
123,Prison,Colorado,RIFLE CORRECTIONAL CENTER,9/20/20,https://www.colorado.gov/pacific/cdoc/covid-19-faq-and-updates,0,NA,0,NA,0,NA,25,NA,NA,NA,NA,NA,NA,NA,NA,NA,200 COUNTY ROAD 219,81650,RIFLE,GARFIELD,39.65016626,-107.7790488,8045,10000557,NA
124,Prison,Colorado,SAN CARLOS CORRECTIONAL FACILITY,9/20/20,https://www.colorado.gov/pacific/cdoc/covid-19-faq-and-updates,0,NA,0,NA,0,NA,185,NA,NA,NA,NA,NA,NA,NA,NA,NA,1410 WEST 13TH STREET,81003,PUEBLO,PUEBLO,NA,NA,8101,10000587,NA
120,Prison,Colorado,SKYLINE CORRECTIONAL CENTER,9/20/20,https://www.colorado.gov/pacific/cdoc/covid-19-faq-and-updates,0,NA,0,NA,0,NA,8,NA,NA,NA,NA,NA,NA,NA,NA,NA,NA,NA,NA,NA,NA,NA,NA,NA,NA
127,Prison,Colorado,STERLING CORRECTIONAL FACILITY,9/20/20,https://www.colorado.gov/pacific/cdoc/covid-19-faq-and-updates,564,NA,3,NA,561,NA,5349,NA,NA,NA,NA,NA,NA,NA,NA,NA,12101 HIGHWAY 61,80751,STERLING,LOGAN,40.61123458,-103.1621015,8075,10000554,NA
128,Prison,Colorado,TRINIDAD CORRECTIONAL FACILITY,9/20/20,https://www.colorado.gov/pacific/cdoc/covid-19-faq-and-updates,0,NA,0,NA,0,NA,213,NA,NA,NA,NA,NA,NA,NA,NA,NA,21000 HIGHWAY 350 EAST,81059,MODEL,LAS ANIMAS,37.30034613,-104.2866571,8071,10000593,NA
129,Prison,Colorado,YOUTHFUL OFFENDER SYSTEM,9/20/20,https://www.colorado.gov/pacific/cdoc/covid-19-faq-and-updates,0,NA,0,NA,0,NA,14,NA,NA,NA,NA,NA,NA,NA,NA,NA,1300 WEST 13TH ST,81003,PUEBLO,PUEBLO,NA,NA,8101,10000588,NA
126,Administrative,Colorado,STATEWIDE,9/20/20,https://www.colorado.gov/pacific/cdoc/covid-19-faq-and-updates,NA,117,NA,NA,NA,100,NA,NA,NA,NA,NA,NA,NA,NA,NA,NA,NA,NA,NA,NA,NA,NA,NA,NA,NA
130,Prison,Connecticut,BRIDGEPORT CC,9/20/20,https://portal.ct.gov/DOC/Common-Elements/Common-Elements/Health-Information-and-Advisories,139,NA,NA,NA,NA,NA,NA,NA,NA,NA,NA,NA,NA,NA,NA,NA,1106 NORTH AVE,6604,BRIDGEPORT,FAIRFIELD,41.1906143,-73.20106036,9001,10002400,NA
131,Prison,Connecticut,BROOKLYN CI,9/20/20,https://portal.ct.gov/DOC/Common-Elements/Common-Elements/Health-Information-and-Advisories,155,NA,NA,NA,NA,NA,NA,NA,NA,NA,NA,NA,NA,NA,NA,NA,59 HARTFORD RD,6234,BROOKLYN,WINDHAM,41.78416388,-71.95426216,9015,10002399,NA
133,Prison,Connecticut,CHESHIRE CI,9/20/20,https://portal.ct.gov/DOC/Common-Elements/Common-Elements/Health-Information-and-Advisories,30,NA,NA,NA,NA,NA,NA,NA,NA,NA,NA,NA,NA,NA,NA,NA,900 HIGHLAND AVE,6410,CHESHIRE,NEW HAVEN,41.52149124,-72.9017651,9009,10000937,NA
134,Prison,Connecticut,CORRIGAN RADGOWSKI CC,9/20/20,https://portal.ct.gov/DOC/Common-Elements/Common-Elements/Health-Information-and-Advisories,256,NA,NA,NA,NA,NA,NA,NA,NA,NA,NA,NA,NA,NA,NA,NA,986 NORWICH-NEW LONDON TURNPIKE,6382,UNCASVILLE,NEW LONDON,41.45418432,-72.11217243,9011,10000931,NA
136,Prison,Connecticut,GARNER CI,9/20/20,https://portal.ct.gov/DOC/Common-Elements/Common-Elements/Health-Information-and-Advisories,7,NA,NA,NA,NA,NA,NA,NA,NA,NA,NA,NA,NA,NA,NA,NA,50 NUNNAWAUK RD,6470,NEWTOWN,FAIRFIELD,41.40035888,-73.2721123,9001,10000934,NA
137,Prison,Connecticut,HARTFORD CC,9/20/20,https://portal.ct.gov/DOC/Common-Elements/Common-Elements/Health-Information-and-Advisories,122,NA,NA,NA,NA,NA,NA,NA,NA,NA,NA,NA,NA,NA,NA,NA,177 WESTON ST,6120,HARTFORD,HARTFORD,41.79362408,-72.66139948,9003,10000926,NA
1688,Prison,Connecticut,MACDOUGALL WALKER CI,9/20/20,https://portal.ct.gov/DOC/Common-Elements/Common-Elements/Health-Information-and-Advisories,21,NA,NA,NA,NA,NA,NA,NA,NA,NA,NA,NA,NA,NA,NA,NA,NA,NA,NA,NA,NA,NA,NA,NA,NA
140,Prison,Connecticut,MANSON YOUTH,9/20/20,https://portal.ct.gov/DOC/Common-Elements/Common-Elements/Health-Information-and-Advisories,1,NA,NA,NA,NA,NA,NA,NA,NA,NA,NA,NA,NA,NA,NA,NA,42 JARVIS ST,6410,CHESHIRE,NEW HAVEN,41.53050021,-72.89979775,9009,10000939,NA
142,Prison,Connecticut,NEW HAVEN CC,9/20/20,https://portal.ct.gov/DOC/Common-Elements/Common-Elements/Health-Information-and-Advisories,139,NA,NA,NA,NA,NA,NA,NA,NA,NA,NA,NA,NA,NA,NA,NA,245 WHALLEY AVE,6511,NEW HAVEN,NEW HAVEN,41.31748057,-72.93997131,9009,10005380,NA
143,Prison,Connecticut,NORTHERN CI,9/20/20,https://portal.ct.gov/DOC/Common-Elements/Common-Elements/Health-Information-and-Advisories,2,NA,NA,NA,NA,NA,NA,NA,NA,NA,NA,NA,NA,NA,NA,NA,287 BILTON RD,6071,SOMERS,TOLLAND,42.0188064,-72.4948806,9013,10000929,NA
1841,Prison,Connecticut,MACDOUGALL WALKER CI,9/20/20,NA,0,NA,NA,NA,NA,NA,NA,NA,NA,NA,NA,NA,NA,NA,NA,NA,NA,NA,NA,NA,NA,NA,NA,NA,NA
144,Prison,Connecticut,OSBORN CI,9/20/20,https://portal.ct.gov/DOC/Common-Elements/Common-Elements/Health-Information-and-Advisories,307,NA,NA,NA,NA,NA,NA,NA,NA,NA,NA,NA,NA,NA,NA,NA,335 BILTON RD,6071,SOMERS,TOLLAND,42.01640023,-72.49693453,9013,10000928,NA
132,Prison,Connecticut,CARL ROBINSON CI,9/20/20,https://portal.ct.gov/DOC/Common-Elements/Common-Elements/Health-Information-and-Advisories,278,NA,NA,NA,NA,NA,NA,NA,NA,NA,NA,NA,NA,NA,NA,NA,285 SHAKER RD,6082,ENFIELD,HARTFORD,42.0156533,-72.515607,9003,10001605,NA
146,Prison,Connecticut,WILLARD CYBULSKI CI,9/20/20,https://portal.ct.gov/DOC/Common-Elements/Common-Elements/Health-Information-and-Advisories,100,NA,NA,NA,NA,NA,NA,NA,NA,NA,NA,NA,NA,NA,NA,NA,391 SHAKER RD,6082,ENFIELD,TOLLAND,42.0167978,-72.5062987,9003,10006149,NA
147,Prison,Connecticut,YORK CI,9/20/20,https://portal.ct.gov/DOC/Common-Elements/Common-Elements/Health-Information-and-Advisories,0,NA,NA,NA,NA,NA,NA,NA,NA,NA,NA,NA,NA,NA,NA,NA,201 W MAIN ST,6357,NIANTIC,NEW LONDON,41.32308179,-72.23754189,9011,10000933,NA
145,Administrative,Connecticut,STATEWIDE,9/20/20,https://portal.ct.gov/DOC/Common-Elements/Common-Elements/Health-Information-and-Advisories,NA,380,7,NA,1554,359,NA,NA,NA,NA,NA,NA,NA,NA,231,NA,NA,NA,NA,NA,NA,NA,NA,NA,NA
154,Administrative,Delaware,STATEWIDE,9/20/20,https://doc.delaware.gov/views/covid19.blade.shtml,534,172,NA,NA,519,164,NA,NA,NA,NA,NA,NA,NA,NA,NA,NA,NA,NA,NA,NA,NA,NA,NA,NA,"(5/28/20) Delaware staff recoveries no longer broken out by facility, instead reported as total (5/20/20) Delaware dashboard changed format, cumulative infections no longer reported by facility for residents (4/30/20) third death at James T. Vaughn for a resident ( https://www.wdel.com/news/third-vaughn-prisoner-dies-from-covid-19/article_ff290160-8b3f-11ea-8cd8-e7b21ed1ed0b.html ) ----- (4/23/20) DE announces 3 resident recoveries at James T Vaughn CC and 1 staff recovery (no facility listed) ( http://www.wboc.com/story/42041207/del-doc-marks-first-staff-and-inmate-recoveries-from-covid19 ) ----- (04/16/20) article reports resident death at Vaugn, had previously tested negative for COVID but most recent test is pending - added to the count for now (https://www.delawareonline.com/story/news/2020/04/16/vaughn-prison-inmate-dies-covid-19-test-pending/5144916002/) https://doc.delaware.gov/assets/documents/Confirmed_COVID_Cases.pdf"
151,Prison,Delaware,JAMES T VAUGHN CORRECTIONAL CENTER,9/20/20,https://doc.delaware.gov/views/covid19.blade.shtml,NA,NA,7,0,NA,NA,NA,NA,NA,NA,NA,NA,NA,NA,NA,NA,1181 PADDOCK RD,19977,SMYRNA,NEW CASTLE,39.33295451,-75.59958958,10003,10002262,"(5/28/20) Delaware staff recoveries no longer broken out by facility, instead reported as total (5/20/20) Delaware dashboard changed format, cumulative infections no longer reported by facility for residents (4/30/20) third death at James T. Vaughn for a resident ( https://www.wdel.com/news/third-vaughn-prisoner-dies-from-covid-19/article_ff290160-8b3f-11ea-8cd8-e7b21ed1ed0b.html ) ----- (4/23/20) DE announces 3 resident recoveries at James T Vaughn CC and 1 staff recovery (no facility listed) ( http://www.wboc.com/story/42041207/del-doc-marks-first-staff-and-inmate-recoveries-from-covid19 ) ----- (04/16/20) article reports resident death at Vaugn, had previously tested negative for COVID but most recent test is pending - added to the count for now (https://www.delawareonline.com/story/news/2020/04/16/vaughn-prison-inmate-dies-covid-19-test-pending/5144916002/) https://doc.delaware.gov/assets/documents/Confirmed_COVID_Cases.pdf"
150,Prison,Delaware,HOWARD R YOUNG CORRECTIONAL INSTITUTION,9/20/20,https://doc.delaware.gov/views/covid19.blade.shtml,NA,NA,0,0,NA,NA,NA,NA,NA,NA,NA,NA,NA,NA,NA,NA,1301 E 12TH ST,19802,WILMINGTON,NEW CASTLE,39.7412423,-75.5294058,10003,10000699,"(5/28/20) Delaware staff recoveries no longer broken out by facility, instead reported as total (5/20/20) Delaware dashboard changed format, cumulative infections no longer reported by facility for residents (4/30/20) third death at James T. Vaughn for a resident ( https://www.wdel.com/news/third-vaughn-prisoner-dies-from-covid-19/article_ff290160-8b3f-11ea-8cd8-e7b21ed1ed0b.html ) ----- (4/23/20) DE announces 3 resident recoveries at James T Vaughn CC and 1 staff recovery (no facility listed) ( http://www.wboc.com/story/42041207/del-doc-marks-first-staff-and-inmate-recoveries-from-covid19 ) ----- (04/16/20) article reports resident death at Vaugn, had previously tested negative for COVID but most recent test is pending - added to the count for now (https://www.delawareonline.com/story/news/2020/04/16/vaughn-prison-inmate-dies-covid-19-test-pending/5144916002/) https://doc.delaware.gov/assets/documents/Confirmed_COVID_Cases.pdf"
148,Prison,Delaware,DELORES J BAYLOR WOMANS CORRECTIONAL INSTITUTION,9/20/20,https://doc.delaware.gov/views/covid19.blade.shtml,NA,NA,0,0,NA,NA,NA,NA,NA,NA,NA,NA,NA,NA,NA,NA,660 BAYLOR BLVD,19720,NEW CASTLE,NEW CASTLE,39.7039322,-75.58125772,10003,10002260,"(5/28/20) Delaware staff recoveries no longer broken out by facility, instead reported as total (5/20/20) Delaware dashboard changed format, cumulative infections no longer reported by facility for residents (4/30/20) third death at James T. Vaughn for a resident ( https://www.wdel.com/news/third-vaughn-prisoner-dies-from-covid-19/article_ff290160-8b3f-11ea-8cd8-e7b21ed1ed0b.html ) ----- (4/23/20) DE announces 3 resident recoveries at James T Vaughn CC and 1 staff recovery (no facility listed) ( http://www.wboc.com/story/42041207/del-doc-marks-first-staff-and-inmate-recoveries-from-covid19 ) ----- (04/16/20) article reports resident death at Vaugn, had previously tested negative for COVID but most recent test is pending - added to the count for now (https://www.delawareonline.com/story/news/2020/04/16/vaughn-prison-inmate-dies-covid-19-test-pending/5144916002/) https://doc.delaware.gov/assets/documents/Confirmed_COVID_Cases.pdf"
156,Prison,Delaware,SUSSEX CORRECTIONAL INSTITUTION,9/20/20,https://doc.delaware.gov/views/covid19.blade.shtml,NA,NA,4,0,NA,NA,NA,NA,NA,NA,NA,NA,NA,NA,NA,NA,23203 DUPONT BLVD,19947,GEORGETOWN,SUSSEX,38.665915,-75.3801231,10005,10000707,"(5/28/20) Delaware staff recoveries no longer broken out by facility, instead reported as total (5/20/20) Delaware dashboard changed format, cumulative infections no longer reported by facility for residents (4/30/20) third death at James T. Vaughn for a resident ( https://www.wdel.com/news/third-vaughn-prisoner-dies-from-covid-19/article_ff290160-8b3f-11ea-8cd8-e7b21ed1ed0b.html ) ----- (4/23/20) DE announces 3 resident recoveries at James T Vaughn CC and 1 staff recovery (no facility listed) ( http://www.wboc.com/story/42041207/del-doc-marks-first-staff-and-inmate-recoveries-from-covid19 ) ----- (04/16/20) article reports resident death at Vaugn, had previously tested negative for COVID but most recent test is pending - added to the count for now (https://www.delawareonline.com/story/news/2020/04/16/vaughn-prison-inmate-dies-covid-19-test-pending/5144916002/) https://doc.delaware.gov/assets/documents/Confirmed_COVID_Cases.pdf"
152,Prison,Delaware,MORRIS COMMUNITY CORRECTIONS CENTER,9/20/20,https://doc.delaware.gov/views/covid19.blade.shtml,NA,NA,0,0,NA,NA,NA,NA,NA,NA,NA,NA,NA,NA,NA,NA,300 WATER ST,19904,DOVER,KENT,39.15328515,-75.52726906,10001,10000704,"(5/28/20) Delaware staff recoveries no longer broken out by facility, instead reported as total (5/20/20) Delaware dashboard changed format, cumulative infections no longer reported by facility for residents (4/30/20) third death at James T. Vaughn for a resident ( https://www.wdel.com/news/third-vaughn-prisoner-dies-from-covid-19/article_ff290160-8b3f-11ea-8cd8-e7b21ed1ed0b.html ) ----- (4/23/20) DE announces 3 resident recoveries at James T Vaughn CC and 1 staff recovery (no facility listed) ( http://www.wboc.com/story/42041207/del-doc-marks-first-staff-and-inmate-recoveries-from-covid19 ) ----- (04/16/20) article reports resident death at Vaugn, had previously tested negative for COVID but most recent test is pending - added to the count for now (https://www.delawareonline.com/story/news/2020/04/16/vaughn-prison-inmate-dies-covid-19-test-pending/5144916002/) https://doc.delaware.gov/assets/documents/Confirmed_COVID_Cases.pdf"
149,Prison,Delaware,HAZEL D PLANT WOMANS TREATMENT FACILITY,9/20/20,https://doc.delaware.gov/views/covid19.blade.shtml,NA,NA,0,0,NA,NA,NA,NA,NA,NA,NA,NA,NA,NA,NA,NA,660 BAYLOR BLVD,19720,NEW CASTLE,NEW CASTLE,39.7039322,-75.58125772,10003,10002260,"(5/28/20) Delaware staff recoveries no longer broken out by facility, instead reported as total (5/20/20) Delaware dashboard changed format, cumulative infections no longer reported by facility for residents (4/30/20) third death at James T. Vaughn for a resident ( https://www.wdel.com/news/third-vaughn-prisoner-dies-from-covid-19/article_ff290160-8b3f-11ea-8cd8-e7b21ed1ed0b.html ) ----- (4/23/20) DE announces 3 resident recoveries at James T Vaughn CC and 1 staff recovery (no facility listed) ( http://www.wboc.com/story/42041207/del-doc-marks-first-staff-and-inmate-recoveries-from-covid19 ) ----- (04/16/20) article reports resident death at Vaugn, had previously tested negative for COVID but most recent test is pending - added to the count for now (https://www.delawareonline.com/story/news/2020/04/16/vaughn-prison-inmate-dies-covid-19-test-pending/5144916002/) https://doc.delaware.gov/assets/documents/Confirmed_COVID_Cases.pdf"
153,Prison,Delaware,PLUMMER COMMUNITY CORRECTIONS CENTER,9/20/20,https://doc.delaware.gov/views/covid19.blade.shtml,NA,NA,0,0,NA,NA,NA,NA,NA,NA,NA,NA,NA,NA,NA,NA,38 TODDS LN,19802,WILMINGTON,NEW CASTLE,39.75664471,-75.52904371,10003,10000701,"(5/28/20) Delaware staff recoveries no longer broken out by facility, instead reported as total (5/20/20) Delaware dashboard changed format, cumulative infections no longer reported by facility for residents (4/30/20) third death at James T. Vaughn for a resident ( https://www.wdel.com/news/third-vaughn-prisoner-dies-from-covid-19/article_ff290160-8b3f-11ea-8cd8-e7b21ed1ed0b.html ) ----- (4/23/20) DE announces 3 resident recoveries at James T Vaughn CC and 1 staff recovery (no facility listed) ( http://www.wboc.com/story/42041207/del-doc-marks-first-staff-and-inmate-recoveries-from-covid19 ) ----- (04/16/20) article reports resident death at Vaugn, had previously tested negative for COVID but most recent test is pending - added to the count for now (https://www.delawareonline.com/story/news/2020/04/16/vaughn-prison-inmate-dies-covid-19-test-pending/5144916002/) https://doc.delaware.gov/assets/documents/Confirmed_COVID_Cases.pdf"
155,Prison,Delaware,SUSSEX COMMUNITY CORRECTIONS CENTER,9/20/20,https://doc.delaware.gov/views/covid19.blade.shtml,NA,NA,0,0,NA,NA,NA,NA,NA,NA,NA,NA,NA,NA,NA,NA,23207 DUPONT BLVD,19947,GEORGETOWN,SUSSEX,38.65848406,-75.37196789,10005,10000706,"(5/28/20) Delaware staff recoveries no longer broken out by facility, instead reported as total (5/20/20) Delaware dashboard changed format, cumulative infections no longer reported by facility for residents (4/30/20) third death at James T. Vaughn for a resident ( https://www.wdel.com/news/third-vaughn-prisoner-dies-from-covid-19/article_ff290160-8b3f-11ea-8cd8-e7b21ed1ed0b.html ) ----- (4/23/20) DE announces 3 resident recoveries at James T Vaughn CC and 1 staff recovery (no facility listed) ( http://www.wboc.com/story/42041207/del-doc-marks-first-staff-and-inmate-recoveries-from-covid19 ) ----- (04/16/20) article reports resident death at Vaugn, had previously tested negative for COVID but most recent test is pending - added to the count for now (https://www.delawareonline.com/story/news/2020/04/16/vaughn-prison-inmate-dies-covid-19-test-pending/5144916002/) https://doc.delaware.gov/assets/documents/Confirmed_COVID_Cases.pdf"
363,Prison,Florida,APALACHEE CI,9/20/20,http://www.dc.state.fl.us/comm/covid-19.html,152,31,0,0,NA,NA,NA,NA,1659,NA,0,NA,116,NA,NA,NA,52 WEST UNIT DR,32460,SNEADS,JACKSON,30.71148316,-84.88818219,12063,10000336,NA
364,Prison,Florida,AVON PARK CI,9/20/20,http://www.dc.state.fl.us/comm/covid-19.html,230,53,3,0,NA,NA,NA,NA,1269,NA,0,NA,178,NA,NA,NA,8100 HIGHWAY 64 EAST,33825,AVON PARK,POLK,27.6462871,-81.4036521,12105,10002177,NA
365,Prison,Florida,BAKER CI,9/20/20,http://www.dc.state.fl.us/comm/covid-19.html,568,42,1,0,NA,NA,NA,NA,909,NA,0,NA,110,NA,NA,NA,20706 US HIGHWAY 90 W,32087,SANDERSON,BAKER,30.21325143,-82.37451212,12003,10000402,NA
366,Prison,Florida,BAY CF,9/20/20,http://www.dc.state.fl.us/comm/covid-19.html,341,41,1,0,NA,NA,NA,NA,689,NA,1,NA,117,NA,NA,NA,5400 BAYLINE DR,32404,PANAMA CITY,BAY,30.26570712,-85.50553247,12005,10001445,NA
367,Prison,Florida,BLACKWATER CF,9/20/20,http://www.dc.state.fl.us/comm/covid-19.html,122,26,7,0,NA,NA,NA,NA,2176,NA,2,NA,101,NA,NA,NA,5914 JEFF ATES ROAD,32583,MILTON,SANTA ROSA,30.64568696,-86.95060909,12113,10006205,NA
369,Prison,Florida,CALHOUN CI,9/20/20,http://www.dc.state.fl.us/comm/covid-19.html,154,15,0,0,NA,NA,NA,NA,1563,NA,1,NA,85,NA,NA,NA,19564 SE INSTITUTION DR,32424,BLOUNTSTOWN,CALHOUN,30.40585,-85.06394467,12013,10000387,NA
1758,Administrative,Florida,CENTRAL OFFICE,9/20/20,http://www.dc.state.fl.us/comm/covid-19.html,NA,2,NA,NA,NA,NA,NA,NA,NA,NA,NA,NA,NA,NA,NA,NA,NA,NA,NA,NA,NA,NA,NA,NA,NA
370,Prison,Florida,CENTURY CI,9/20/20,http://www.dc.state.fl.us/comm/covid-19.html,773,42,3,0,NA,NA,NA,NA,748,NA,2,NA,448,NA,NA,NA,400 TEDDER RD,32535,CENTURY,ESCAMBIA,30.95817641,-87.29950017,12033,10002152,NA
371,Prison,Florida,CFRC,9/20/20,http://www.dc.state.fl.us/comm/covid-19.html,268,60,2,0,NA,NA,NA,NA,1983,NA,1,NA,587,NA,NA,NA,7000 H C KELLEY RD,32831,ORLANDO,ORANGE,28.45327514,-81.15900956,12095,10000460,NA
372,Prison,Florida,CHARLOTTE CI,9/20/20,http://www.dc.state.fl.us/comm/covid-19.html,54,21,0,0,NA,NA,NA,NA,1260,NA,1,NA,12,NA,NA,NA,33123 OIL WELL RD,33955,PUNTA GORDA,CHARLOTTE,26.8036079,-81.90380995,12015,10002187,NA
373,Prison,Florida,COLUMBIA CI,9/20/20,http://www.dc.state.fl.us/comm/covid-19.html,1369,89,8,0,NA,NA,NA,NA,796,NA,0,NA,755,NA,NA,NA,7906 EAST HIGHWAY 90,32055,LAKE CITY,COLUMBIA,30.19252797,-82.50773893,12023,10000394,NA
374,Community Corrections,Florida,COMMUNITY CORRECTIONS¬†REGION 1,9/20/20,http://www.dc.state.fl.us/comm/covid-19.html,NA,24,NA,NA,NA,NA,NA,NA,NA,NA,NA,NA,NA,NA,NA,NA,10650 SOUTHWEST 46TH STREET,10650,JASPER,NA,30.5046671,-82.9631939,NA,NA,NA
375,Community Corrections,Florida,COMMUNITY CORRECTIONS REGION 2,9/20/20,http://www.dc.state.fl.us/comm/covid-19.html,NA,21,NA,NA,NA,NA,NA,NA,NA,NA,NA,NA,NA,NA,NA,NA,NA,NA,NA,NA,NA,NA,NA,NA,NA
377,Community Corrections,Florida,COMMUNITY CORRECTIONS¬†REGION 3,9/20/20,http://www.dc.state.fl.us/comm/covid-19.html,NA,60,NA,NA,NA,NA,NA,NA,NA,NA,NA,NA,NA,NA,NA,NA,2002 E 26TH AVENUE,33605,TAMPA,NA,26.8384331,-81.1208015,NA,NA,NA
378,Community Corrections,Florida,COMMUNITY CORRECTIONS¬†REGION 4,9/20/20,http://www.dc.state.fl.us/comm/covid-19.html,NA,48,NA,NA,NA,NA,NA,NA,NA,NA,NA,NA,NA,NA,NA,NA,1641 WORTHINGTON ROAD,33409,WEST PALM BEACH FL,NA,30.5046671,-82.9631939,NA,NA,NA
379,Prison,Florida,CROSS CITY CI,9/20/20,http://www.dc.state.fl.us/comm/covid-19.html,305,56,2,0,NA,NA,NA,NA,1309,NA,2,NA,302,NA,NA,NA,568 NE 255TH ST,32628,CROSS CITY,DIXIE,29.63475364,-83.09887133,12029,10000432,NA
380,Prison,Florida,DADE CI,9/20/20,http://www.dc.state.fl.us/comm/covid-19.html,97,167,10,0,NA,NA,NA,NA,1444,NA,0,NA,160,NA,NA,NA,19000 SW 377TH ST,33034,FLORIDA CITY,MIAMI-DADE,25.4154012,-80.4999188,12086,10000546,NA
381,Prison,Florida,DESOTO ANNEX,9/20/20,http://www.dc.state.fl.us/comm/covid-19.html,211,35,0,0,NA,NA,NA,NA,1692,NA,1,NA,77,NA,NA,NA,13617 SE HWY 70,34266,ARCADIA,DESOTO,27.20934,-81.66191,12027,10000504,NA
382,Prison,Florida,EVERGLADES CI,9/20/20,http://www.dc.state.fl.us/comm/covid-19.html,361,106,6,0,NA,NA,NA,NA,2248,NA,1,NA,239,NA,NA,NA,1599 SW 187TH AVE,33194,MIAMI,MIAMI-DADE,25.75086336,-80.48896138,12086,10004646,NA
383,Prison,Florida,FLORIDA STATE PRISON,9/20/20,http://www.dc.state.fl.us/comm/covid-19.html,145,60,0,0,NA,NA,NA,NA,1806,NA,2,NA,233,NA,NA,NA,7819 NW 228TH STREET,32026,RAIFORD,BRADFORD,30.0584396,-82.1836504,12007,10004580,NA
384,Prison,Florida,FRANKLIN CI,9/20/20,http://www.dc.state.fl.us/comm/covid-19.html,321,40,0,0,NA,NA,NA,NA,887,NA,0,NA,123,NA,NA,NA,1760 HWY 67 NORTH,32322,CARRABELLE,FRANKLIN,29.87797428,-84.64585656,12037,10000422,NA
385,Prison,Florida,FWRC,9/20/20,http://www.dc.state.fl.us/comm/covid-19.html,484,47,2,1,NA,NA,NA,NA,282,NA,1,NA,127,NA,NA,NA,3700 NW 111TH PLACE,34482,OCALA,MARION,29.30979922,-82.18626021,12083,10006167,NA
386,Prison,Florida,GADSDEN CF,9/20/20,http://www.dc.state.fl.us/comm/covid-19.html,92,28,0,0,NA,NA,NA,NA,1144,NA,1,NA,69,NA,NA,NA,6044 GREENSBORO HWY,32351,QUINCY,GADSDEN,30.5897214,-84.65558376,12039,10000369,NA
387,Prison,Florida,GADSDEN RE ENTRY CENTER,9/20/20,http://www.dc.state.fl.us/comm/covid-19.html,206,33,0,0,NA,NA,NA,NA,113,NA,0,NA,2,NA,NA,NA,630 OPPORTUNITY LANE,32333,HAVANA,GADSDEN,30.54608079,-84.49489877,12039,10006326,NA
388,Prison,Florida,GRACEVILLE CF,9/20/20,http://www.dc.state.fl.us/comm/covid-19.html,663,45,6,0,NA,NA,NA,NA,1261,NA,19,NA,60,NA,NA,NA,5230 EZELL RD,32440,GRACEVILLE,JACKSON,30.94829087,-85.49222414,12063,10000332,NA
389,Prison,Florida,GULF CI,9/20/20,http://www.dc.state.fl.us/comm/covid-19.html,262,38,0,0,NA,NA,NA,NA,945,NA,1,NA,140,NA,NA,NA,699 IKE STEELE ROAD,32465,WEWAHITCHKA,GULF,30.17512766,-85.26724893,12045,10000411,NA
390,Prison,Florida,HAMILTON CI,9/20/20,http://www.dc.state.fl.us/comm/covid-19.html,328,51,0,0,NA,NA,NA,NA,2056,NA,5,NA,905,NA,NA,NA,10650 SW 46TH ST,32052,JASPER,HAMILTON,30.504668,-82.9631921,12047,10000385,NA
391,Prison,Florida,HARDEE CI,9/20/20,http://www.dc.state.fl.us/comm/covid-19.html,99,54,NA,NA,NA,NA,NA,NA,1573,NA,4,NA,212,NA,NA,NA,6899 STATE RD 62,33834,BOWLING GREEN,HARDEE,27.59369353,-82.00687498,12049,10000492,NA
392,Prison,Florida,HERNANDO CI,9/20/20,http://www.dc.state.fl.us/comm/covid-19.html,0,5,NA,NA,NA,NA,NA,NA,3,NA,0,NA,2,NA,NA,NA,16415 SPRING HILL DR,34604,BROOKSVILLE,HERNANDO,28.48302199,-82.45443373,12053,10000465,NA
393,Prison,Florida,HOLMES CI,9/20/20,http://www.dc.state.fl.us/comm/covid-19.html,170,33,NA,NA,NA,NA,NA,NA,1139,NA,0,NA,58,NA,NA,NA,3142 THOMAS DR,32425,BONIFAY,HOLMES,30.75545064,-85.6701594,12059,10000356,NA
394,Prison,Florida,HOMESTEAD CI,9/20/20,http://www.dc.state.fl.us/comm/covid-19.html,302,51,NA,NA,NA,NA,NA,NA,515,NA,0,NA,39,NA,NA,NA,19000 SW 377TH ST,33034,FLORIDA CITY,MIAMI-DADE,25.41299306,-80.49729982,12086,10000545,NA
395,Prison,Florida,JACKSON CI,9/20/20,http://www.dc.state.fl.us/comm/covid-19.html,199,42,NA,NA,NA,NA,NA,NA,1308,NA,1,NA,200,NA,NA,NA,5563 10TH ST,32445,MALONE,JACKSON,30.96872589,-85.16860405,12063,10000334,NA
396,Prison,Florida,JEFFERSON CI,9/20/20,http://www.dc.state.fl.us/comm/covid-19.html,257,51,NA,NA,NA,NA,NA,NA,328,NA,0,NA,8,NA,NA,NA,1050 BIG JOE RD,32344,MONTICELLO,JEFFERSON,30.50973618,-83.80157593,12065,10000378,NA
397,Prison,Florida,LAKE CI,9/20/20,http://www.dc.state.fl.us/comm/covid-19.html,106,42,NA,NA,NA,NA,NA,NA,983,NA,0,NA,282,NA,NA,NA,19225 US HWY 27,34715,CLERMONT,LAKE,28.62049362,-81.76642774,12069,10000453,NA
398,Prison,Florida,LAKE CITY CF,9/20/20,http://www.dc.state.fl.us/comm/covid-19.html,69,17,NA,NA,NA,NA,NA,NA,758,NA,0,NA,1,NA,NA,NA,7906 EAST HIGHWAY 90,32055,LAKE CITY,COLUMBIA,30.19252797,-82.50773893,12023,10000394,NA
399,Prison,Florida,LANCASTER CI,9/20/20,http://www.dc.state.fl.us/comm/covid-19.html,33,31,NA,NA,NA,NA,NA,NA,706,NA,0,NA,8,NA,NA,NA,3449 SW STATE RD 26,32693,TRENTON,GILCHRIST,29.60801197,-82.8634739,12041,10000428,NA
400,Prison,Florida,LAWTEY CI,9/20/20,http://www.dc.state.fl.us/comm/covid-19.html,0,6,NA,NA,NA,NA,NA,NA,6,NA,1,NA,3,NA,NA,NA,22298 NE COUNTY ROAD 200B,32058,LAWTEY,BRADFORD,30.0339212,-82.07236464,12007,10000414,NA
401,Prison,Florida,LIBERTY CI,9/20/20,http://www.dc.state.fl.us/comm/covid-19.html,223,39,NA,NA,NA,NA,NA,NA,1752,NA,2,NA,465,NA,NA,NA,11064 NW DEMPSEY BARRON RD,32321,BRISTOL,LIBERTY,30.46383683,-84.85588125,12077,10000391,NA
402,Prison,Florida,LOWELL CI,9/20/20,http://www.dc.state.fl.us/comm/covid-19.html,1005,71,NA,NA,NA,NA,NA,NA,1273,NA,0,NA,537,NA,NA,NA,11120 NW GAINESVILLE RD,34482,OCALA,MARION,29.31079789,-82.20039763,12083,10000437,NA
403,Prison,Florida,MADISON CI,9/20/20,http://www.dc.state.fl.us/comm/covid-19.html,108,55,NA,NA,NA,NA,NA,NA,1084,NA,2,NA,372,NA,NA,NA,382 SW MCI WAY,32340,MADISON,MADISON,30.44008751,-83.42161169,12079,10000381,NA
404,Prison,Florida,MARION CI,9/20/20,http://www.dc.state.fl.us/comm/covid-19.html,313,28,NA,NA,NA,NA,NA,NA,1124,NA,0,NA,7,NA,NA,NA,3269 NW 105TH ST,34475,OCALA,MARION,29.30810089,-82.17502385,12083,10000440,NA
405,Prison,Florida,MARTIN CI,9/20/20,http://www.dc.state.fl.us/comm/covid-19.html,1,10,NA,NA,NA,NA,NA,NA,21,NA,1,NA,90,NA,NA,NA,1150 SW ALLAPATTAH ROAD,34956,INDIANTOWN,MARTIN,27.19661972,-80.48487746,12085,10000508,NA
406,Prison,Florida,MAYO ANNEX,9/20/20,http://www.dc.state.fl.us/comm/covid-19.html,954,51,NA,NA,NA,NA,NA,NA,476,NA,2,NA,229,NA,NA,NA,8784 US HWY 27 W,32066,MAYO,LAFAYETTE,30.1384625,-83.30514217,12067,10000409,NA
407,Prison,Florida,MOORE HAVEN CF,9/20/20,http://www.dc.state.fl.us/comm/covid-19.html,155,29,NA,NA,NA,NA,NA,NA,714,NA,0,NA,352,NA,NA,NA,1282 EAST STATE ROAD 78,33471,MOORE HAVEN,GLADES,26.83843221,-81.12018204,12043,10000510,NA
408,Prison,Florida,NEW RIVER CI,9/20/20,http://www.dc.state.fl.us/comm/covid-19.html,102,15,NA,NA,NA,NA,NA,NA,1044,NA,0,NA,0,NA,NA,NA,8000 NW 80TH PLACE,32083,RAIFORD,BRADFORD,30.0628479,-82.17809153,12007,10000416,NA
409,Prison,Florida,NWFRC,9/20/20,http://www.dc.state.fl.us/comm/covid-19.html,313,47,NA,NA,NA,NA,NA,NA,1622,NA,0,NA,439,NA,NA,NA,4455 SAM MITCHELL DR,32428,CHIPLEY,WASHINGTON,30.52072999,-85.65969841,12133,10000365,NA
410,Prison,Florida,OKALOOSA CI,9/20/20,http://www.dc.state.fl.us/comm/covid-19.html,12,16,NA,NA,NA,NA,NA,NA,1101,NA,0,NA,51,NA,NA,NA,3189 COLONEL GREG MALLOY RD,32539,CRESTVIEW,OKALOOSA,30.69681196,-86.52733104,12091,10004557,NA
411,Prison,Florida,OKEECHOBEE CI,9/20/20,http://www.dc.state.fl.us/comm/covid-19.html,78,38,NA,NA,NA,NA,NA,NA,2408,NA,34,NA,773,NA,NA,NA,3420 NE 168TH ST,34972,OKEECHOBEE,OKEECHOBEE,27.39606954,-80.78444465,12093,10000495,NA
412,Prison,Florida,POLK CI,9/20/20,http://www.dc.state.fl.us/comm/covid-19.html,210,34,NA,NA,NA,NA,NA,NA,1063,NA,0,NA,350,NA,NA,NA,10800 EVANS RD,33868,POLK CITY,POLK,28.19151724,-81.78675795,12105,10000473,NA
413,Prison,Florida,PUTNAM CI,9/20/20,http://www.dc.state.fl.us/comm/covid-19.html,0,8,NA,NA,NA,NA,NA,NA,2,NA,0,NA,30,NA,NA,NA,128 YELVINGTON RD,32131,EAST PALATKA,PUTNAM,29.64617008,-81.58778592,12107,10000430,NA
414,Prison,Florida,RMC,9/20/20,http://www.dc.state.fl.us/comm/covid-19.html,266,85,NA,NA,NA,NA,NA,NA,1940,NA,14,NA,767,NA,NA,NA,7765 S COUNTY RD 231,32054,LAKE BUTLER,UNION,29.98965556,-82.35918381,12125,10000418,NA
415,Prison,Florida,SANTA ROSA CI,9/20/20,http://www.dc.state.fl.us/comm/covid-19.html,808,166,NA,NA,NA,NA,NA,NA,1734,NA,0,NA,58,NA,NA,NA,5850 E MILTON RD,32583,MILTON,SANTA ROSA,30.64561525,-86.96742857,12113,10000339,NA
416,Prison,Florida,SFRC,9/20/20,http://www.dc.state.fl.us/comm/covid-19.html,204,148,NA,NA,NA,NA,NA,NA,2100,NA,0,NA,291,NA,NA,NA,14000 NW 41ST ST,33178,DORAL,MIAMI-DADE,25.80587656,-80.42638712,12086,10000547,NA
417,Prison,Florida,SOUTH BAY CF,9/20/20,http://www.dc.state.fl.us/comm/covid-19.html,418,84,NA,NA,NA,NA,NA,NA,2003,NA,12,NA,146,NA,NA,NA,600 US HWY 27 S,33493,SOUTH BAY,PALM BEACH,26.65774766,-80.71928984,12099,10000512,NA
420,Prison,Florida,SUMTER CI,9/20/20,http://www.dc.state.fl.us/comm/covid-19.html,103,35,NA,NA,NA,NA,NA,NA,68,NA,1,NA,13,NA,NA,NA,9544 COUNTY RD 476B,33513,BUSHNELL,SUMTER,28.61748387,-82.20754297,12119,10000455,NA
421,Prison,Florida,SUWANNEE CI,9/20/20,http://www.dc.state.fl.us/comm/covid-19.html,824,110,NA,NA,NA,NA,NA,NA,1078,NA,13,NA,768,NA,NA,NA,5964 US HWY 90,32060,LIVE OAK,SUWANNEE,30.23819413,-82.87311813,12121,10000405,NA
422,Prison,Florida,TAYLOR CI,9/20/20,http://www.dc.state.fl.us/comm/covid-19.html,698,35,NA,NA,NA,NA,NA,NA,1475,NA,18,NA,834,NA,NA,NA,8501 HAMPTON SPRINGS ROAD,32348,PERRY,TAYLOR,30.040944,-83.71342,12123,10004574,NA
423,Prison,Florida,TOMOKA CI,9/20/20,http://www.dc.state.fl.us/comm/covid-19.html,139,29,NA,NA,NA,NA,NA,NA,98,NA,0,NA,80,NA,NA,NA,3950 TIGER BAY RD,32124,DAYTONA BEACH,VOLUSIA,29.15157094,-81.15726813,12127,10000444,NA
424,Prison,Florida,UNION CI,9/20/20,http://www.dc.state.fl.us/comm/covid-19.html,158,63,NA,NA,NA,NA,NA,NA,1704,NA,11,NA,931,NA,NA,NA,25636 NE SR-16,32083,RAIFORD,UNION,30.06674635,-82.19278712,12125,10000417,NA
425,Prison,Florida,WAKULLA CI,9/20/20,http://www.dc.state.fl.us/comm/covid-19.html,248,146,NA,NA,NA,NA,NA,NA,2588,NA,4,NA,455,NA,NA,NA,110 MELALEUCA DRIVE,32327,CRAWFORDVILLE,WAKULLA,30.2614929,-84.1748045,12129,10004575,NA
426,Prison,Florida,WALTON CI,9/20/20,http://www.dc.state.fl.us/comm/covid-19.html,0,4,NA,NA,NA,NA,NA,NA,3,NA,1,NA,25,NA,NA,NA,691 INSTITUTION RD,32433,DEFUNIAK SPRINGS,WALTON,30.77868009,-86.10318532,12131,10000360,NA
427,Prison,Florida,ZEPHYRHILLS CI,9/20/20,http://www.dc.state.fl.us/comm/covid-19.html,0,14,NA,NA,NA,NA,NA,NA,18,NA,0,NA,9,NA,NA,NA,2739 GALL BLVD,33541,ZEPHYRHILLS,PASCO,28.19909791,-82.19869217,12101,10000467,NA
1768,Prison,Georgia,WOMENS PDC,9/20/20,http://www.gdc.ga.gov/content/cases,5,6,0,0,2,3,NA,NA,NA,NA,NA,NA,NA,NA,NA,NA,NA,NA,NA,NA,NA,NA,NA,NA,NA
1760,Prison,Georgia,APPLING ITF,9/20/20,http://www.gdc.ga.gov/content/cases,0,3,0,0,0,2,NA,NA,NA,NA,NA,NA,NA,NA,NA,NA,NA,NA,NA,NA,NA,NA,NA,NA,NA
428,Prison,Georgia,ASMP,9/20/20,http://www.gdc.ga.gov/content/cases,108,62,5,0,61,41,NA,NA,NA,NA,NA,NA,NA,NA,NA,NA,3001 GORDON HWY,30813,GROVETOWN,COLUMBIA,33.43287905,-82.18852112,13073,10006153,NA
429,Prison,Georgia,ATLANTA TC,9/20/20,http://www.gdc.ga.gov/content/cases,4,0,0,0,1,0,NA,NA,NA,NA,NA,NA,NA,NA,NA,NA,332 PONCE DE LEON AVE NE,30308,ATLANTA,FULTON,33.77270217,-84.3762642,13121,10001411,NA
1761,Prison,Georgia,AUGUSTA TC,9/20/20,http://www.gdc.ga.gov/content/cases,5,1,0,0,5,0,NA,NA,NA,NA,NA,NA,NA,NA,NA,NA,NA,NA,NA,NA,NA,NA,NA,NA,NA
430,Prison,Georgia,AUTRY STATE PRISON,9/20/20,http://www.gdc.ga.gov/content/cases,77,13,3,0,73,12,NA,NA,NA,NA,NA,NA,NA,NA,NA,NA,3178 MOUNT ZION CHURCH RD,31779,PELHAM,MITCHELL,31.18946471,-84.14510952,13205,10000325,NA
431,Prison,Georgia,BACON PDC,9/20/20,http://www.gdc.ga.gov/content/cases,3,6,0,0,3,4,NA,NA,NA,NA,NA,NA,NA,NA,NA,NA,165 EAST EASTSIDE INDUSTRIAL BOULEVARD,31510,ALMA,BACON,31.53308262,-82.44987705,13005,10004534,NA
432,Prison,Georgia,BAINBRIDGE PSAT,9/20/20,http://www.gdc.ga.gov/content/cases,47,15,0,0,41,14,NA,NA,NA,NA,NA,NA,NA,NA,NA,NA,235 STATE HOSPITAL ROAD,39817,BAINBRIDGE,DECATUR,30.98252995,-84.63677462,13087,10006339,NA
433,Prison,Georgia,BALDWIN STATE PRISON,9/20/20,http://www.gdc.ga.gov/content/cases,24,34,2,0,22,30,NA,NA,NA,NA,NA,NA,NA,NA,NA,NA,140 LAYING FARM RD,31034,HARDWICK,BALDWIN,33.0250608,-83.2213613,13009,10002129,NA
1762,Prison,Georgia,BLECKLEY PSATC,9/20/20,http://www.gdc.ga.gov/content/cases,33,8,0,0,33,5,NA,NA,NA,NA,NA,NA,NA,NA,NA,NA,NA,NA,NA,NA,NA,NA,NA,NA,NA
434,Prison,Georgia,BURRUSS CTC,9/20/20,http://www.gdc.ga.gov/content/cases,13,16,0,0,9,14,NA,NA,NA,NA,NA,NA,NA,NA,NA,NA,1000 INDIAN SPRINGS DR,31029,FORSYTH,MONROE,33.05554556,-83.97538536,13207,10001421,NA
435,Prison,Georgia,CALHOUN STATE PRISON,9/20/20,http://www.gdc.ga.gov/content/cases,57,27,1,1,52,25,NA,NA,NA,NA,NA,NA,NA,NA,NA,NA,27823 MAIN ST,39866,MORGAN,CALHOUN,31.53975718,-84.6166883,13037,10002146,NA
436,Prison,Georgia,CENTRAL STATE PRISON,9/20/20,http://www.gdc.ga.gov/content/cases,27,18,0,0,10,13,NA,NA,NA,NA,NA,NA,NA,NA,NA,NA,4600 FULTON MILL RD,31208,MACON,BIBB,32.77682714,-83.75181934,13021,10002134,NA
437,Prison,Georgia,CLAYTON TC,9/20/20,http://www.gdc.ga.gov/content/cases,7,8,0,0,7,7,NA,NA,NA,NA,NA,NA,NA,NA,NA,NA,242 FALCON DR,30297,FOREST PARK,CLAYTON,33.62430193,-84.3976813,13063,10002121,NA
438,Prison,Georgia,COASTAL STATE PRISON,9/20/20,http://www.gdc.ga.gov/content/cases,60,10,6,0,48,9,NA,NA,NA,NA,NA,NA,NA,NA,NA,NA,200 GULF STREAM RD,31418,GARDEN CITY,CHATHAM,32.13759217,-81.18656693,13051,10000314,NA
441,Prison,Georgia,COLUMBUS TC,9/20/20,http://www.gdc.ga.gov/content/cases,4,3,0,0,4,3,NA,NA,NA,NA,NA,NA,NA,NA,NA,NA,3900 SCHATULGA ROAD,31907,COLUMBUS,MUSCOGEE,32.49407873,-84.86892761,13215,10001426,NA
442,Prison,Georgia,DODGE STATE PRISON,9/20/20,http://www.gdc.ga.gov/content/cases,21,17,1,1,7,3,NA,NA,NA,NA,NA,NA,NA,NA,NA,NA,2971 OLD BETHEL CHURCH ROAD,31012,CHESTER,DODGE,32.3942334,-83.16745955,13091,10002138,NA
443,Prison,Georgia,DOOLY STATE PRISON,9/20/20,http://www.gdc.ga.gov/content/cases,18,13,2,0,16,10,NA,NA,NA,NA,NA,NA,NA,NA,NA,NA,1412 PLUNKETT ROAD,31091,UNADILLA,HOUSTON,32.28092423,-83.71567596,13093,10006154,NA
444,Prison,Georgia,EMANUEL WOMENS FACILITY,9/20/20,http://www.gdc.ga.gov/content/cases,26,11,0,0,26,9,NA,NA,NA,NA,NA,NA,NA,NA,NA,NA,714 GUMLOG ROAD,30401,SWAINSBORO,EMANUEL,32.61303825,-82.3564078,13107,10004496,NA
445,Prison,Georgia,GDCP,9/20/20,http://www.gdc.ga.gov/content/cases,121,35,4,0,107,31,NA,NA,NA,NA,NA,NA,NA,NA,NA,NA,2978 STATE HWYY 36 W PRISON BLVD,30233,JACKSON,BUTTS,33.22107373,-84.06161828,13035,10000298,NA
446,Prison,Georgia,GDCP SMU,9/20/20,http://www.gdc.ga.gov/content/cases,0,8,0,0,0,7,NA,NA,NA,NA,NA,NA,NA,NA,NA,NA,2978 STATE HWYY 36 W PRISON BLVD,30233,JACKSON,BUTTS,33.22107373,-84.06161828,13035,10000298,NA
447,Prison,Georgia,GEORGIA STATE PRISON,9/20/20,http://www.gdc.ga.gov/content/cases,2,10,0,0,2,8,NA,NA,NA,NA,NA,NA,NA,NA,NA,NA,300 1ST AVENUE SOUTH,30453,REIDSVILLE,TATTNALL,32.00512895,-82.16473427,13267,10002141,NA
448,Prison,Georgia,HANCOCK STATE PRISON,9/20/20,http://www.gdc.ga.gov/content/cases,4,13,0,0,4,11,NA,NA,NA,NA,NA,NA,NA,NA,NA,NA,701 PRISON BLVD,31087,SPARTA,HANCOCK,33.24549405,-82.95092313,13141,10000297,NA
1463,Prison,Georgia,HAYS STATE PRISON,9/20/20,http://www.gdc.ga.gov/content/cases,37,22,0,0,22,13,NA,NA,NA,NA,NA,NA,NA,NA,NA,NA,NA,NA,NA,NA,NA,NA,NA,NA,NA
1464,Prison,Georgia,HELMS FACILITY,9/20/20,http://www.gdc.ga.gov/content/cases,0,1,0,0,0,1,NA,NA,NA,NA,NA,NA,NA,NA,NA,NA,NA,NA,NA,NA,NA,NA,NA,NA,NA
1465,Prison,Georgia,HUDSON TC,9/20/20,http://www.gdc.ga.gov/content/cases,2,1,0,0,2,1,NA,NA,NA,NA,NA,NA,NA,NA,NA,NA,NA,NA,NA,NA,NA,NA,NA,NA,NA
449,Prison,Georgia,JOHNSON STATE PRISON,9/20/20,http://www.gdc.ga.gov/content/cases,47,10,1,0,46,9,NA,NA,NA,NA,NA,NA,NA,NA,NA,NA,290 DONOVAN-HARRISON ROAD,31096,WRIGHTSVILLE,JOHNSON,32.74353362,-82.70234985,13167,10000303,NA
450,Prison,Georgia,LEE ARRENDALE STATE PRISON,9/20/20,http://www.gdc.ga.gov/content/cases,12,18,0,0,10,16,NA,NA,NA,NA,NA,NA,NA,NA,NA,NA,2023 GAINESVILLE HWY,30510,ALTO,HABERSHAM,34.45106681,-83.59596645,13137,10002102,NA
1769,Prison,Georgia,LEE ARRENDALE TC,9/20/20,http://www.gdc.ga.gov/content/cases,0,3,0,0,0,2,NA,NA,NA,NA,NA,NA,NA,NA,NA,NA,NA,NA,NA,NA,NA,NA,NA,NA,NA
451,Prison,Georgia,LEE STATE PRISON,9/20/20,http://www.gdc.ga.gov/content/cases,24,30,2,0,22,29,NA,NA,NA,NA,NA,NA,NA,NA,NA,NA,153 PINEWOOD DRIVE,31763,LEESBURG,LEE,31.76369451,-84.19354919,13177,10000323,NA
1801,Prison,Georgia,LONG UNIT,9/20/20,http://www.gdc.ga.gov/content/cases,8,16,1,0,0,16,NA,NA,NA,NA,NA,NA,NA,NA,NA,NA,NA,NA,NA,NA,NA,NA,NA,NA,NA
1710,Prison,Georgia,MACON STATE PRISON,9/20/20,http://www.gdc.ga.gov/content/cases,31,29,2,0,29,23,NA,NA,NA,NA,NA,NA,NA,NA,NA,NA,2728 SOUTH 49 HWY,31068,OGLETHORPE,MACON,32.25930659,-84.09144003,13193,10002137,NA
452,Prison,Georgia,MACON TC,9/20/20,http://www.gdc.ga.gov/content/cases,5,1,0,0,2,0,NA,NA,NA,NA,NA,NA,NA,NA,NA,NA,NA,NA,NA,NA,NA,NA,NA,NA,NA
453,Prison,Georgia,MCEVER PDC,9/20/20,http://www.gdc.ga.gov/content/cases,1,5,0,0,1,5,NA,NA,NA,NA,NA,NA,NA,NA,NA,NA,2100 KINGS CHAPEL ROAD,31069,PERRY,HOUSTON,32.46494728,-83.69501268,13153,10004500,NA
454,Prison,Georgia,METRO REENTRY FACILITY,9/20/20,http://www.gdc.ga.gov/content/cases,3,13,0,0,2,11,NA,NA,NA,NA,NA,NA,NA,NA,NA,NA,1303 CONSTITUTION ROAD,30316,ATLANTA,DEKALB,33.687261,-84.336355,13089,10001414,NA
455,Prison,Georgia,METRO TC,9/20/20,http://www.gdc.ga.gov/content/cases,8,7,0,0,8,5,NA,NA,NA,NA,NA,NA,NA,NA,NA,NA,1303 CONSTITUTION ROAD,30316,ATLANTA,DEKALB,33.6885252,-84.336397,13089,10001414,NA
1466,Prison,Georgia,MONTGOMERY STATE PRISON,9/20/20,http://www.gdc.ga.gov/content/cases,21,16,1,0,20,16,NA,NA,NA,NA,NA,NA,NA,NA,NA,NA,NA,NA,NA,NA,NA,NA,NA,NA,NA
1767,Prison,Georgia,NORTHWEST RSAT,9/20/20,http://www.gdc.ga.gov/content/cases,16,0,0,0,3,0,NA,NA,NA,NA,NA,NA,NA,NA,NA,NA,NA,NA,NA,NA,NA,NA,NA,NA,NA
458,Prison,Georgia,PATTEN PDC,9/20/20,http://www.gdc.ga.gov/content/cases,0,10,0,0,0,10,NA,NA,NA,NA,NA,NA,NA,NA,NA,NA,1009 NORTH 10TH AVENUE,31635,LAKELAND,LANIER,31.03988304,-83.0617537,13173,10004551,NA
459,Prison,Georgia,PAULDING RSAT,9/20/20,http://www.gdc.ga.gov/content/cases,17,1,0,0,2,1,NA,NA,NA,NA,NA,NA,NA,NA,NA,NA,1295 N INDUSTRIAL BLVD,30132,DALLAS,PAULDING,33.94976674,-84.81466644,13223,10002108,NA
460,Prison,Georgia,PHILLIPS STATE PRISON,9/20/20,http://www.gdc.ga.gov/content/cases,17,19,0,0,15,19,NA,NA,NA,NA,NA,NA,NA,NA,NA,NA,2989 WEST ROCK QUARRY ROAD,30519,BUFORD,GWINNETT,34.0942918,-83.9105205,13135,10002106,NA
461,Prison,Georgia,PHILLIPS TC,9/20/20,http://www.gdc.ga.gov/content/cases,5,2,0,0,5,2,NA,NA,NA,NA,NA,NA,NA,NA,NA,NA,2989 W ROCK QUARRY ROAD,30519,BUFORD,GWINNETT,34.09554623,-83.90946974,13135,10002105,NA
462,Prison,Georgia,PULASKI STATE PRISON,9/20/20,http://www.gdc.ga.gov/content/cases,40,33,0,0,2,9,NA,NA,NA,NA,NA,NA,NA,NA,NA,NA,373 UPPER RIVER ROAD,31036,HAWKINSVILLE,PULASKI,32.3115199,-83.45723464,13235,10000307,NA
1467,Prison,Georgia,ROGERS STATE PRISON,9/20/20,http://www.gdc.ga.gov/content/cases,12,19,0,0,12,19,NA,NA,NA,NA,NA,NA,NA,NA,NA,NA,NA,NA,NA,NA,NA,NA,NA,NA,NA
464,Prison,Georgia,RUTLEDGE STATE PRISON,9/20/20,http://www.gdc.ga.gov/content/cases,25,19,2,0,22,18,NA,NA,NA,NA,NA,NA,NA,NA,NA,NA,7175 MANOR ROAD,31907,COLUMBUS,MUSCOGEE,32.49582796,-84.86617971,13215,10000304,NA
465,Prison,Georgia,SMITH STATE PRISON,9/20/20,http://www.gdc.ga.gov/content/cases,17,16,1,0,13,8,NA,NA,NA,NA,NA,NA,NA,NA,NA,NA,9676 UNITED STATES HIGHWAY 301 NORTH,30427,GLENNVILLE,TATTNALL,31.97310836,-81.91578361,13267,10000309,NA
1711,Prison,Georgia,SMITH TC,9/20/20,http://www.gdc.ga.gov/content/cases,6,1,0,0,5,0,NA,NA,NA,NA,NA,NA,NA,NA,NA,NA,NA,NA,NA,NA,NA,NA,NA,NA,NA
1802,Prison,Georgia,TELFAIR STATE PRISON,9/20/20,NA,2,0,0,0,0,0,NA,NA,NA,NA,NA,NA,NA,NA,NA,NA,NA,NA,NA,NA,NA,NA,NA,NA,NA
466,Prison,Georgia,TREUTLEN PDC,9/20/20,http://www.gdc.ga.gov/content/cases,13,6,0,0,11,4,NA,NA,NA,NA,NA,NA,NA,NA,NA,NA,1 SESSIONS STREET,30457,SOPERTON,TREUTLEN,32.3624615,-82.60238104,13283,10005191,NA
467,Prison,Georgia,TURNER RSAT,9/20/20,http://www.gdc.ga.gov/content/cases,33,8,0,0,33,6,NA,NA,NA,NA,NA,NA,NA,NA,NA,NA,514 SOUTH RAILROAD AVE,31790,SYCAMORE,TURNER,31.6621587,-83.63393731,13287,10005201,NA
469,Prison,Georgia,VALDOSTA STATE PRISON,9/20/20,http://www.gdc.ga.gov/content/cases,12,58,0,0,11,54,NA,NA,NA,NA,NA,NA,NA,NA,NA,NA,3259 VALTECH RD,31601,VALDOSTA,LOWNDES,30.85995723,-83.34575403,13185,10000328,NA
470,Prison,Georgia,VALDOSTA TC,9/20/20,http://www.gdc.ga.gov/content/cases,1,1,0,0,1,1,NA,NA,NA,NA,NA,NA,NA,NA,NA,NA,263 GILL HARBIN INDUSTRIAL BLVD,31601,VALDOSTA,LOWNDES,30.80565871,-83.2675069,13185,10001432,NA
1699,Prison,Georgia,WALKER STATE PRISON,9/20/20,http://www.gdc.ga.gov/content/cases,61,14,0,0,1,8,NA,NA,NA,NA,NA,NA,NA,NA,NA,NA,NA,NA,NA,NA,NA,NA,NA,NA,NA
471,Prison,Georgia,WARE STATE PRISON,9/20/20,http://www.gdc.ga.gov/content/cases,26,58,4,0,22,46,NA,NA,NA,NA,NA,NA,NA,NA,NA,NA,3620 NORTH HARRIS ROAD,31501,WAYCROSS,WARE,31.25673084,-82.39335661,13299,10002147,NA
472,Prison,Georgia,WASHINGTON STATE PRISON,9/20/20,http://www.gdc.ga.gov/content/cases,23,7,0,0,17,3,NA,NA,NA,NA,NA,NA,NA,NA,NA,NA,13262 HWY 24 E,31018,DAVISBORO,WASHINGTON,32.98872379,-82.59490798,13303,10002126,NA
473,Prison,Georgia,WEST CENTRAL ITF,9/20/20,http://www.gdc.ga.gov/content/cases,1,8,0,0,1,4,NA,NA,NA,NA,NA,NA,NA,NA,NA,NA,1070 COUNTY FARM ROAD,30295,ZEBULON,PIKE,33.11609815,-84.3610402,13231,10004487,NA
1468,Prison,Georgia,WHITWORTH WOMENS FACILITY,9/20/20,http://www.gdc.ga.gov/content/cases,18,14,0,0,13,13,NA,NA,NA,NA,NA,NA,NA,NA,NA,NA,NA,NA,NA,NA,NA,NA,NA,NA,NA
1469,Prison,Georgia,WILCOX STATE PRISON,9/20/20,http://www.gdc.ga.gov/content/cases,35,17,2,0,24,11,NA,NA,NA,NA,NA,NA,NA,NA,NA,NA,NA,NA,NA,NA,NA,NA,NA,NA,NA
1460,Prison,Georgia,CLARKE COUNTY CI,9/20/20,http://www.gdc.ga.gov/content/cases,15,NA,0,0,15,NA,NA,NA,NA,NA,NA,NA,NA,NA,NA,NA,NA,NA,NA,NA,NA,NA,NA,NA,NA
439,Prison,Georgia,COFFEE CORRECTIONAL FACILITY,9/20/20,http://www.gdc.ga.gov/content/cases,204,NA,4,0,198,NA,NA,NA,NA,NA,NA,NA,NA,NA,NA,NA,1153 NORTH LIBERTY STREET,31554,NICHOLLS,COFFEE,31.53063543,-82.63791259,13069,10002144,NA
440,Prison,Georgia,COLQUITT COUNTY CI,9/20/20,http://www.gdc.ga.gov/content/cases,11,NA,0,0,11,NA,NA,NA,NA,NA,NA,NA,NA,NA,NA,NA,200 SOUTH VANDENBERG DRIVE,31768,MOULTRIE,COLQUITT,31.12973082,-83.70786594,13071,10004548,NA
1763,Prison,Georgia,DECATUR COUNTY CI,9/20/20,http://www.gdc.ga.gov/content/cases,1,NA,0,0,1,NA,NA,NA,NA,NA,NA,NA,NA,NA,NA,NA,NA,NA,NA,NA,NA,NA,NA,NA,NA
1461,Prison,Georgia,EFFINGHAM COUNTY CI,9/20/20,http://www.gdc.ga.gov/content/cases,47,NA,0,0,47,NA,NA,NA,NA,NA,NA,NA,NA,NA,NA,NA,NA,NA,NA,NA,NA,NA,NA,NA,NA
1462,Prison,Georgia,GWINNETT COUNTY CI,9/20/20,http://www.gdc.ga.gov/content/cases,15,NA,0,0,15,NA,NA,NA,NA,NA,NA,NA,NA,NA,NA,NA,NA,NA,NA,NA,NA,NA,NA,NA,NA
1826,Prison,Georgia,HALL COUNTY CI,9/20/20,http://www.gdc.ga.gov/content/cases,3,NA,0,0,1,NA,NA,NA,NA,NA,NA,NA,NA,NA,NA,NA,NA,NA,NA,NA,NA,NA,NA,NA,NA
1825,Prison,Georgia,HARRIS COUNTY CI,9/20/20,http://www.gdc.ga.gov/content/cases,3,NA,0,0,1,NA,NA,NA,NA,NA,NA,NA,NA,NA,NA,NA,NA,NA,NA,NA,NA,NA,NA,NA,NA
1764,Prison,Georgia,JEFFERSON COUNTY CI,9/20/20,http://www.gdc.ga.gov/content/cases,3,NA,0,0,3,NA,NA,NA,NA,NA,NA,NA,NA,NA,NA,NA,NA,NA,NA,NA,NA,NA,NA,NA,NA
1765,Prison,Georgia,JENKINS CORRECTIONAL CENTER,9/20/20,http://www.gdc.ga.gov/content/cases,23,NA,0,0,9,NA,NA,NA,NA,NA,NA,NA,NA,NA,NA,NA,NA,NA,NA,NA,NA,NA,NA,NA,NA
457,Prison,Georgia,MITCHELL COUNTY CI,9/20/20,http://www.gdc.ga.gov/content/cases,3,NA,0,0,3,NA,NA,NA,NA,NA,NA,NA,NA,NA,NA,NA,4838 STATE HWY 37 E,31730,CAMILLA,MITCHELL,31.2324018,-84.180085,13205,10002149,NA
1766,Prison,Georgia,MUSCOGEE COUNTY CI,9/20/20,http://www.gdc.ga.gov/content/cases,1,NA,0,0,1,NA,NA,NA,NA,NA,NA,NA,NA,NA,NA,NA,NA,NA,NA,NA,NA,NA,NA,NA,NA
463,Prison,Georgia,RIVERBEND CORRECTIONAL FACILITY,9/20/20,http://www.gdc.ga.gov/content/cases,18,NA,3,0,15,NA,NA,NA,NA,NA,NA,NA,NA,NA,NA,NA,196 LAYING FARM ROAD,31061,MILLEDGEVILLE,BALDWIN,NA,NA,13009,10006322,NA
474,Prison,Georgia,WHEELER CORRECTIONAL FACILITY,9/20/20,http://www.gdc.ga.gov/content/cases,160,NA,6,0,66,NA,NA,NA,NA,NA,NA,NA,NA,NA,NA,NA,195 NORTH BROAD STREET,30411,ALAMO,WHEELER,32.1504927,-82.79500753,13309,10002142,NA
1765,Prison,Georgia,JENKINS CORRECTIONAL CENTER,9/20/20,http://www.gdc.ga.gov/content/cases,NA,NA,1,0,NA,NA,NA,NA,NA,NA,NA,NA,NA,NA,NA,NA,NA,NA,NA,NA,NA,NA,NA,NA,NA
476,Prison,Hawaii,HCF,9/20/20,https://dps.hawaii.gov/blog/2020/03/17/coronavirus-covid-19-information-and-resources/,1,NA,0,NA,1,NA,44,NA,43,NA,0,NA,0,NA,NA,NA,99-902 MOANALUA RD,96701,AIEA,HONOLULU,21.37379134,-157.8989822,15003,10000124,NA
475,Prison,Hawaii,HCCC,9/20/20,https://dps.hawaii.gov/blog/2020/03/17/coronavirus-covid-19-information-and-resources/,1,NA,0,NA,0,NA,55,NA,54,NA,0,NA,9,NA,NA,NA,60 PUNAHELE STREET,96720,HILO,HAWAII,19.71830866,-155.0989632,15001,10003694,NA
477,Prison,Hawaii,KCCC,9/20/20,https://dps.hawaii.gov/blog/2020/03/17/coronavirus-covid-19-information-and-resources/,0,NA,0,NA,0,NA,10,NA,10,NA,0,NA,0,NA,NA,NA,3-5351 KUHIO HIGHWAY,96766,LIHUE,KAUAI,22.02515252,-159.3428192,15007,10003692,NA
478,Prison,Hawaii,KCF,9/20/20,https://dps.hawaii.gov/blog/2020/03/17/coronavirus-covid-19-information-and-resources/,0,NA,0,NA,0,NA,1,NA,1,NA,0,NA,0,NA,NA,NA,HC 01 STAINBACK HWY,96720,HILO,HAWAII,19.54917893,-155.3011053,15001,10000128,NA
479,Prison,Hawaii,MCCC,9/20/20,https://dps.hawaii.gov/blog/2020/03/17/coronavirus-covid-19-information-and-resources/,0,NA,0,NA,0,NA,18,NA,17,NA,1,NA,1,NA,NA,NA,600 WAIALE DR,96793,WAILUKU,MAUI,20.87701605,-156.4983753,15009,10000127,NA
480,Prison,Hawaii,OCCC,9/20/20,https://dps.hawaii.gov/blog/2020/03/17/coronavirus-covid-19-information-and-resources/,318,NA,0,NA,289,NA,2380,NA,2058,NA,0,NA,NA,NA,NA,NA,2199 KAMEHAMEHA HIGHWAY,96819,HONOLULU,HONOLULU,21.32989382,-157.884874,15003,10003691,NA
482,Prison,Hawaii,WCCC,9/20/20,https://dps.hawaii.gov/blog/2020/03/17/coronavirus-covid-19-information-and-resources/,0,NA,0,NA,0,NA,18,NA,18,NA,0,NA,0,NA,NA,NA,42-477 KALANIANAOLE HWY,96734,KAILUA,HONOLULU,21.37802504,-157.7484499,15003,10000126,NA
483,Prison,Hawaii,WCF,9/20/20,https://dps.hawaii.gov/blog/2020/03/17/coronavirus-covid-19-information-and-resources/,0,NA,0,NA,0,NA,234,NA,234,NA,0,NA,0,NA,NA,NA,94-560 KAMEHAMEHA HWY,96797,WAIPAHU,HONOLULU,21.44465003,-157.9609092,15003,10001191,NA
1470,Prison,Hawaii,SAGUARO,9/20/20,https://dps.hawaii.gov/blog/2020/03/17/coronavirus-covid-19-information-and-resources/,0,NA,0,NA,0,NA,42,NA,42,NA,0,NA,2,NA,NA,NA,NA,NA,NA,NA,NA,NA,NA,NA,NA
498,Administrative,Idaho,STATEWIDE,9/20/20,https://www.idoc.idaho.gov/content/careers/covid-19,1575,NA,2,NA,1175,NA,8319,NA,6594,NA,148,NA,NA,NA,NA,NA,NA,NA,NA,NA,NA,NA,NA,NA,"(5/14/20) article reports that staff member at Texas facility in Eagle Pass, which houses Idaho residents, tested positive (https://www.idahopress.com/eyeonboise/staffer-at-texas-prison-holding-idaho-inmates-tests-positive-for-covid-19-link-to-full/article_58629e38-3339-5d3c-b869-f5ad31264b0f.html) (4/30/20) director update says 5th positive on 4/29/20, which was added to the 4/29 sheet ( https://www.idoc.idaho.gov/content/document/covid_19_update_4_29_2020 ) ----- (4/28/20) director update says no positives for residents, but 4 staff positive, but no location given ----- (4/9/20) Director says all tests still negative ( https://www.idoc.idaho.gov/content/document/covid_19_update_4_09_2020 ) ----- (4/8/20) Director update says no populations have tested positive as of 4/7/20 ( https://www.idoc.idaho.gov/content/document/covid_19_update_4_07_2020 ) ----- (4/6/20) the update posted by the director (https://www.idoc.idaho.gov/content/document/covid_19_update_4_03_2020) said that at least one staff member had tested positive, but on their official count there is no mention of this. There are a few pending results. Choosing to rate as a ""0"" for now until they post official information."
485,Prison,Idaho,EAGLE PASS,9/20/20,https://www.idoc.idaho.gov/content/careers/covid-19,12,1,0,0,NA,0,33,NA,21,NA,0,NA,0,NA,NA,NA,NA,NA,NA,NA,NA,NA,48323,NA,NA
1821,Jail,Texas,SAGUARO CORRECTIONAL CENTER ELOY ARIZONA,9/20/20,https://www.tdcj.texas.gov/covid-19/mac_dashboard.html,127,NA,0,0,NA,0,439,NA,311,NA,1,NA,0,NA,NA,NA,NA,NA,NA,NA,NA,NA,NA,NA,NA
487,Prison,Idaho,ICIO,9/20/20,https://www.idoc.idaho.gov/content/careers/covid-19,NA,0,0,0,NA,0,NA,NA,NA,NA,NA,NA,0,NA,NA,NA,381 WEST HOSPITAL DRIVE,83544,OROFINO,CLEARWATER,46.49197836,-116.2607095,16035,10001172,NA
489,Prison,Idaho,IMSI,9/20/20,https://www.idoc.idaho.gov/content/careers/covid-19,NA,18,0,0,NA,13,NA,NA,NA,NA,NA,NA,0,NA,NA,NA,13500 S PLEASANT VALLEY RD,83634,KUNA,ADA,43.47938786,-116.2189574,16001,10001181,NA
490,Prison,Idaho,ISCC,9/20/20,https://www.idoc.idaho.gov/content/careers/covid-19,NA,51,0,0,NA,51,NA,NA,NA,NA,NA,NA,0,NA,NA,NA,14601 S PLEASANT VALLEY RD,83634,KUNA,ADA,43.47119944,-116.2375874,16001,10001183,https://idahonews.com/news/local/idaho-inmate-diagnosed-with-covid-19-dies-at-boise-hospital
491,Prison,Idaho,ISCI,9/20/20,https://www.idoc.idaho.gov/content/careers/covid-19,NA,22,0,0,NA,22,NA,NA,NA,NA,NA,NA,0,NA,NA,NA,13500 S PLEASANT VALLEY RD,83634,KUNA,ADA,43.47938786,-116.2189574,16001,10001181,NA
493,Prison,Idaho,NICI,9/20/20,https://www.idoc.idaho.gov/content/careers/covid-19,NA,2,0,0,NA,1,NA,NA,NA,NA,NA,NA,0,NA,NA,NA,236 RADAR RD,83522,COTTONWOOD,IDAHO,46.07917307,-116.4280588,16049,10001173,NA
494,Prison,Idaho,PWCC,9/20/20,https://www.idoc.idaho.gov/content/careers/covid-19,NA,1,0,0,NA,0,NA,NA,NA,NA,NA,NA,0,NA,NA,NA,1451 FORE RD,83204,POCATELLO,BANNOCK,42.84256222,-112.4506302,16005,10001187,NA
495,Prison,Idaho,SAWC,9/20/20,https://www.idoc.idaho.gov/content/careers/covid-19,NA,2,0,0,NA,1,NA,NA,NA,NA,NA,NA,0,NA,NA,NA,125 N 8TH W,83445,ST ANTHONY,FREMONT,43.96809846,-111.6935417,16043,10001176,NA
496,Prison,Idaho,SBWCC,9/20/20,https://www.idoc.idaho.gov/content/careers/covid-19,NA,3,0,0,NA,3,NA,NA,NA,NA,NA,NA,0,NA,NA,NA,13200 S PLEASANT VALLEY RD,83634,KUNA,ADA,43.48338,-116.23392,16001,10001185,NA
497,Prison,Idaho,SICI,9/20/20,https://www.idoc.idaho.gov/content/careers/covid-19,NA,8,0,0,NA,8,NA,NA,NA,NA,NA,NA,0,NA,NA,NA,13500 S PLEASANT VALLEY RD,83634,KUNA,ADA,43.47938786,-116.2189574,16001,10001181,NA
484,Prison,Idaho,CAPP,9/20/20,https://www.idoc.idaho.gov/content/careers/covid-19,NA,0,0,0,NA,0,NA,NA,NA,NA,NA,NA,0,NA,NA,NA,15505 SOUTH PLEASANT VALLEY ROAD,83634,KUNA,ADA,43.46183741,-116.2357735,16001,10006544,NA
486,Prison,Idaho,EBCRC,9/20/20,https://www.idoc.idaho.gov/content/careers/covid-19,NA,3,0,0,NA,3,NA,NA,NA,NA,NA,NA,13,NA,NA,NA,2366 OLD PENITENTIARY RD,83712,BOISE,ADA,43.60314093,-116.1638439,16001,10001184,NA
499,Prison,Idaho,TVCRC,9/20/20,https://www.idoc.idaho.gov/content/careers/covid-19,NA,0,0,0,NA,0,NA,NA,NA,NA,NA,NA,0,NA,NA,NA,14195 S PLEASANT VALLEY RD,83634,KUNA,ADA,43.6574178,-116.6678165,16001,10004339,NA
492,Prison,Idaho,NCRC,9/20/20,https://www.idoc.idaho.gov/content/careers/covid-19,NA,0,0,0,NA,0,NA,NA,NA,NA,NA,NA,0,NA,NA,NA,1640 11TH AVE N,83687,NAMPA,CANYON,43.59891476,-116.5347832,16027,10001177,NA
488,Prison,Idaho,IFCRC,9/20/20,https://www.idoc.idaho.gov/content/careers/covid-19,NA,2,0,0,NA,0,NA,NA,NA,NA,NA,NA,81,NA,NA,NA,3955 BOMBARDIER AVE,83402,IDAHO FALLS,BONNEVILLE,43.46230015,-112.0639693,16019,10001186,NA
1471,Prison,Idaho,CENTRAL OFFICE,9/20/20,https://www.idoc.idaho.gov/content/careers/covid-19,NA,3,0,0,NA,3,NA,NA,NA,NA,NA,NA,0,NA,NA,NA,NA,NA,NA,NA,NA,NA,NA,NA,NA
1702,Prison,Idaho,DISTRICT 1,9/20/20,https://www.idoc.idaho.gov/content/careers/covid-19,NA,1,0,0,NA,1,NA,NA,NA,NA,NA,NA,0,NA,NA,NA,NA,NA,NA,NA,NA,NA,NA,NA,NA
1805,Prison,Idaho,DISTRICT 3,9/20/20,https://www.idoc.idaho.gov/content/careers/covid-19,NA,1,0,0,NA,1,NA,NA,NA,NA,NA,NA,0,NA,NA,NA,NA,NA,NA,NA,NA,NA,NA,NA,NA
1472,Prison,Idaho,DISTRICT 4,9/20/20,https://www.idoc.idaho.gov/content/careers/covid-19,NA,5,0,0,NA,5,NA,NA,NA,NA,NA,NA,0,NA,NA,NA,NA,NA,NA,NA,NA,NA,NA,NA,NA
1473,Prison,Idaho,DISTRICT 5,9/20/20,https://www.idoc.idaho.gov/content/careers/covid-19,NA,1,0,0,NA,1,NA,NA,NA,NA,NA,NA,0,NA,NA,NA,NA,NA,NA,NA,NA,NA,NA,NA,NA
1474,Prison,Illinois,BIG MUDDY RIVER,9/20/20,https://www2.illinois.gov/idoc/facilities/Pages/Covid19Response.aspx,1,8,0,NA,1,5,NA,NA,NA,NA,NA,NA,NA,NA,NA,NA,NA,NA,NA,NA,NA,NA,NA,NA,NA
1770,Prison,Illinois,CENTRALIA,9/20/20,https://www2.illinois.gov/idoc/facilities/Pages/Covid19Response.aspx,0,17,0,NA,0,14,NA,NA,NA,NA,NA,NA,NA,NA,NA,NA,NA,NA,NA,NA,NA,NA,NA,NA,NA
501,Prison,Illinois,CROSSROADS ATC,9/20/20,https://www2.illinois.gov/idoc/facilities/Pages/Covid19Response.aspx,3,1,0,NA,3,1,NA,NA,NA,NA,NA,NA,NA,NA,NA,NA,3210 WEST ARTHINGTON STREET,60624,CHICAGO,COOK,41.87048357,-87.70635938,17031,10000635,NA
502,Prison,Illinois,DANVILLE,9/20/20,https://www2.illinois.gov/idoc/facilities/Pages/Covid19Response.aspx,0,10,0,NA,0,6,NA,NA,NA,NA,NA,NA,NA,NA,NA,NA,3820 EAST MAIN STREET,61834,DANVILLE,VERMILION,40.12956679,-87.53645593,17183,10000662,NA
1475,Prison,Illinois,DECATUR,9/20/20,https://www2.illinois.gov/idoc/facilities/Pages/Covid19Response.aspx,0,4,0,NA,0,4,NA,NA,NA,NA,NA,NA,NA,NA,NA,NA,NA,NA,NA,NA,NA,NA,NA,NA,NA
503,Prison,Illinois,DIXON CORRECTIONAL INSTITUTE,9/20/20,https://www2.illinois.gov/idoc/facilities/Pages/Covid19Response.aspx,25,15,0,NA,11,12,NA,NA,NA,NA,NA,NA,NA,NA,NA,NA,2600 NORTH BRINTON AVENUE,61021,DIXON,LEE,41.8737451,-89.47817317,17103,10000642,NA
504,Prison,Illinois,EAST MOLINE,9/20/20,https://www2.illinois.gov/idoc/facilities/Pages/Covid19Response.aspx,291,13,0,NA,147,9,NA,NA,NA,NA,NA,NA,NA,NA,NA,NA,100 HILLCREST ROAD,61244,EAST MOLINE,ROCK ISLAND,41.53372905,-90.41912151,17161,10000644,NA
505,Prison,Illinois,ELGIN TREATMENT CENTER,9/20/20,https://www2.illinois.gov/idoc/facilities/Pages/Covid19Response.aspx,0,5,0,NA,0,5,NA,NA,NA,NA,NA,NA,NA,NA,NA,NA,NA,NA,NA,NA,NA,NA,17089,NA,NA
506,Prison,Illinois,FOX VALLEY ATC,9/20/20,https://www2.illinois.gov/idoc/facilities/Pages/Covid19Response.aspx,4,7,0,NA,4,7,NA,NA,NA,NA,NA,NA,NA,NA,NA,NA,1329 N LAKE ST,60506,AURORA,KANE,41.78792125,-88.3202916,17089,10000638,NA
1476,Prison,Illinois,GENERAL OFFICE,9/20/20,https://www2.illinois.gov/idoc/facilities/Pages/Covid19Response.aspx,0,8,0,NA,0,6,NA,NA,NA,NA,NA,NA,NA,NA,NA,NA,NA,NA,NA,NA,NA,NA,NA,NA,NA
507,Prison,Illinois,GRAHAM,9/20/20,https://www2.illinois.gov/idoc/facilities/Pages/Covid19Response.aspx,7,48,0,NA,3,31,NA,NA,NA,NA,NA,NA,NA,NA,NA,NA,12078 ILLINOIS ROUTE 185,62049,HILLSBORO,MONTGOMERY,39.12648969,-89.47493262,17135,10000674,NA
508,Prison,Illinois,HILL,9/20/20,https://www2.illinois.gov/idoc/facilities/Pages/Covid19Response.aspx,23,8,0,NA,22,8,NA,NA,NA,NA,NA,NA,NA,NA,NA,NA,600 SOUTH LINWOOD ROAD,61401,GALESBURG,KNOX,40.93974548,-90.40695799,17095,10000653,NA
1477,Prison,Illinois,ILLINOIS RIVER,9/20/20,https://www2.illinois.gov/idoc/facilities/Pages/Covid19Response.aspx,0,9,0,NA,0,8,NA,NA,NA,NA,NA,NA,NA,NA,NA,NA,NA,NA,NA,NA,NA,NA,NA,NA,NA
509,Prison,Illinois,JACKSONVILLE,9/20/20,https://www2.illinois.gov/idoc/facilities/Pages/Covid19Response.aspx,215,28,0,NA,205,26,NA,NA,NA,NA,NA,NA,NA,NA,NA,NA,2268 EAST MORTON AVENUE,62650,JACKSONVILLE,MORGAN,39.72668976,-90.17561449,17137,10000671,NA
510,Prison,Illinois,JOLIET TREATMENT CENTER,9/20/20,https://www2.illinois.gov/idoc/facilities/Pages/Covid19Response.aspx,2,29,0,NA,1,29,NA,NA,NA,NA,NA,NA,NA,NA,NA,NA,2848 WEST MCDONOUGH,60436,JOLIET,WILL,41.51234669,-88.15264614,17197,10000646,NA
511,Prison,Illinois,KEWANEE LSRC,9/20/20,https://www2.illinois.gov/idoc/facilities/Pages/Covid19Response.aspx,0,7,0,NA,0,6,NA,NA,NA,NA,NA,NA,NA,NA,NA,NA,2021 KENTVILLE ROAD,61443,KEWANEE,HENRY,41.25333209,-89.89171233,17073,10004677,NA
1771,Prison,Illinois,LAWRENCE,9/20/20,https://www2.illinois.gov/idoc/facilities/Pages/Covid19Response.aspx,3,15,0,NA,2,11,NA,NA,NA,NA,NA,NA,NA,NA,NA,NA,NA,NA,NA,NA,NA,NA,NA,NA,NA
1478,Prison,Illinois,LINCOLN,9/20/20,https://www2.illinois.gov/idoc/facilities/Pages/Covid19Response.aspx,48,18,0,NA,37,15,NA,NA,NA,NA,NA,NA,NA,NA,NA,NA,NA,NA,NA,NA,NA,NA,NA,NA,NA
512,Prison,Illinois,LOGAN,9/20/20,https://www2.illinois.gov/idoc/facilities/Pages/Covid19Response.aspx,79,20,0,NA,79,17,NA,NA,NA,NA,NA,NA,NA,NA,NA,NA,1096 1350TH STREET,62656,LINCOLN,LOGAN,40.1140649,-89.3881401,17107,10000665,NA
513,Prison,Illinois,MENARD,9/20/20,https://www2.illinois.gov/idoc/facilities/Pages/Covid19Response.aspx,131,96,0,NA,103,85,NA,NA,NA,NA,NA,NA,NA,NA,NA,NA,711 KASKASKIA STREET,62259,MENARD,RANDOLPH,37.91268569,-89.84197817,17157,10000687,NA
1703,Prison,Illinois,MURPHYSBORO,9/20/20,https://www2.illinois.gov/idoc/facilities/Pages/Covid19Response.aspx,0,3,0,NA,0,1,NA,NA,NA,NA,NA,NA,NA,NA,NA,NA,NA,NA,NA,NA,NA,NA,NA,NA,NA
514,Prison,Illinois,NORTH LAWNDALE ATC,9/20/20,https://www2.illinois.gov/idoc/facilities/Pages/Covid19Response.aspx,5,4,0,NA,5,4,NA,NA,NA,NA,NA,NA,NA,NA,NA,NA,2839 WEST FILLMORE STREET,60612,CHICAGO,COOK,41.868038,-87.697785,17031,10000636,NA
1479,Prison,Illinois,PAROLE,9/20/20,https://www2.illinois.gov/idoc/facilities/Pages/Covid19Response.aspx,0,8,0,NA,0,6,NA,NA,NA,NA,NA,NA,NA,NA,NA,NA,NA,NA,NA,NA,NA,NA,NA,NA,NA
1480,Prison,Illinois,PEORIA ATC,9/20/20,https://www2.illinois.gov/idoc/facilities/Pages/Covid19Response.aspx,11,16,0,NA,10,10,NA,NA,NA,NA,NA,NA,NA,NA,NA,NA,NA,NA,NA,NA,NA,NA,NA,NA,NA
1481,Prison,Illinois,PINCKNEYVILLE,9/20/20,https://www2.illinois.gov/idoc/facilities/Pages/Covid19Response.aspx,1,10,0,NA,1,9,NA,NA,NA,NA,NA,NA,NA,NA,NA,NA,NA,NA,NA,NA,NA,NA,NA,NA,NA
515,Prison,Illinois,PONTIAC,9/20/20,https://www2.illinois.gov/idoc/facilities/Pages/Covid19Response.aspx,26,39,1,NA,6,19,NA,NA,NA,NA,NA,NA,NA,NA,NA,NA,700 WEST LINCOLN STREET,61764,PONTIAC,LIVINGSTON,40.86928355,-88.63603689,17105,10000655,NA
1482,Prison,Illinois,ROBINSON,9/20/20,https://www2.illinois.gov/idoc/facilities/Pages/Covid19Response.aspx,231,27,0,NA,58,6,NA,NA,NA,NA,NA,NA,NA,NA,NA,NA,NA,NA,NA,NA,NA,NA,NA,NA,NA
1803,Prison,Illinois,SHAWNEE,9/20/20,https://www2.illinois.gov/idoc/facilities/Pages/Covid19Response.aspx,18,21,0,NA,8,14,NA,NA,NA,NA,NA,NA,NA,NA,NA,NA,NA,NA,NA,NA,NA,NA,NA,NA,NA
516,Prison,Illinois,SHERIDAN,9/20/20,https://www2.illinois.gov/idoc/facilities/Pages/Covid19Response.aspx,22,15,0,NA,20,15,NA,NA,NA,NA,NA,NA,NA,NA,NA,NA,4017 EAST 2603 ROAD,60551,SHERIDAN,LA SALLE,41.51604912,-88.68465975,17099,10000652,NA
517,Prison,Illinois,SOUTHWESTERN IL,9/20/20,https://www2.illinois.gov/idoc/facilities/Pages/Covid19Response.aspx,0,20,0,NA,0,16,NA,NA,NA,NA,NA,NA,NA,NA,NA,NA,950 KINGSHIGHWAY ST,62203,EAST ST LOUIS,ST CLAIR,38.61691302,-90.0908182,17163,10000685,NA
518,Prison,Illinois,STATEVILLE,9/20/20,https://www2.illinois.gov/idoc/facilities/Pages/Covid19Response.aspx,276,115,12,NA,273,109,NA,NA,NA,NA,NA,NA,NA,NA,NA,NA,16830 SOUTH BROADWAY STREET,60434,JOLIET,WILL,41.57873778,-88.09456267,17197,10000647,NA
519,Prison,Illinois,STATEVILLE NRC,9/20/20,https://www2.illinois.gov/idoc/facilities/Pages/Covid19Response.aspx,73,47,0,NA,64,42,NA,NA,NA,NA,NA,NA,NA,NA,NA,NA,16830 SOUTH BROADWAY STREET,60434,JOLIET,WILL,41.57873778,-88.09456267,17197,10000647,NA
1483,Prison,Illinois,TAYLORVILLE,9/20/20,https://www2.illinois.gov/idoc/facilities/Pages/Covid19Response.aspx,79,10,0,NA,4,7,NA,NA,NA,NA,NA,NA,NA,NA,NA,NA,NA,NA,NA,NA,NA,NA,NA,NA,NA
1804,Prison,Illinois,VANDALIA,9/20/20,https://www2.illinois.gov/idoc/facilities/Pages/Covid19Response.aspx,2,15,0,NA,2,11,NA,NA,NA,NA,NA,NA,NA,NA,NA,NA,NA,NA,NA,NA,NA,NA,NA,NA,NA
1484,Prison,Illinois,VIENNA,9/20/20,https://www2.illinois.gov/idoc/facilities/Pages/Covid19Response.aspx,0,6,0,NA,0,6,NA,NA,NA,NA,NA,NA,NA,NA,NA,NA,NA,NA,NA,NA,NA,NA,NA,NA,NA
520,Prison,Illinois,WESTERN IL,9/20/20,https://www2.illinois.gov/idoc/facilities/Pages/Covid19Response.aspx,4,12,0,NA,2,8,NA,NA,NA,NA,NA,NA,NA,NA,NA,NA,2500 RT 99 SOUTH,62353,MOUNT STERLING,BROWN,39.96285696,-90.75396657,17009,10000667,NA
503,Prison,Illinois,DIXON CORRECTIONAL INSTITUTE,9/20/20,https://www2.illinois.gov/idoc/facilities/Pages/Covid19Response.aspx,NA,NA,0,NA,NA,NA,NA,NA,NA,NA,NA,NA,NA,NA,NA,NA,2600 NORTH BRINTON AVENUE,61021,DIXON,LEE,41.8737451,-89.47817317,17103,10000642,NA
503,Prison,Illinois,DIXON CORRECTIONAL INSTITUTE,9/20/20,https://www2.illinois.gov/idoc/facilities/Pages/Covid19Response.aspx,NA,NA,0,NA,NA,NA,NA,NA,NA,NA,NA,NA,NA,NA,NA,NA,2600 NORTH BRINTON AVENUE,61021,DIXON,LEE,41.8737451,-89.47817317,17103,10000642,NA
503,Prison,Illinois,DIXON CORRECTIONAL INSTITUTE,9/20/20,https://www2.illinois.gov/idoc/facilities/Pages/Covid19Response.aspx,NA,NA,0,NA,NA,NA,NA,NA,NA,NA,NA,NA,NA,NA,NA,NA,2600 NORTH BRINTON AVENUE,61021,DIXON,LEE,41.8737451,-89.47817317,17103,10000642,NA
503,Prison,Illinois,DIXON CORRECTIONAL INSTITUTE,9/20/20,https://www2.illinois.gov/idoc/facilities/Pages/Covid19Response.aspx,NA,NA,0,NA,NA,NA,NA,NA,NA,NA,NA,NA,NA,NA,NA,NA,2600 NORTH BRINTON AVENUE,61021,DIXON,LEE,41.8737451,-89.47817317,17103,10000642,NA
500,Jail,Illinois,COOK COUNTY,9/20/20,https://www2.illinois.gov/idoc/facilities/Pages/Covid19Response.aspx,NA,NA,7,NA,NA,NA,NA,NA,NA,NA,NA,NA,NA,NA,NA,NA,2700 SOUTH CALIFORNIA AVENUE,60608,CHICAGO,COOK,41.84077767,-87.69687056,17031,10000634,NA
521,Prison,Indiana,BRANCHVILLE BTC,9/20/20,https://www.in.gov/idoc/3780.htm,15,7,0,0,15,6,32,62,NA,NA,NA,NA,0,NA,NA,NA,21390 OLD STATE RD 37,47514,BRANCHVILLE,PERRY,38.15137828,-86.59980056,18123,10001075,NA
523,Prison,Indiana,CHAIN OLAKES COL,9/20/20,https://www.in.gov/idoc/3780.htm,0,0,0,0,0,0,3,1,NA,NA,NA,NA,0,NA,NA,NA,3516 E 75 SOUTH,46701,ALBION,NOBLE,41.33701028,-85.35310253,18113,10004895,NA
524,Prison,Indiana,CORRECTIONAL INDUSTRIAL CIF,9/20/20,https://www.in.gov/idoc/3780.htm,0,9,0,0,0,7,49,65,NA,NA,NA,NA,0,NA,NA,NA,5124 W REFORMATORY RD,46064,PENDLETON,MADISON,39.97598494,-85.77135909,18095,10001060,NA
526,Prison,Indiana,EDINBURGH JCU,9/20/20,https://www.in.gov/idoc/3780.htm,8,12,0,0,8,12,9,39,NA,NA,NA,NA,0,NA,NA,NA,PO BOX 470 23RD SCHOOLHOUSE RD,46124,EDINBURGH,JOHNSON,39.35145302,-86.0386027,18081,10004920,NA
527,Prison,Indiana,HERITAGE TRAIL CORRECTIONAL FACILITY,9/20/20,https://www.in.gov/idoc/3780.htm,49,16,0,0,50,12,73,33,NA,NA,NA,NA,0,NA,NA,NA,NA,NA,NA,NA,NA,NA,18063,NA,NA
529,Prison,Indiana,INDIANA STATE PRISON ISP,9/20/20,https://www.in.gov/idoc/3780.htm,7,24,0,0,7,22,31,115,NA,NA,NA,NA,1,NA,NA,NA,1 PARK ROW,46360,MICHIGAN CITY,LAPORTE,41.70343089,-86.9173169,18091,10005599,NA
530,Prison,Indiana,INDIANA WOMENS PRISON IWP,9/20/20,https://www.in.gov/idoc/3780.htm,25,16,0,1,25,11,80,50,NA,NA,NA,NA,6,NA,NA,NA,2596 GIRLS SCHOOL ROAD,46214,INDIANAPOLIS,MARION,39.80094018,-86.29189795,18097,10001065,NA
532,Prison,Indiana,LAPORTE JUVENILE LPJ,9/20/20,https://www.in.gov/idoc/3780.htm,0,8,0,0,0,7,30,37,NA,NA,NA,NA,0,NA,NA,NA,809 STATE ST,46350,LA PORTE,LAPORTE,41.61206231,-86.72292259,18091,10001053,NA
535,Prison,Indiana,LOGANSPORT LJCF,9/20/20,https://www.in.gov/idoc/3780.htm,0,6,0,0,0,6,0,24,NA,NA,NA,NA,0,NA,NA,NA,1118 S STATE RD 25,46947,LOGANSPORT,CASS,40.74154606,-86.40152309,18017,10004903,NA
536,Prison,Indiana,MADISON MCU,9/20/20,https://www.in.gov/idoc/3780.htm,0,7,0,0,0,7,24,97,NA,NA,NA,NA,0,NA,NA,NA,1130 MSH 4TH STREET,47250,MADISON,JEFFERSON,38.74778116,-85.40047051,18077,10006545,NA
537,Prison,Indiana,MIAMI MCF,9/20/20,https://www.in.gov/idoc/3780.htm,75,11,1,0,2,4,268,27,NA,NA,NA,NA,171,NA,NA,NA,3038 W 850 S,46914,BUNKER HILL,MIAMI,40.6459301,-86.13530041,18103,10001059,NA
538,Prison,Indiana,NEW CASTLE NCCF,9/20/20,https://www.in.gov/idoc/3780.htm,180,36,5,0,171,25,451,82,NA,NA,NA,NA,34,NA,NA,NA,1000 VAN NUYS RD,47362,NEW CASTLE,HENRY,39.96237788,-85.37022541,18065,10004913,NA
539,Prison,Indiana,PENDLETON ISR,9/20/20,https://www.in.gov/idoc/3780.htm,62,22,4,0,59,21,98,187,NA,NA,NA,NA,1,NA,NA,NA,4490 W REFORMATORY RD,46064,PENDLETON,MADISON,39.98338112,-85.76085702,18095,10001061,NA
540,Prison,Indiana,PENDLETON JUVENILE PNJ,9/20/20,https://www.in.gov/idoc/3780.htm,26,32,0,0,26,29,94,102,NA,NA,NA,NA,0,NA,NA,NA,9310 S STATE RD 67,46064,PENDLETON,MADISON,39.96907067,-85.77458045,18095,10001062,NA
542,Prison,Indiana,PLAINFIELD IYC,9/20/20,https://www.in.gov/idoc/3780.htm,128,53,8,0,120,51,159,214,NA,NA,NA,NA,1,NA,NA,NA,737 MOON RD,46168,PLAINFIELD,HENDRICKS,39.68899972,-86.41604046,18063,10001067,NA
543,Prison,Indiana,PUTNAMVILLE ISF,9/20/20,https://www.in.gov/idoc/3780.htm,202,28,0,0,191,17,943,267,NA,NA,NA,NA,59,NA,NA,NA,1946 W US HWY 40,46135,GREENCASTLE,PUTNAM,39.56503726,-86.88666488,18133,10001071,NA
544,Prison,Indiana,RECEPTION DIAGNOSTIC RDC,9/20/20,https://www.in.gov/idoc/3780.htm,148,21,0,0,150,20,1988,108,NA,NA,NA,NA,265,NA,NA,NA,737 MOON RD,46168,PLAINFIELD,HENDRICKS,39.68899972,-86.41604046,18063,10001067,NA
545,Prison,Indiana,ROCKVILLE RTC,9/20/20,https://www.in.gov/idoc/3780.htm,4,8,0,0,1,8,129,83,NA,NA,NA,NA,60,NA,NA,NA,811 W 50 N,47872,ROCKVILLE,PARKE,39.77431571,-87.25434717,18121,10001063,NA
1795,Prison,Nebraska,SOUTH BEND SBWC,9/20/20,https://corrections.nebraska.gov/ndcs-coronavirus-health-update,4,1,0,0,4,1,47,7,NA,NA,NA,NA,0,NA,NA,NA,NA,NA,NA,NA,NA,NA,NA,NA,NA
548,Prison,Indiana,WABASH VALLEY WVCF,9/20/20,https://www.in.gov/idoc/3780.htm,6,26,0,1,6,24,104,174,NA,NA,NA,NA,3,NA,NA,NA,6908 S OLD US HWY 41,47838,CARLISLE,SULLIVAN,38.97792912,-87.40030287,18153,10001072,NA
550,Prison,Indiana,WESTVILLE WCC,9/20/20,https://www.in.gov/idoc/3780.htm,229,114,6,0,216,109,337,374,NA,NA,NA,NA,35,NA,NA,NA,5501 S 1100 W,46391,WESTVILLE,LAPORTE,41.52575257,-86.90808495,18091,10001051,NA
1485,Administrative,Indiana,CENTRAL OFFICE,9/20/20,https://www.in.gov/idoc/3780.htm,NA,4,NA,0,NA,4,NA,37,NA,NA,NA,NA,NA,NA,NA,NA,NA,NA,NA,NA,NA,NA,NA,NA,NA
551,Prison,Iowa,ANAMOSA,9/20/20,https://doc.iowa.gov/COVID19,0,8,0,NA,0,8,241,NA,NA,NA,NA,NA,NA,NA,NA,NA,406 N HIGH ST,52205,ANAMOSA,JONES,42.11129071,-91.29127202,19105,10001082,NA
552,Prison,Iowa,CLARINDA,9/20/20,https://doc.iowa.gov/COVID19,3,3,0,NA,3,3,525,NA,NA,NA,NA,NA,NA,NA,NA,NA,2000 NORTH 16TH STREET,51632,CLARINDA,PAGE,40.76249094,-95.03582563,19145,10001099,NA
553,Prison,Iowa,FORT DODGE,9/20/20,https://doc.iowa.gov/COVID19,360,40,3,NA,360,40,3825,NA,NA,NA,NA,NA,NA,NA,NA,NA,1550 L STREET,50501,FORT DODGE,WEBSTER,42.48489252,-94.19609253,19187,10001077,NA
554,Prison,Iowa,ICIW,9/20/20,https://doc.iowa.gov/COVID19,0,11,0,NA,0,8,250,NA,NA,NA,NA,NA,NA,NA,NA,NA,420 MILL STREET SOUTHWEST,50169,MITCHELLVILLE,POLK,41.66299579,-93.3661037,19153,10001087,NA
555,Prison,Iowa,IMCC,9/20/20,https://doc.iowa.gov/COVID19,297,36,1,NA,276,28,4774,NA,NA,NA,NA,NA,NA,NA,NA,NA,2700 CORAL RIDGE AVE,52241,CORALVILLE,JOHNSON,41.71369597,-91.61182585,19103,10001091,NA
556,Prison,Iowa,ISP,9/20/20,https://doc.iowa.gov/COVID19,0,22,0,NA,0,19,120,NA,NA,NA,NA,NA,NA,NA,NA,NA,2111 330TH AVENUE,52627,FORT MADISON,LEE,40.65361883,-91.30326789,19111,10001100,NA
557,Prison,Iowa,MT PLEASANT,9/20/20,https://doc.iowa.gov/COVID19,342,8,0,NA,171,6,1982,NA,NA,NA,NA,NA,NA,NA,NA,NA,1200 EAST WASHINGTON STREET,52641,MOUNT PLEASANT,HENRY,40.95581384,-91.53617358,19087,10001096,NA
558,Prison,Iowa,NEWTON,9/20/20,https://doc.iowa.gov/COVID19,1,4,0,NA,1,2,407,NA,NA,NA,NA,NA,NA,NA,NA,NA,307 SOUTH 60TH AVENUE WEST,50208,NEWTON,JASPER,41.62717022,-93.05696851,19099,10001090,NA
559,Prison,Iowa,NORTH CENTRAL,9/20/20,https://doc.iowa.gov/COVID19,0,0,0,NA,0,0,154,NA,NA,NA,NA,NA,NA,NA,NA,NA,313 LANEDALE,50579,ROCKWELL CITY,CALHOUN,42.39222762,-94.60437667,19025,10001080,NA
561,Prison,Kansas,EL DORADO,9/20/20,https://www.doc.ks.gov/kdoc-coronavirus-updates/kdoc-covid-19-status,357,18,0,0,69,16,NA,NA,NA,NA,NA,NA,NA,NA,NA,NA,1737 SOUTHEAST UNITED STATES HIGHWAY 54,67042,EL DORADO,BUTLER,37.80325673,-96.81713261,20015,10001045,NA
562,Prison,Kansas,ELLSWORTH,9/20/20,https://www.doc.ks.gov/kdoc-coronavirus-updates/kdoc-covid-19-status,5,4,0,0,4,4,NA,NA,NA,NA,NA,NA,NA,NA,NA,NA,1607 STATE STREET,67439,ELLSWORTH,ELLSWORTH,38.74301147,-98.23215008,20053,10001040,NA
563,Prison,Kansas,HUTCHINSON,9/20/20,https://www.doc.ks.gov/kdoc-coronavirus-updates/kdoc-covid-19-status,399,30,0,0,343,29,NA,NA,NA,NA,NA,NA,NA,NA,NA,NA,500 REFORMATORY STREET,67504,HUTCHINSON,RENO,38.04458476,-97.91073579,20155,10001043,NA
565,Prison,Kansas,LANSING,9/20/20,https://www.doc.ks.gov/kdoc-coronavirus-updates/kdoc-covid-19-status,864,99,4,2,850,98,NA,NA,NA,NA,NA,NA,NA,NA,NA,NA,301 EAST KANSAS AVE,66043,LANSING,LEAVENWORTH,39.25190411,-94.89130455,20103,10001030,NA
566,Prison,Kansas,LARNED,9/20/20,https://www.doc.ks.gov/kdoc-coronavirus-updates/kdoc-covid-19-status,220,35,0,0,199,31,NA,NA,NA,NA,NA,NA,NA,NA,NA,NA,1318 STATE HIGHWAY 264,67550,LARNED,PAWNEE,38.17710787,-99.15101294,20145,10001830,NA
567,Prison,Kansas,NORTON,9/20/20,https://www.doc.ks.gov/kdoc-coronavirus-updates/kdoc-covid-19-status,3,1,0,0,3,1,NA,NA,NA,NA,NA,NA,NA,NA,NA,NA,ROAD EAST 4 AND UNITED STATES HIGHWAY 36,67654,NORTON,NORTON,39.84416321,-99.81637284,20137,10001028,NA
569,Prison,Kansas,TOPEKA,9/20/20,https://www.doc.ks.gov/kdoc-coronavirus-updates/kdoc-covid-19-status,11,12,0,1,11,11,NA,NA,NA,NA,NA,NA,NA,NA,NA,NA,815 SOUTHEAST RICE ROAD,66607,TOPEKA,SHAWNEE,39.04069275,-95.6254707,20177,10001033,NA
571,Prison,Kansas,WINFIELD,9/20/20,https://www.doc.ks.gov/kdoc-coronavirus-updates/kdoc-covid-19-status,22,8,0,0,19,6,NA,NA,NA,NA,NA,NA,NA,NA,NA,NA,1806 PINECREST CIRCLE,67156,WINFIELD,COWLEY,37.26426587,-96.97365125,20035,10001050,NA
570,Prison,Kansas,WICHITA WORK RELEASE,9/20/20,https://www.doc.ks.gov/kdoc-coronavirus-updates/kdoc-covid-19-status,58,9,0,0,58,9,NA,NA,NA,NA,NA,NA,NA,NA,NA,NA,401 SOUTH EMPORIA STREET,67202,WICHITA,SEDGWICK,37.68209659,-97.33329523,20173,10001048,NA
564,Prison,Kansas,KJCC,9/20/20,https://www.doc.ks.gov/kdoc-coronavirus-updates/kdoc-covid-19-status,3,4,0,0,3,4,NA,NA,NA,NA,NA,NA,NA,NA,NA,NA,1430 NORTHWEST 25TH STREET,66618,TOPEKA,SHAWNEE,39.09678729,-95.68423367,20177,10001034,NA
572,Prison,Kentucky,BELL COUNTY FORESTRY CAMP,9/20/20,https://corrections.ky.gov/Facilities/Pages/covid19.aspx,0,1,0,0,NA,NA,NA,NA,NA,NA,NA,NA,NA,NA,NA,NA,560 CORRECTIONAL DR,40977,PINEVILLE,BELL,36.6689938,-83.85169233,21013,10000122,NA
573,Prison,Kentucky,BLACKBURN CORRECTIONAL COMPLEX,9/20/20,https://corrections.ky.gov/Facilities/Pages/covid19.aspx,0,1,0,0,NA,NA,NA,NA,NA,NA,NA,NA,NA,NA,NA,NA,3111 SPURR RD,40511,LEXINGTON,FAYETTE,38.11315935,-84.53720452,21067,10003650,NA
574,Prison,Kentucky,EASTERN KENTUCKY CORRECTIONAL COMPLEX,9/20/20,https://corrections.ky.gov/Facilities/Pages/covid19.aspx,0,0,0,0,NA,NA,NA,NA,NA,NA,NA,NA,NA,NA,NA,NA,200 ROAD TO JUSTICE,41472,WEST LIBERTY,MORGAN,37.90388911,-83.26930995,21175,10000110,NA
