Count.ID,hifld_id,Name,Date,State,City,Facility.Type,Staff.Confirmed,Residents.Confirmed,Staff.Deaths,Residents.Deaths,Staff.Recovered,Residents.Recovered,Staff.Tested,Residents.Tested,Staff.Negative,Residents.Negative,Staff.Pending,Residents.Pending,Staff.Quarantine,Residents.Quarantine,Residents.Population,Residents.Released,Total.Recovered,Address,Zipcode,County,County.FIPS,Latitude,Longitude,Notes,Website
1,10003721,ALEX CITY,2020-08-17,Alabama,ALEX CITY,Prison,4,1,0,0,3,0,NA,NA,NA,NA,NA,NA,NA,NA,NA,NA,NA,HIGHWAY 22 WEST,35011,COOSA,1037,32.9044711353038,-86.0089689681901,NA,http://www.doc.alabama.gov/covid19news
2,10006524,ATEF,2020-08-17,Alabama,COLUMBIANA,Prison,2,1,0,0,2,1,NA,NA,NA,NA,NA,NA,NA,NA,NA,NA,NA,102 INDUSTRIAL PARKWAY,35051,SHELBY,1117,33.1810049880429,-86.6240172421684,NA,http://www.doc.alabama.gov/covid19news
3,10001954,BIBB,2020-08-17,Alabama,BRENT,Prison,13,2,0,0,10,1,NA,NA,NA,NA,NA,NA,NA,NA,NA,NA,NA,565 BIBB LANE,35034,BIBB,1007,32.92242,-87.16458,NA,http://www.doc.alabama.gov/covid19news
4,10001204,BIRMINGHAM,2020-08-17,Alabama,BIRMINGHAM,Prison,12,0,0,0,7,0,NA,NA,NA,NA,NA,NA,NA,NA,NA,NA,NA,1216 25TH ST N,35234,JEFFERSON,1073,33.531046319024,-86.8083618069642,NA,http://www.doc.alabama.gov/covid19news
5,10001223,BULLOCK,2020-08-17,Alabama,UNION SPRINGS,Prison,14,37,0,0,12,7,NA,NA,NA,NA,NA,NA,NA,NA,NA,NA,NA,104 BULLOCK DR,36089,BULLOCK,1011,32.1494028486044,-85.6723201290164,NA,http://www.doc.alabama.gov/covid19news
6,10000142,CAMDEN,2020-08-17,Alabama,CAMDEN,Prison,1,0,0,0,1,0,NA,NA,NA,NA,NA,NA,NA,NA,NA,NA,NA,1780 ALABAMA HWY 221,36726,WILCOX,1131,31.9948370814826,-87.3331232060252,NA,http://www.doc.alabama.gov/covid19news
7,10001209,CHILDERSBURG,2020-08-17,Alabama,ALPINE,Prison,1,0,0,0,0,0,NA,NA,NA,NA,NA,NA,NA,NA,NA,NA,NA,13501 PLANT RD,35014,TALLADEGA,1121,33.3649332316576,-86.3321976226002,NA,http://www.doc.alabama.gov/covid19news
8,NA,CJC,2020-08-17,Alabama,NA,Prison,14,0,0,0,14,0,NA,NA,NA,NA,NA,NA,NA,NA,NA,NA,NA,NA,NA,NA,NA,NA,NA,NA,http://www.doc.alabama.gov/covid19news
9,10000132,DONALDSON,2020-08-17,Alabama,BESSEMER,Prison,6,1,0,0,0,1,NA,NA,NA,NA,NA,NA,NA,NA,NA,NA,NA,100 WARRIOR LN,35023,JEFFERSON,1073,33.5136666293233,-87.1847836879172,NA,http://www.doc.alabama.gov/covid19news
1376,NA,DRAPER QIF,2020-08-17,Alabama,NA,Prison,0,45,0,0,0,23,NA,NA,NA,NA,NA,NA,NA,NA,NA,NA,NA,NA,NA,NA,NA,NA,NA,NA,http://www.doc.alabama.gov/covid19news
10,10000144,EASTERLING,2020-08-17,Alabama,CLIO,Prison,10,30,0,1,8,27,NA,NA,NA,NA,NA,NA,NA,NA,NA,NA,NA,200 WALLACE DR,36017,BARBOUR,1005,31.6893814911132,-85.5855588900077,NA,http://www.doc.alabama.gov/covid19news
11,10001226,ELBA,2020-08-17,Alabama,ELBA,Prison,1,1,0,0,1,1,NA,NA,NA,NA,NA,NA,NA,NA,NA,NA,NA,1620 BOSWELL ST,36323,COFFEE,1031,31.4131238578744,-86.083737482864,NA,http://www.doc.alabama.gov/covid19news
12,10001214,ELMORE,2020-08-17,Alabama,ELMORE,Prison,18,16,0,0,17,10,NA,NA,NA,NA,NA,NA,NA,NA,NA,NA,NA,3520 MARION SPILLWAY ROAD,36025,ELMORE,1051,32.5743047860697,-86.320805817066,NA,http://www.doc.alabama.gov/covid19news
13,10001957,FOUNTAIN,2020-08-17,Alabama,ATMORE,Prison,24,18,0,0,16,12,NA,NA,NA,NA,NA,NA,NA,NA,NA,NA,NA,9677 AL HWY 21 N,36503,ESCAMBIA,1053,31.15658,-87.46372,NA,http://www.doc.alabama.gov/covid19news
14,10003728,FRANK LEE,2020-08-17,Alabama,DEATSVILLE,Prison,9,1,0,0,9,1,NA,NA,NA,NA,NA,NA,NA,NA,NA,NA,NA,5305 INGRAM RD,36022,ELMORE,1051,32.5823545076666,-86.3922184416731,NA,http://www.doc.alabama.gov/covid19news
15,10001197,HAMILTON A I,2020-08-17,Alabama,HAMILTON,Prison,2,1,0,0,2,1,NA,NA,NA,NA,NA,NA,NA,NA,NA,NA,NA,223 SASSER DR,35570,MARION,1093,34.1243461099719,-87.9917193840839,NA,http://www.doc.alabama.gov/covid19news
16,10001199,HAMILTON CBF,2020-08-17,Alabama,HAMILTON,Prison,1,0,0,0,0,0,NA,NA,NA,NA,NA,NA,NA,NA,NA,NA,NA,1826 BEXAR AVE E,35570,MARION,1093,34.1432955913906,-87.9589595847346,NA,http://www.doc.alabama.gov/covid19news
17,10000149,HOLMAN,2020-08-17,Alabama,ATMORE,Prison,16,2,0,0,13,0,NA,NA,NA,NA,NA,NA,NA,NA,NA,NA,NA,866 ROSS RD,36503,ESCAMBIA,1053,31.1343861217976,-87.4498641981132,NA,http://www.doc.alabama.gov/covid19news
18,10001221,KILBY,2020-08-17,Alabama,MONTGOMERY,Prison,37,9,0,1,27,6,NA,NA,NA,NA,NA,NA,NA,NA,NA,NA,NA,12201 WARES FERRY RD,36117,MONTGOMERY,1101,32.3883565356361,-86.1009810977602,NA,http://www.doc.alabama.gov/covid19news
19,10000129,LIMESTONE,2020-08-17,Alabama,HARVEST,Prison,8,0,0,0,4,0,NA,NA,NA,NA,NA,NA,NA,NA,NA,NA,NA,28779 NICK DAVIS RD,35749,LIMESTONE,1083,34.8125439154405,-86.8041330723045,NA,http://www.doc.alabama.gov/covid19news
20,10000146,LOXLEY,2020-08-17,Alabama,LOXLEY,Prison,8,4,0,0,1,0,NA,NA,NA,NA,NA,NA,NA,NA,NA,NA,NA,14880 COUNTY RD 64,36551,BALDWIN,1003,30.6153358014138,-87.7703098408629,NA,http://www.doc.alabama.gov/covid19news
21,10000150,MOBILE,2020-08-17,Alabama,PRITCHARD,Prison,6,0,0,0,5,0,NA,NA,NA,NA,NA,NA,NA,NA,NA,NA,NA,2423 N BELTLINE HWY,36610,MOBILE,1097,30.7378810637015,-88.1090574154399,NA,http://www.doc.alabama.gov/covid19news
22,10001222,MONTGOMERY WF,2020-08-17,Alabama,MONTGOMERY,Prison,5,0,0,0,4,0,NA,NA,NA,NA,NA,NA,NA,NA,NA,NA,NA,12085 WARES FERRY RD,36117,MONTGOMERY,1101,NA,NA,NA,http://www.doc.alabama.gov/covid19news
23,10003698,NORTH ALABAMA,2020-08-17,Alabama,DECATUR,Prison,5,0,0,0,5,0,NA,NA,NA,NA,NA,NA,NA,NA,NA,NA,NA,1401 STATE HIGHWAY 20 WEST,35601,MORGAN,1103,34.6175672820936,-87.0056281349079,NA,http://www.doc.alabama.gov/covid19news
24,10001218,RED EAGLE,2020-08-17,Alabama,MONTGOMERY,Prison,0,0,0,0,0,0,NA,NA,NA,NA,NA,NA,NA,NA,NA,NA,NA,1290 RED EAGLE RD,36110,MONTGOMERY,1101,32.4655943940226,-86.2369042217355,NA,http://www.doc.alabama.gov/covid19news
25,10003710,ST CLAIR,2020-08-17,Alabama,SPRINGVILLE,Prison,22,83,0,9,13,63,NA,NA,NA,NA,NA,NA,NA,NA,NA,NA,NA,1000 SAINT CLAIR ROAD,35146,ST CLAIR,1115,33.7455881749323,-86.3843737334882,NA,http://www.doc.alabama.gov/covid19news
27,10000140,STATON,2020-08-17,Alabama,ELMORE,Prison,34,36,0,6,30,22,NA,NA,NA,NA,NA,NA,NA,NA,NA,NA,NA,2690 MARION SPILLWAY RD,36025,ELMORE,1051,32.5772156986607,-86.3324885203498,NA,http://www.doc.alabama.gov/covid19news
1704,NA,TRAINING ACADEMY,2020-08-17,Alabama,NA,Prison,12,0,0,0,12,0,NA,NA,NA,NA,NA,NA,NA,NA,NA,NA,NA,NA,NA,NA,NA,NA,NA,NA,http://www.doc.alabama.gov/covid19news
28,10001216,TUTWILER,2020-08-17,Alabama,WETUMPKA,Prison,39,12,2,1,33,11,NA,NA,NA,NA,NA,NA,NA,NA,NA,NA,NA,8966 US HWY 231 N,36092,ELMORE,1051,32.5640382,-86.1940048,NA,http://www.doc.alabama.gov/covid19news
1377,NA,TUTWILER QIF,2020-08-17,Alabama,NA,Prison,0,2,0,0,0,1,NA,NA,NA,NA,NA,NA,NA,NA,NA,NA,NA,NA,NA,NA,NA,NA,NA,NA,http://www.doc.alabama.gov/covid19news
29,10000143,VENTRESS,2020-08-17,Alabama,CLAYTON,Prison,22,0,0,0,18,0,NA,NA,NA,NA,NA,NA,NA,NA,NA,NA,NA,379 ALABAMA HWY 239 N,36016,BARBOUR,1005,31.8890286379927,-85.4929980826227,NA,http://www.doc.alabama.gov/covid19news
33,NA,STATEWIDE,2020-08-17,Alaska,NA,Prison,NA,31,NA,NA,NA,NA,NA,3630,NA,3383,NA,187,NA,NA,NA,NA,NA,"1400 E. 4th Ave., Achorage, AK 99501",NA,NA,NA,NA,NA,(5/22/20) the 1 state-wide positive moved to Anchorage CC (and corrected previous dates--happened on 5/19) ( https://doc.alaska.gov/commish/pressreleases/Inmate%20at%20Anchorage%20Correctional%20Complex%20Tests%20Positive%20for%20COVID-19.pdf ) ----- (5/20/20) article reports 11 Lemon Creek staff members positive (https://www.alaskapublic.org/2020/05/20/state-officials-says-theyre-working-to-contain-juneaus-correctional-facility-outbreak/)     (4/26/20) first alaska DOC resident positive at Goose Creek CC ( https://www.adn.com/alaska-news/2020/04/26/inmate-at-wasilla-correctional-center-tests-positive-for-covid-19/ ) ----- (4/16/20) seven staff at Juneau/Lemon Creek test positive (https://www.anchoragepress.com/news/coronavirus/state-officials-speak-about-covid-19-testing-in-prisons/article_636fed1c-8011-11ea-a150-e71b2ff34af8.html) (4/15/20) two more staff (6 total) positive at JuneauLemon Creek Correctional Center ( https://www.alaskapublic.org/2020/04/14/2-more-staffers-at-lemon-creek-correctional-center-test-positive-for-covid-19/ ) ----- (4/14/20) three more Juneau officers test positive (https://www.adn.com/alaska-news/2020/04/13/four-employees-at-juneau-prison-have-tested-positive-for-covid-19/) ----- (4/10/20) first staff member tests positive (https://www.alaskapublic.org/2020/04/09/staff-member-at-juneaus-lemon-creek-correctional-center-has-covid-19/) ----- (4/3/20) article says no cases ( https://www.ktuu.com/content/news/DOC-implements-changes-in-Alaska-prisons-coronavirus-pandemic-569363581.html ),https://doc.alaska.gov/covid-19
30,10003757,ANCHORAGE CCC,2020-08-17,Alaska,ANCHORAGE,Prison,0,NA,0,0,NA,NA,NA,NA,NA,NA,NA,NA,NA,NA,NA,NA,NA,1400 EAST 4TH AVENUE,99501,ANCHORAGE,2020,61.2184209452688,-149.856242353336,(5/22/20) the 1 state-wide positive moved to Anchorage CC (and corrected previous dates--happened on 5/19) ( https://doc.alaska.gov/commish/pressreleases/Inmate%20at%20Anchorage%20Correctional%20Complex%20Tests%20Positive%20for%20COVID-19.pdf ) ----- (5/20/20) article reports 11 Lemon Creek staff members positive (https://www.alaskapublic.org/2020/05/20/state-officials-says-theyre-working-to-contain-juneaus-correctional-facility-outbreak/)     (4/26/20) first alaska DOC resident positive at Goose Creek CC ( https://www.adn.com/alaska-news/2020/04/26/inmate-at-wasilla-correctional-center-tests-positive-for-covid-19/ ) ----- (4/16/20) seven staff at Juneau/Lemon Creek test positive (https://www.anchoragepress.com/news/coronavirus/state-officials-speak-about-covid-19-testing-in-prisons/article_636fed1c-8011-11ea-a150-e71b2ff34af8.html) (4/15/20) two more staff (6 total) positive at JuneauLemon Creek Correctional Center ( https://www.alaskapublic.org/2020/04/14/2-more-staffers-at-lemon-creek-correctional-center-test-positive-for-covid-19/ ) ----- (4/14/20) three more Juneau officers test positive (https://www.adn.com/alaska-news/2020/04/13/four-employees-at-juneau-prison-have-tested-positive-for-covid-19/) ----- (4/10/20) first staff member tests positive (https://www.alaskapublic.org/2020/04/09/staff-member-at-juneaus-lemon-creek-correctional-center-has-covid-19/) ----- (4/3/20) article says no cases ( https://www.ktuu.com/content/news/DOC-implements-changes-in-Alaska-prisons-coronavirus-pandemic-569363581.html ),https://doc.alaska.gov/covid-19
32,10001241,LEMON CREEK CC JUNEAU,2020-08-17,Alaska,JUNEAU,Prison,11,NA,0,0,NA,NA,NA,NA,NA,NA,NA,NA,NA,NA,NA,NA,NA,2000 LEMON CREEK RD,99801,JUNEAU,2110,58.3626063670143,-134.484055461037,(5/22/20) the 1 state-wide positive moved to Anchorage CC (and corrected previous dates--happened on 5/19) ( https://doc.alaska.gov/commish/pressreleases/Inmate%20at%20Anchorage%20Correctional%20Complex%20Tests%20Positive%20for%20COVID-19.pdf ) ----- (5/20/20) article reports 11 Lemon Creek staff members positive (https://www.alaskapublic.org/2020/05/20/state-officials-says-theyre-working-to-contain-juneaus-correctional-facility-outbreak/)     (4/26/20) first alaska DOC resident positive at Goose Creek CC ( https://www.adn.com/alaska-news/2020/04/26/inmate-at-wasilla-correctional-center-tests-positive-for-covid-19/ ) ----- (4/16/20) seven staff at Juneau/Lemon Creek test positive (https://www.anchoragepress.com/news/coronavirus/state-officials-speak-about-covid-19-testing-in-prisons/article_636fed1c-8011-11ea-a150-e71b2ff34af8.html) (4/15/20) two more staff (6 total) positive at JuneauLemon Creek Correctional Center ( https://www.alaskapublic.org/2020/04/14/2-more-staffers-at-lemon-creek-correctional-center-test-positive-for-covid-19/ ) ----- (4/14/20) three more Juneau officers test positive (https://www.adn.com/alaska-news/2020/04/13/four-employees-at-juneau-prison-have-tested-positive-for-covid-19/) ----- (4/10/20) first staff member tests positive (https://www.alaskapublic.org/2020/04/09/staff-member-at-juneaus-lemon-creek-correctional-center-has-covid-19/) ----- (4/3/20) article says no cases ( https://www.ktuu.com/content/news/DOC-implements-changes-in-Alaska-prisons-coronavirus-pandemic-569363581.html ),https://doc.alaska.gov/covid-19
31,10006386,GOOSE CREEK CC,2020-08-17,Alaska,WASILLA,Prison,0,NA,0,0,NA,NA,NA,NA,NA,NA,NA,NA,NA,NA,NA,NA,NA,22301 WEST ALSOP ROAD,99623,MATANUSKA-SUSITNA,2170,61.3603062363605,-150.008447904379,(5/22/20) the 1 state-wide positive moved to Anchorage CC (and corrected previous dates--happened on 5/19) ( https://doc.alaska.gov/commish/pressreleases/Inmate%20at%20Anchorage%20Correctional%20Complex%20Tests%20Positive%20for%20COVID-19.pdf ) ----- (5/20/20) article reports 11 Lemon Creek staff members positive (https://www.alaskapublic.org/2020/05/20/state-officials-says-theyre-working-to-contain-juneaus-correctional-facility-outbreak/)     (4/26/20) first alaska DOC resident positive at Goose Creek CC ( https://www.adn.com/alaska-news/2020/04/26/inmate-at-wasilla-correctional-center-tests-positive-for-covid-19/ ) ----- (4/16/20) seven staff at Juneau/Lemon Creek test positive (https://www.anchoragepress.com/news/coronavirus/state-officials-speak-about-covid-19-testing-in-prisons/article_636fed1c-8011-11ea-a150-e71b2ff34af8.html) (4/15/20) two more staff (6 total) positive at JuneauLemon Creek Correctional Center ( https://www.alaskapublic.org/2020/04/14/2-more-staffers-at-lemon-creek-correctional-center-test-positive-for-covid-19/ ) ----- (4/14/20) three more Juneau officers test positive (https://www.adn.com/alaska-news/2020/04/13/four-employees-at-juneau-prison-have-tested-positive-for-covid-19/) ----- (4/10/20) first staff member tests positive (https://www.alaskapublic.org/2020/04/09/staff-member-at-juneaus-lemon-creek-correctional-center-has-covid-19/) ----- (4/3/20) article says no cases ( https://www.ktuu.com/content/news/DOC-implements-changes-in-Alaska-prisons-coronavirus-pandemic-569363581.html ),https://doc.alaska.gov/covid-19
34,10000618,CACF,2020-08-17,Arizona,FLORENCE,Prison,NA,45,NA,3,NA,35,NA,153,NA,48,NA,60,NA,NA,1234,NA,NA,1401 E DIVERSION DAM RD,85132,PINAL,4021,33.0373101230536,-111.372752812393,NA,https://corrections.az.gov/adcrr-covid-19-dashboard
35,10000632,DOUGLAS,2020-08-17,Arizona,DOUGLAS,Prison,NA,100,NA,0,NA,4,NA,1919,NA,1819,NA,0,NA,NA,1987,NA,NA,6911 N BDI BLVD,85607,COCHISE,4003,31.4624282936093,-109.591229889899,NA,https://corrections.az.gov/adcrr-covid-19-dashboard
37,10000615,EYMAN,2020-08-17,Arizona,FLORENCE,Prison,NA,73,NA,1,NA,7,NA,655,NA,256,NA,326,NA,NA,5516,NA,NA,4374 E BUTTE AVE,85132,PINAL,4021,33.036918712581,-111.326444132106,NA,https://corrections.az.gov/adcrr-covid-19-dashboard
38,10003976,FLORENCE,2020-08-17,Arizona,FLORENCE,Prison,NA,100,NA,9,NA,76,NA,639,NA,450,NA,89,NA,NA,3138,NA,NA,1305 E BUTTE AVE,85132,PINAL,4021,33.0281694875224,-111.370728083404,NA,https://corrections.az.gov/adcrr-covid-19-dashboard
40,10006312,FLORENCE WEST,2020-08-17,Arizona,FLORENCE,Prison,NA,0,NA,0,NA,0,NA,2,NA,2,NA,0,NA,NA,583,NA,NA,915 EAST DIVERSION DAM ROAD,85132,PINAL,4021,33.037233,-111.376527,NA,https://corrections.az.gov/adcrr-covid-19-dashboard
41,10003957,KINGMAN,2020-08-17,Arizona,GOLDEN VALLEY,Prison,NA,29,NA,1,NA,11,NA,52,NA,15,NA,8,NA,NA,2949,NA,NA,4626 WEST ENGLISH DRIVE,86414,MOHAVE,4015,35.0289149689936,-114.179609666708,NA,https://corrections.az.gov/adcrr-covid-19-dashboard
42,10000605,LEWIS,2020-08-17,Arizona,BUCKEYE,Prison,NA,88,NA,0,NA,79,NA,638,NA,546,NA,4,NA,NA,4377,NA,NA,26700 S HWY 85,85326,MARICOPA,4013,33.2085240977115,-112.65146287544,NA,https://corrections.az.gov/adcrr-covid-19-dashboard
43,10000626,MARANA,2020-08-17,Arizona,MARANA,Prison,NA,9,NA,0,NA,9,NA,14,NA,5,NA,0,NA,NA,357,NA,NA,12610 W SILVERBELL RD,85653,PIMA,4019,32.4179103180726,-111.241216057662,NA,https://corrections.az.gov/adcrr-covid-19-dashboard
45,10002246,MRC,2020-08-17,Arizona,PHOENIX,Prison,NA,0,NA,0,NA,0,NA,0,NA,0,NA,0,NA,NA,0,NA,NA,24601 N 29TH AVE,85027,MARICOPA,4013,33.7066965537532,-112.119438494303,NA,https://corrections.az.gov/adcrr-covid-19-dashboard
46,10000606,PERRYVILLE,2020-08-17,Arizona,GOODYEAR,Prison,NA,54,NA,0,NA,20,NA,1819,NA,1760,NA,5,NA,NA,3813,NA,NA,2105 N CITRUS RD,85395,MARICOPA,4013,33.470386538632,-112.437765846248,NA,https://corrections.az.gov/adcrr-covid-19-dashboard
47,10002245,PHOENIX,2020-08-17,Arizona,PHOENIX,Prison,NA,219,NA,0,NA,48,NA,1739,NA,1480,NA,40,NA,NA,585,NA,NA,2500 E VAN BUREN ST,85008,MARICOPA,4013,33.4531298937511,-112.025039936182,NA,https://corrections.az.gov/adcrr-covid-19-dashboard
48,10002244,PHOENIX WEST,2020-08-17,Arizona,PHOENIX,Prison,NA,1,NA,0,NA,1,NA,5,NA,4,NA,0,NA,NA,413,NA,NA,3402 W COCOPAH ST,85009,MARICOPA,4013,33.4327771087915,-112.132608518994,NA,https://corrections.az.gov/adcrr-covid-19-dashboard
49,10000630,PRC,2020-08-17,Arizona,TUCSON,Prison,NA,0,NA,0,NA,0,NA,0,NA,0,NA,0,NA,NA,0,NA,NA,1275 W STARR PASS BLVD,85713,PIMA,4019,32.2037634021086,-110.990933342116,NA,https://corrections.az.gov/adcrr-covid-19-dashboard
50,10003974,RED ROCK,2020-08-17,Arizona,ELOY,Prison,NA,5,NA,0,NA,0,NA,34,NA,23,NA,6,NA,NA,1939,NA,NA,1750 EAST ARICA ROAD,85131,PINAL,4021,32.81056,-111.5196,NA,https://corrections.az.gov/adcrr-covid-19-dashboard
51,10002248,SAFFORD,2020-08-17,Arizona,SAFFORD,Prison,NA,11,NA,0,NA,4,NA,1441,NA,1428,NA,2,NA,NA,1513,NA,NA,896 S COOK RD,85546,GRAHAM,4009,32.8281014903222,-109.563639646635,NA,https://corrections.az.gov/adcrr-covid-19-dashboard
53,10000628,TUCSON,2020-08-17,Arizona,TUCSON,Prison,NA,759,NA,9,NA,61,NA,3338,NA,2573,NA,6,NA,NA,4785,NA,NA,10000 S WILMOT RD,85734,PIMA,4019,32.0664009742032,-110.866312189544,NA,https://corrections.az.gov/adcrr-covid-19-dashboard
54,10000595,WINSLOW,2020-08-17,Arizona,WINSLOW,Prison,NA,4,NA,0,NA,0,NA,166,NA,159,NA,3,NA,NA,1327,NA,NA,2100 S HWY 87,86047,NAVAJO,4017,34.9847162543998,-110.721089146459,NA,https://corrections.az.gov/adcrr-covid-19-dashboard
55,10000622,YUMA,2020-08-17,Arizona,SAN LUIS,Prison,NA,109,NA,2,NA,105,NA,569,NA,457,NA,3,NA,NA,4643,NA,NA,7125 E CESAR CHAVEZ BLVD,85349,YUMA,4027,32.4875018147952,-114.639715334307,NA,https://corrections.az.gov/adcrr-covid-19-dashboard
52,NA,STATEWIDE,2020-08-17,Arizona,NA,Prison,652,NA,NA,NA,588,NA,NA,NA,NA,NA,NA,NA,NA,NA,NA,NA,NA,NA,NA,NA,NA,NA,NA,NA,https://corrections.az.gov/adcrr-covid-19-dashboard
57,NA,STATEWIDE,2020-08-17,Arkansas,NA,Prison,345,5622,NA,NA,303,4985,3175,9525,NA,NA,NA,NA,NA,NA,NA,NA,NA,NA,NA,NA,NA,NA,NA,NA,https://adc.arkansas.gov/coronavirus-covid-19-updates
56,10000085,CUMMINS UNIT PRISON,2020-08-17,Arkansas,GRADY,Prison,NA,NA,NA,5,NA,NA,NA,NA,NA,NA,NA,NA,NA,NA,NA,NA,NA,STATE HWY 388,71644,LINCOLN,5079,34.0515222523553,-91.5840717499333,NA,https://adc.arkansas.gov/coronavirus-covid-19-updates
91,NA,RICHARD A MCGEE CORRECTIONAL TRAINING CENTER GALT,2020-08-17,California,GALT,Prison,9,NA,NA,NA,5,NA,NA,NA,NA,NA,NA,NA,NA,NA,NA,NA,NA,9850 TWIN CITIES RD,95632,NA,6067,38.2890255,-121.3279067,NA,https://www.cdcr.ca.gov/covid19/population-status-tracking/
83,10000796,NCYCC NORTHERN CALIFORNIA YOUTH CORRECTIONAL CENTER,2020-08-17,California,STOCKTON,Prison,9,NA,NA,NA,4,NA,NA,NA,NA,NA,NA,NA,NA,NA,NA,NA,NA,7650 SOUTH NEWCASTLE ROAD,95215,SAN JOAQUIN,6077,37.8911829,-121.1978213,NA,https://www.cdcr.ca.gov/covid19/population-status-tracking/
86,10000793,OH CLOSE YOUTH CORRECTIONAL FACILITY,2020-08-17,California,STOCKTON,Prison,4,NA,NA,NA,1,NA,NA,NA,NA,NA,NA,NA,NA,NA,NA,NA,NA,7650 SOUTH NEWCASTLE ROAD,95213,SAN JOAQUIN,6077,37.8985212552692,-121.197694670182,NA,https://www.cdcr.ca.gov/covid19/population-status-tracking/
82,10000796,CHADERJIAN YOUTH CORRECTIONAL FACILITY,2020-08-17,California,STOCKTON,Prison,3,NA,NA,NA,2,NA,NA,NA,NA,NA,NA,NA,NA,NA,NA,NA,NA,7650 SOUTH NEWCASTLE ROAD,95215,SAN JOAQUIN,6077,37.8911829,-121.1978212,NA,https://www.cdcr.ca.gov/covid19/population-status-tracking/
1687,NA,VENTURA,2020-08-17,California,NA,Prison,12,NA,NA,NA,5,NA,NA,NA,NA,NA,NA,NA,NA,NA,NA,NA,NA,NA,NA,NA,NA,NA,NA,NA,https://www.cdcr.ca.gov/covid19/population-status-tracking/
101,NA,CDCR CCHCS WORKSITE LOCATION LOS ANGELES COUNTY,2020-08-17,California,NA,Prison,7,NA,NA,NA,5,NA,NA,NA,NA,NA,NA,NA,NA,NA,NA,NA,NA,NA,NA,NA,6037,NA,NA,NA,https://www.cdcr.ca.gov/covid19/population-status-tracking/
1644,NA,CDCR CCHCS WORKSITE LOCATION KERN COUNTY,2020-08-17,California,NA,Prison,6,NA,NA,NA,3,NA,NA,NA,NA,NA,NA,NA,NA,NA,NA,NA,NA,NA,NA,NA,NA,NA,NA,NA,https://www.cdcr.ca.gov/covid19/population-status-tracking/
103,NA,CDCR CCHCS WORKSITE SACRAMENTO COUNTY,2020-08-17,California,NA,Prison,33,NA,NA,NA,7,NA,NA,NA,NA,NA,NA,NA,NA,NA,NA,NA,NA,NA,NA,NA,6067,NA,NA,NA,https://www.cdcr.ca.gov/covid19/population-status-tracking/
104,NA,CDCR CCHCS WORKSITE SAN BERNARDINO COUNTY,2020-08-17,California,NA,Prison,9,NA,NA,NA,2,NA,NA,NA,NA,NA,NA,NA,NA,NA,NA,NA,NA,NA,NA,NA,6071,NA,NA,NA,https://www.cdcr.ca.gov/covid19/population-status-tracking/
1390,NA,CDCR CCHCS WORKSITE SAN DIEGO COUNTY,2020-08-17,California,NA,Prison,1,NA,NA,NA,0,NA,NA,NA,NA,NA,NA,NA,NA,NA,NA,NA,NA,NA,NA,NA,NA,NA,NA,NA,https://www.cdcr.ca.gov/covid19/population-status-tracking/
1389,NA,CDCR CCHCS WORKSITE SAN JOAQUIN COUNTY,2020-08-17,California,NA,Prison,2,NA,NA,NA,2,NA,NA,NA,NA,NA,NA,NA,NA,NA,NA,NA,NA,NA,NA,NA,NA,NA,NA,NA,https://www.cdcr.ca.gov/covid19/population-status-tracking/
1736,NA,CDCR CCHCS WORKSITE LOCATION ORANGE COUNTY,2020-08-17,California,NA,Prison,0,NA,NA,NA,0,NA,NA,NA,NA,NA,NA,NA,NA,NA,NA,NA,NA,NA,NA,NA,NA,NA,NA,NA,https://www.cdcr.ca.gov/covid19/population-status-tracking/
1734,NA,CDCR CCHCS WORKSITE LOCATION SANTA CLARA COUNTY,2020-08-17,California,NA,Prison,0,NA,NA,NA,0,NA,NA,NA,NA,NA,NA,NA,NA,NA,NA,NA,NA,NA,NA,NA,NA,NA,NA,NA,https://www.cdcr.ca.gov/covid19/population-status-tracking/
1735,NA,CDCR CCHCS WORKSITE LOCATION SAN LUIS OBISPO COUNTY,2020-08-17,California,NA,Prison,0,NA,NA,NA,0,NA,NA,NA,NA,NA,NA,NA,NA,NA,NA,NA,NA,NA,NA,NA,NA,NA,NA,NA,https://www.cdcr.ca.gov/covid19/population-status-tracking/
1683,NA,CDCR CCHCS WORKSITE LOCATION SOLANO COUNTY,2020-08-17,California,NA,Prison,1,NA,NA,NA,1,NA,NA,NA,NA,NA,NA,NA,NA,NA,NA,NA,NA,NA,NA,NA,NA,NA,NA,NA,https://www.cdcr.ca.gov/covid19/population-status-tracking/
1686,NA,CDCR CCHCS WORKSITE LOCATION VENTURA COUNTY,2020-08-17,California,NA,Prison,1,NA,NA,NA,0,NA,NA,NA,NA,NA,NA,NA,NA,NA,NA,NA,NA,NA,NA,NA,NA,NA,NA,NA,https://www.cdcr.ca.gov/covid19/population-status-tracking/
1682,NA,CDCR CCHCS WORKSITE LOCATION SANTA BARBARA COUNTY,2020-08-17,California,NA,Prison,1,NA,NA,NA,0,NA,NA,NA,NA,NA,NA,NA,NA,NA,NA,NA,NA,NA,NA,NA,NA,NA,NA,NA,https://www.cdcr.ca.gov/covid19/population-status-tracking/
1684,NA,CDCR CCHCS WORKSITE LOCATION STANISLAUS COUNTY,2020-08-17,California,NA,Prison,1,NA,NA,NA,0,NA,NA,NA,NA,NA,NA,NA,NA,NA,NA,NA,NA,NA,NA,NA,NA,NA,NA,NA,https://www.cdcr.ca.gov/covid19/population-status-tracking/
1685,NA,CDCR CCHCS WORKSITE LOCATION TULARE COUNTY,2020-08-17,California,NA,Prison,1,NA,NA,NA,0,NA,NA,NA,NA,NA,NA,NA,NA,NA,NA,NA,NA,NA,NA,NA,NA,NA,NA,NA,https://www.cdcr.ca.gov/covid19/population-status-tracking/
1681,NA,CDCR CCHCS WORKSITE LOCATION MONTEREY COUNTY,2020-08-17,California,NA,Prison,2,NA,NA,NA,1,NA,NA,NA,NA,NA,NA,NA,NA,NA,NA,NA,NA,NA,NA,NA,NA,NA,NA,NA,https://www.cdcr.ca.gov/covid19/population-status-tracking/
1737,NA,CDCR CCHCS WORKSITE LOCATION MENDOCINO COUNTY,2020-08-17,California,NA,Prison,1,NA,NA,NA,0,NA,NA,NA,NA,NA,NA,NA,NA,NA,NA,NA,NA,NA,NA,NA,NA,NA,NA,NA,https://www.cdcr.ca.gov/covid19/population-status-tracking/
102,NA,CDCR CCHCS WORKSITE RIVERSIDE COUNTY,2020-08-17,California,NA,Prison,1,NA,NA,NA,0,NA,NA,NA,NA,NA,NA,NA,NA,NA,NA,NA,NA,NA,NA,NA,6065,NA,NA,NA,https://www.cdcr.ca.gov/covid19/population-status-tracking/
1739,NA,CDCR CCHCS WORKSITE LOCATION FRESNO COUNTY,2020-08-17,California,NA,Prison,2,NA,NA,NA,0,NA,NA,NA,NA,NA,NA,NA,NA,NA,NA,NA,NA,NA,NA,NA,NA,NA,NA,NA,https://www.cdcr.ca.gov/covid19/population-status-tracking/
1738,NA,CDCR CCHCS WORKSITE LOCATION IMPERIAL COUNTY,2020-08-17,California,NA,Prison,1,NA,NA,NA,0,NA,NA,NA,NA,NA,NA,NA,NA,NA,NA,NA,NA,NA,NA,NA,NA,NA,NA,NA,https://www.cdcr.ca.gov/covid19/population-status-tracking/
62,10001530,CCI CALIFORNIA CORRECTIONAL INSTITUTION,2020-08-17,California,TEHACHAPI,Prison,160,779,NA,0,118,519,NA,858,NA,NA,NA,NA,NA,NA,NA,48,NA,24900 HWY 202,93561,KERN,6029,35.1099148928619,-118.570330731637,NA,https://www.cdcr.ca.gov/covid19/population-status-tracking/
68,10002345,CMC CALIFORNIA MENS COLONY,2020-08-17,California,SAN LUIS OBISPO,Prison,18,225,NA,0,4,11,NA,2392,NA,NA,NA,NA,NA,NA,NA,3,NA,COLONY DRIVE,93409,SAN LUIS OBISPO,6079,35.3245741251231,-120.69890052872,NA,https://www.cdcr.ca.gov/covid19/population-status-tracking/
58,10000826,ASP AVENAL STATE PRISON,2020-08-17,California,AVENAL,Prison,120,1602,NA,5,47,1340,NA,866,NA,NA,NA,NA,NA,NA,NA,56,NA,1 KINGS WAY,93204,KINGS,6031,35.9739493414584,-120.123101796189,NA,https://www.cdcr.ca.gov/covid19/population-status-tracking/
70,10000824,COR CALIFORNIA STATE PRISON CORCORAN,2020-08-17,California,CORCORAN,Prison,115,330,NA,1,34,176,NA,1457,NA,NA,NA,NA,NA,NA,NA,2,NA,4001 KING AVENUE,93212,KINGS,6031,36.0608182328209,-119.549121025513,NA,https://www.cdcr.ca.gov/covid19/population-status-tracking/
75,10000780,FSP FOLSOM STATE PRISON,2020-08-17,California,REPRESA,Prison,8,132,NA,0,5,4,NA,1408,NA,NA,NA,NA,NA,NA,NA,4,NA,300 PRISON ROAD,95671,SACRAMENTO,6067,38.6953833866258,-121.163032416831,NA,https://www.cdcr.ca.gov/covid19/population-status-tracking/
97,10000790,SQ CA STATE PRISON SAN QUENTIN,2020-08-17,California,SAN QUENTIN,Prison,272,2236,NA,25,100,2081,NA,1064,NA,NA,NA,NA,NA,NA,NA,54,NA,MAIN STREET,94964,MARIN,6041,37.940039821471,-122.490366544075,NA,https://www.cdcr.ca.gov/covid19/population-status-tracking/
71,10000856,CRC CALIFORNIA REHABILITATION CENTER,2020-08-17,California,NORCO,Prison,69,454,NA,0,33,379,NA,585,NA,NA,NA,NA,NA,NA,NA,13,NA,3195 WESTERN AVENUE,92860,RIVERSIDE,6065,33.9269179390345,-117.575944249023,NA,https://www.cdcr.ca.gov/covid19/population-status-tracking/
61,10000773,CCC CALIFORNIA CORRECTIONAL CENTER,2020-08-17,California,SUSANVILLE,Prison,22,651,NA,0,17,561,NA,1664,NA,NA,NA,NA,NA,NA,NA,32,NA,711-045 CENTER ROAD,96127,LASSEN,6035,40.4019580138645,-120.516730227462,NA,https://www.cdcr.ca.gov/covid19/population-status-tracking/
67,10002341,CIW CALIFORNIA INSTITUTION FOR WOMEN,2020-08-17,California,CORONA,Prison,65,349,NA,1,59,292,NA,777,NA,NA,NA,NA,NA,NA,NA,11,NA,16756 CHINO-CORONA ROAD,92880,SAN BERNARDINO,6071,33.9497453136527,-117.636365028305,NA,https://www.cdcr.ca.gov/covid19/population-status-tracking/
66,10000836,CIM CALIFORNIA INSTITUTION FOR MEN,2020-08-17,California,CHINO,Prison,164,1104,NA,20,73,1012,NA,622,NA,NA,NA,NA,NA,NA,NA,32,NA,14901 CENTRAL AVENUE,91710,SAN BERNARDINO,6071,33.9847122335384,-117.682391853473,NA,https://www.cdcr.ca.gov/covid19/population-status-tracking/
106,10000847,WSP WASCO STATE PRISON,2020-08-17,California,WASCO,Prison,78,206,NA,0,27,137,NA,334,NA,NA,NA,NA,NA,NA,NA,29,NA,701 SCOFIELD AVENUE,93280,KERN,6029,35.5943118923445,-119.408331932536,NA,https://www.cdcr.ca.gov/covid19/population-status-tracking/
81,10000782,MCSP MULE CREEK STATE PRISON,2020-08-17,California,IONE,Prison,13,43,NA,0,4,10,NA,1926,NA,NA,NA,NA,NA,NA,NA,1,NA,4001 STATE HIGHWAY 104,95640,AMADOR,6005,38.3707433501933,-120.953445839295,NA,https://www.cdcr.ca.gov/covid19/population-status-tracking/
72,10000817,CTF CORRECTIONAL TRAINING FACILITY,2020-08-17,California,SOLEDAD,Prison,5,33,NA,0,2,0,NA,902,NA,NA,NA,NA,NA,NA,NA,2,NA,SOLEDAD PRISON ROAD,93960,MONTEREY,6053,36.4696478936682,-121.382232403834,NA,https://www.cdcr.ca.gov/covid19/population-status-tracking/
64,10002348,CEN CALIFORNIA STATE PRISON CENTINELA,2020-08-17,California,IMPERIAL,Prison,76,56,NA,0,23,31,NA,480,NA,NA,NA,NA,NA,NA,NA,2,NA,2302 BROWN ROAD,92251,IMPERIAL,6025,32.823397305688,-115.789055484473,NA,https://www.cdcr.ca.gov/covid19/population-status-tracking/
77,10000861,ISP IRONWOOD STATE PRISON,2020-08-17,California,BLYTHE,Prison,112,63,NA,0,98,45,NA,160,NA,NA,NA,NA,NA,NA,NA,5,NA,19005 WILEYS WELL ROAD,92225,RIVERSIDE,6065,33.560981035264,-114.926035362339,NA,https://www.cdcr.ca.gov/covid19/population-status-tracking/
78,10000844,KVSP KERN VALLEY STATE PRISON,2020-08-17,California,DELANO,Prison,69,10,NA,0,17,4,NA,2267,NA,NA,NA,NA,NA,NA,NA,0,NA,3000 WEST CECIL AVENUE,93216,KERN,6029,35.7664743652153,-119.325362738915,NA,https://www.cdcr.ca.gov/covid19/population-status-tracking/
63,10000801,CCWF CENTRAL CA WOMENS FACILITY,2020-08-17,California,CHOWCHILLA,Prison,24,16,NA,0,7,11,NA,454,NA,NA,NA,NA,NA,NA,NA,0,NA,23370 ROAD 22,93610,MADERA,6039,37.0936807281885,-120.152709794697,NA,https://www.cdcr.ca.gov/covid19/population-status-tracking/
79,10002353,LAC CALIFORNIA STATE PRISON LOS ANGELES COUNTY,2020-08-17,California,LANCASTER,Prison,77,139,NA,0,46,135,NA,456,NA,NA,NA,NA,NA,NA,NA,1,NA,44750 60TH STREET WEST,93536,LOS ANGELES,6037,34.6935964888811,-118.227613596015,NA,https://www.cdcr.ca.gov/covid19/population-status-tracking/
95,10001522,SCC SIERRA CONSERVATION CENTER,2020-08-17,California,JAMESTOWN,Prison,13,4,NA,0,3,1,NA,559,NA,NA,NA,NA,NA,NA,NA,0,NA,5100 OBYRNES FERRY ROAD,95327,TUOLUMNE,6109,37.8916885580805,-120.536540080055,NA,https://www.cdcr.ca.gov/covid19/population-status-tracking/
99,10000821,SVSP SALINAS VALLEY STATE PRISON,2020-08-17,California,SOLEDAD,Prison,26,6,NA,0,5,3,NA,282,NA,NA,NA,NA,NA,NA,NA,0,NA,31625 HIGHWAY 101,93960,MONTEREY,6053,36.47885698691,-121.374394413182,NA,https://www.cdcr.ca.gov/covid19/population-status-tracking/
100,10000802,VSP VALLEY STATE PRISON,2020-08-17,California,CHOWCHILLA,Prison,29,3,NA,0,18,0,NA,1294,NA,NA,NA,NA,NA,NA,NA,0,NA,21633 AVENUE 24,93610,MADERA,6039,37.1054773613022,-120.155471857763,NA,https://www.cdcr.ca.gov/covid19/population-status-tracking/
69,10000785,CMF CALIFORNIA MEDICAL FACILITY,2020-08-17,California,VACAVILLE,Prison,32,6,NA,0,3,4,NA,518,NA,NA,NA,NA,NA,NA,NA,0,NA,1600 CALIFORNIA DRIVE,95696,SOLANO,6095,38.3285101901373,-121.979164470167,NA,https://www.cdcr.ca.gov/covid19/population-status-tracking/
93,10002322,SAC CALIFORNIA STATE PRISON SACRAMENTO,2020-08-17,California,REPRESA,Prison,31,10,NA,0,15,5,NA,549,NA,NA,NA,NA,NA,NA,NA,3,NA,100 PRISON ROAD,95671,SACRAMENTO,6067,38.6944441052245,-121.153903672444,NA,https://www.cdcr.ca.gov/covid19/population-status-tracking/
60,10002347,CAL CALIPATRIA STATE PRISON,2020-08-17,California,CALIPATRIA,Prison,78,26,NA,0,44,16,NA,493,NA,NA,NA,NA,NA,NA,NA,9,NA,7018 BLAIR ROAD,92233,IMPERIAL,6025,33.1656933673148,-115.484343996698,NA,https://www.cdcr.ca.gov/covid19/population-status-tracking/
65,10000799,CHCF CALIFORNIA HEALTH CARE FACILITY,2020-08-17,California,STOCKTON,Prison,93,4,NA,0,39,3,NA,499,NA,NA,NA,NA,NA,NA,NA,0,NA,7707 AUSTIN ROAD,95215,SAN JOAQUIN,6077,37.8947278,-121.1848441,NA,https://www.cdcr.ca.gov/covid19/population-status-tracking/
90,10000810,PVSP PLEASANT VALLEY STATE PRISON,2020-08-17,California,COALINGA,Prison,16,2,NA,0,5,1,NA,558,NA,NA,NA,NA,NA,NA,NA,0,NA,24863 WEST JAYNE AVENUE,93210,FRESNO,6019,36.1314730871758,-120.248899603834,NA,https://www.cdcr.ca.gov/covid19/population-status-tracking/
92,10000869,RJD RICHARD J DONOVAN CORRECTIONAL FACILITY,2020-08-17,California,SAN DIEGO,Prison,47,3,NA,0,19,2,NA,329,NA,NA,NA,NA,NA,NA,NA,0,NA,480 ALTA ROAD,92179,SAN DIEGO,6073,32.5845648725376,-116.933576346021,NA,https://www.cdcr.ca.gov/covid19/population-status-tracking/
98,NA,SATF SUBSTANCE ABUSE TREATMENT FACILITY,2020-08-17,California,NA,Prison,32,10,NA,0,12,8,NA,177,NA,NA,NA,NA,NA,NA,NA,1,NA,NA,NA,NA,NA,NA,NA,NA,https://www.cdcr.ca.gov/covid19/population-status-tracking/
59,10000852,CAC CALIFORNIA CITY CORRECTIONAL FACILITY,2020-08-17,California,CALIFORNIA CITY,Prison,17,1,NA,0,7,1,NA,598,NA,NA,NA,NA,NA,NA,NA,0,NA,22844 VIRGINIA BLVD,93505,KERN,6029,35.1532511952489,-117.85888005202,NA,https://www.cdcr.ca.gov/covid19/population-status-tracking/
73,10002346,CVSP CHUCKAWALLA VALLEY STATE PRISON,2020-08-17,California,BLYTHE,Prison,73,1054,NA,2,67,1035,NA,81,NA,NA,NA,NA,NA,NA,NA,17,NA,19025 WILEYS WELL ROAD,92225,RIVERSIDE,6065,33.5625795084436,-114.909505761772,NA,https://www.cdcr.ca.gov/covid19/population-status-tracking/
74,10000794,DVI DEUEL VOCATIONAL INSTITUTION,2020-08-17,California,TRACY,Prison,35,0,NA,0,6,0,NA,445,NA,NA,NA,NA,NA,NA,NA,0,NA,23500 KASSON ROAD,95304,SAN JOAQUIN,6077,37.7480575885474,-121.330626376506,NA,https://www.cdcr.ca.gov/covid19/population-status-tracking/
76,10002310,HDSP HIGH DESERT STATE PRISON,2020-08-17,California,SUSANVILLE,Prison,19,5,NA,0,15,5,NA,115,NA,NA,NA,NA,NA,NA,NA,0,NA,475-750 RICE CANYON ROAD,96127,LASSEN,6035,40.4034569,-120.5258579,NA,https://www.cdcr.ca.gov/covid19/population-status-tracking/
84,10000841,NKSP NORTH KERN STATE PRISON,2020-08-17,California,DELANO,Prison,113,10,NA,0,22,9,NA,236,NA,NA,NA,NA,NA,NA,NA,1,NA,2737 WEST CECIL AVENUE,93215,KERN,6029,35.7818851211983,-119.309875666034,NA,https://www.cdcr.ca.gov/covid19/population-status-tracking/
88,10002309,PBSP PELICAN BAY STATE PRISON,2020-08-17,California,CRESCENT CITY,Prison,26,0,NA,0,18,0,NA,33,NA,NA,NA,NA,NA,NA,NA,0,NA,5905 LAKE EARL DRIVE,95531,DEL NORTE,6015,41.8548085129846,-124.149075142913,NA,https://www.cdcr.ca.gov/covid19/population-status-tracking/
96,10002323,SOL CALIFORNIA STATE PRISON SOLANO,2020-08-17,California,VACAVILLE,Prison,30,2,NA,0,3,2,NA,128,NA,NA,NA,NA,NA,NA,NA,0,NA,2100 PEABODY ROAD,95687,SOLANO,6095,38.3207765164984,-121.975236909963,NA,https://www.cdcr.ca.gov/covid19/population-status-tracking/
107,10002228,ARKANSAS VALLEY CORRECTIONAL FACILITY,2020-08-17,Colorado,ORDWAY,Prison,NA,0,NA,0,NA,0,NA,17,NA,NA,NA,NA,NA,NA,NA,NA,NA,12750 HIGHWAY 96 AT LANE 13,81034,CROWLEY,8025,38.1914682690407,-103.842185413539,NA,https://www.colorado.gov/pacific/cdoc/covid-19-faq-and-updates
108,10002225,ARROWHEAD CORRECTIONAL FACILITY,2020-08-17,Colorado,CANON CITY,Prison,NA,1,NA,0,NA,1,NA,1630,NA,NA,NA,NA,NA,NA,NA,NA,NA,E US HIGHWAY 50 AND EVANS BLVD,81212,FREMONT,8043,38.4361032776577,-105.159095580384,NA,https://www.colorado.gov/pacific/cdoc/covid-19-faq-and-updates
109,10002233,BENT COUNTY CORRECTIONAL FACILITY,2020-08-17,Colorado,LAS ANIMAS,Prison,NA,0,NA,0,NA,0,NA,155,NA,NA,NA,NA,NA,NA,NA,NA,NA,11560 ROAD FF75,81054,BENT,8011,38.0645630889985,-103.204792244019,NA,https://www.colorado.gov/pacific/cdoc/covid-19-faq-and-updates
110,10000573,BUENA VISTA CORRECTIONAL COMPLEX,2020-08-17,Colorado,BUENA VISTA,Prison,NA,197,NA,0,NA,190,NA,5771,NA,NA,NA,NA,NA,NA,NA,NA,NA,5125 HWY 24  285,81211,CHAFFEE,8015,38.8221011783482,-106.114713494582,NA,https://www.colorado.gov/pacific/cdoc/covid-19-faq-and-updates
111,10002226,CENTENNIAL CORRECTIONAL FACILITY,2020-08-17,Colorado,CANON CITY,Prison,NA,16,NA,0,NA,4,NA,2439,NA,NA,NA,NA,NA,NA,NA,NA,NA,E US HIGHWAY 50 EVANS BLVD,81215,FREMONT,8043,NA,NA,NA,https://www.colorado.gov/pacific/cdoc/covid-19-faq-and-updates
112,10000563,COLORADO CORRECTIONAL CENTER,2020-08-17,Colorado,GOLDEN,Prison,NA,0,NA,0,NA,0,NA,197,NA,NA,NA,NA,NA,NA,NA,NA,NA,15445 SOUTH GOLDEN ROAD,80401,JEFFERSON,8059,39.7349373568258,-105.171343039098,NA,https://www.colorado.gov/pacific/cdoc/covid-19-faq-and-updates
113,10002227,COLORADO STATE PENITENTIARY,2020-08-17,Colorado,CANON CITY,Prison,NA,8,NA,0,NA,28,NA,2204,NA,NA,NA,NA,NA,NA,NA,NA,NA,E US HIGHWAY 50 EVANS BLVD,81215,FREMONT,8043,NA,NA,NA,https://www.colorado.gov/pacific/cdoc/covid-19-faq-and-updates
114,10000578,COLORADO TERRITORIAL CORRECTIONAL FACILITY,2020-08-17,Colorado,CANON CITY,Prison,NA,0,NA,0,NA,0,NA,783,NA,NA,NA,NA,NA,NA,NA,NA,NA,275 WEST UNITED STATES HIGHWAY 50,81215,FREMONT,8043,38.4380231656977,-105.24869508166,NA,https://www.colorado.gov/pacific/cdoc/covid-19-faq-and-updates
115,10000585,CROWLEY COUNTY CORRECTIONAL FACILITY,2020-08-17,Colorado,OLNEY SPRINGS,Prison,NA,63,NA,0,NA,63,NA,1762,NA,NA,NA,NA,NA,NA,NA,NA,NA,6564 HIGHWAY 96,81062,CROWLEY,8025,38.156738677307096,-103.957302296227,NA,https://www.colorado.gov/pacific/cdoc/covid-19-faq-and-updates
116,10000569,DELTA CORRECTIONAL FACILITY,2020-08-17,Colorado,DELTA,Prison,NA,0,NA,0,NA,0,NA,40,NA,NA,NA,NA,NA,NA,NA,NA,NA,11363 LOCKHART ROAD,81416,DELTA,8029,38.7091161668528,-108.1486111854,NA,https://www.colorado.gov/pacific/cdoc/covid-19-faq-and-updates
117,10000560,DENVER RECEPTION DIAGNOSTIC CENTER,2020-08-17,Colorado,DENVER,Prison,NA,6,NA,0,NA,6,NA,2035,NA,NA,NA,NA,NA,NA,NA,NA,NA,10900 SMITH ROAD,80239,DENVER,8031,NA,NA,NA,https://www.colorado.gov/pacific/cdoc/covid-19-faq-and-updates
118,10000561,DENVER WOMENS CORRECTIONAL FACILITY,2020-08-17,Colorado,DENVER,Prison,NA,1,NA,0,NA,1,NA,1151,NA,NA,NA,NA,NA,NA,NA,NA,NA,3600 HAVANA STREET,80239,DENVER,8031,39.7651022530035,-104.860783989209,NA,https://www.colorado.gov/pacific/cdoc/covid-19-faq-and-updates
119,10000577,FOUR MILE CORRECTIONAL FACILITY,2020-08-17,Colorado,CANON CITY,Prison,NA,0,NA,0,NA,0,NA,115,NA,NA,NA,NA,NA,NA,NA,NA,NA,E US HIGHWAY 50  EVANS BLVD,81212,FREMONT,8043,38.4297698263386,-105.147850868231,NA,https://www.colorado.gov/pacific/cdoc/covid-19-faq-and-updates
1707,10000576,FREMONT CORRECTIONAL FACILITY,2020-08-17,Colorado,CANON CITY,Prison,NA,0,NA,0,NA,0,NA,138,NA,NA,NA,NA,NA,NA,NA,NA,NA,E US HIGHWAY 50 EVANS BLVD,81215,FREMONT,8043,NA,NA,NA,https://www.colorado.gov/pacific/cdoc/covid-19-faq-and-updates
121,10000586,LA VISTA CORRECTIONAL FACILITY,2020-08-17,Colorado,PUEBLO,Prison,NA,0,NA,0,NA,0,NA,82,NA,NA,NA,NA,NA,NA,NA,NA,NA,1401 WEST 17TH STREET,81003,PUEBLO,8101,38.2848496624821,-104.628197370638,NA,https://www.colorado.gov/pacific/cdoc/covid-19-faq-and-updates
1706,NA,LIMON CORRECTIONAL FACILITY,2020-08-17,Colorado,NA,Prison,NA,0,NA,0,NA,0,NA,384,NA,NA,NA,NA,NA,NA,NA,NA,NA,NA,NA,NA,NA,NA,NA,NA,https://www.colorado.gov/pacific/cdoc/covid-19-faq-and-updates
123,10000557,RIFLE CORRECTIONAL CENTER,2020-08-17,Colorado,RIFLE,Prison,NA,0,NA,0,NA,0,NA,25,NA,NA,NA,NA,NA,NA,NA,NA,NA,200 COUNTY ROAD 219,81650,GARFIELD,8045,39.6501662571741,-107.779048773069,NA,https://www.colorado.gov/pacific/cdoc/covid-19-faq-and-updates
124,10000587,SAN CARLOS CORRECTIONAL FACILITY,2020-08-17,Colorado,PUEBLO,Prison,NA,0,NA,0,NA,0,NA,170,NA,NA,NA,NA,NA,NA,NA,NA,NA,1410 WEST 13TH STREET,81003,PUEBLO,8101,NA,NA,NA,https://www.colorado.gov/pacific/cdoc/covid-19-faq-and-updates
120,NA,SKYLINE CORRECTIONAL CENTER,2020-08-17,Colorado,NA,Prison,NA,0,NA,0,NA,0,NA,8,NA,NA,NA,NA,NA,NA,NA,NA,NA,NA,NA,NA,NA,NA,NA,NA,https://www.colorado.gov/pacific/cdoc/covid-19-faq-and-updates
127,10000554,STERLING CORRECTIONAL FACILITY,2020-08-17,Colorado,STERLING,Prison,NA,564,NA,3,NA,561,NA,5122,NA,NA,NA,NA,NA,NA,NA,NA,NA,12101 HIGHWAY 61,80751,LOGAN,8075,40.6112345844626,-103.162101487714,NA,https://www.colorado.gov/pacific/cdoc/covid-19-faq-and-updates
128,10000593,TRINIDAD CORRECTIONAL FACILITY,2020-08-17,Colorado,MODEL,Prison,NA,0,NA,0,NA,0,NA,90,NA,NA,NA,NA,NA,NA,NA,NA,NA,21000 HIGHWAY 350 EAST,81059,LAS ANIMAS,8071,37.3003461259738,-104.286657080323,NA,https://www.colorado.gov/pacific/cdoc/covid-19-faq-and-updates
129,10000588,YOUTHFUL OFFENDER SYSTEM,2020-08-17,Colorado,PUEBLO,Prison,NA,0,NA,0,NA,0,NA,12,NA,NA,NA,NA,NA,NA,NA,NA,NA,1300 WEST 13TH ST,81003,PUEBLO,8101,NA,NA,NA,https://www.colorado.gov/pacific/cdoc/covid-19-faq-and-updates
130,10002400,BRIDGEPORT CC,2020-08-17,Connecticut,BRIDGEPORT,Prison,NA,121,NA,NA,NA,NA,NA,NA,NA,NA,NA,NA,NA,NA,NA,NA,NA,1106 NORTH AVE,6604,FAIRFIELD,9001,41.1906143034373,-73.2010603612838,NA,https://portal.ct.gov/DOC/Common-Elements/Common-Elements/Health-Information-and-Advisories
131,10002399,BROOKLYN CI,2020-08-17,Connecticut,BROOKLYN,Prison,NA,151,NA,NA,NA,NA,NA,NA,NA,NA,NA,NA,NA,NA,NA,NA,NA,59 HARTFORD RD,6234,WINDHAM,9015,41.7841638798399,-71.9542621555301,NA,https://portal.ct.gov/DOC/Common-Elements/Common-Elements/Health-Information-and-Advisories
133,10000937,CHESHIRE CI,2020-08-17,Connecticut,CHESHIRE,Prison,NA,26,NA,NA,NA,NA,NA,NA,NA,NA,NA,NA,NA,NA,NA,NA,NA,900 HIGHLAND AVE,6410,NEW HAVEN,9009,41.5214912358681,-72.9017651017257,NA,https://portal.ct.gov/DOC/Common-Elements/Common-Elements/Health-Information-and-Advisories
134,10000931,CORRIGAN RADGOWSKI CC,2020-08-17,Connecticut,UNCASVILLE,Prison,NA,243,NA,NA,NA,NA,NA,NA,NA,NA,NA,NA,NA,NA,NA,NA,NA,986 NORWICH-NEW LONDON TURNPIKE,6382,NEW LONDON,9011,41.4541843158057,-72.1121724298505,NA,https://portal.ct.gov/DOC/Common-Elements/Common-Elements/Health-Information-and-Advisories
136,10000934,GARNER CI,2020-08-17,Connecticut,NEWTOWN,Prison,NA,2,NA,NA,NA,NA,NA,NA,NA,NA,NA,NA,NA,NA,NA,NA,NA,50 NUNNAWAUK RD,6470,FAIRFIELD,9001,41.4003588845118,-73.2721122970364,NA,https://portal.ct.gov/DOC/Common-Elements/Common-Elements/Health-Information-and-Advisories
137,10000926,HARTFORD CC,2020-08-17,Connecticut,HARTFORD,Prison,NA,97,NA,NA,NA,NA,NA,NA,NA,NA,NA,NA,NA,NA,NA,NA,NA,177 WESTON ST,6120,HARTFORD,9003,41.7936240767659,-72.6613994780302,NA,https://portal.ct.gov/DOC/Common-Elements/Common-Elements/Health-Information-and-Advisories
1688,NA,MACDOUGALL WALKER CI,2020-08-17,Connecticut,NA,Prison,NA,6,NA,NA,NA,NA,NA,NA,NA,NA,NA,NA,NA,NA,NA,NA,NA,NA,NA,NA,NA,NA,NA,NA,https://portal.ct.gov/DOC/Common-Elements/Common-Elements/Health-Information-and-Advisories
140,10000939,MANSON YOUTH,2020-08-17,Connecticut,CHESHIRE,Prison,NA,1,NA,NA,NA,NA,NA,NA,NA,NA,NA,NA,NA,NA,NA,NA,NA,42 JARVIS ST,6410,NEW HAVEN,9009,41.5305002146666,-72.8997977474974,NA,https://portal.ct.gov/DOC/Common-Elements/Common-Elements/Health-Information-and-Advisories
142,10005380,NEW HAVEN CC,2020-08-17,Connecticut,NEW HAVEN,Prison,NA,127,NA,NA,NA,NA,NA,NA,NA,NA,NA,NA,NA,NA,NA,NA,NA,245 WHALLEY AVE,6511,NEW HAVEN,9009,41.3174805727441,-72.9399713108872,NA,https://portal.ct.gov/DOC/Common-Elements/Common-Elements/Health-Information-and-Advisories
143,10000929,NORTHERN CI,2020-08-17,Connecticut,SOMERS,Prison,NA,1,NA,NA,NA,NA,NA,NA,NA,NA,NA,NA,NA,NA,NA,NA,NA,287 BILTON RD,6071,TOLLAND,9013,42.0188064,-72.4948806,NA,https://portal.ct.gov/DOC/Common-Elements/Common-Elements/Health-Information-and-Advisories
1689,NA,NORTHERN CI INFIRMIRY,2020-08-17,Connecticut,NA,Prison,NA,0,NA,NA,NA,NA,NA,NA,NA,NA,NA,NA,NA,NA,NA,NA,NA,NA,NA,NA,NA,NA,NA,NA,https://portal.ct.gov/DOC/Common-Elements/Common-Elements/Health-Information-and-Advisories
144,10000928,OSBORN CI,2020-08-17,Connecticut,SOMERS,Prison,NA,266,NA,NA,NA,NA,NA,NA,NA,NA,NA,NA,NA,NA,NA,NA,NA,335 BILTON RD,6071,TOLLAND,9013,42.0164002279266,-72.4969345257175,NA,https://portal.ct.gov/DOC/Common-Elements/Common-Elements/Health-Information-and-Advisories
132,10001605,CARL ROBINSON CI,2020-08-17,Connecticut,ENFIELD,Prison,NA,228,NA,NA,NA,NA,NA,NA,NA,NA,NA,NA,NA,NA,NA,NA,NA,285 SHAKER RD,6082,HARTFORD,9003,42.0156533,-72.515607,NA,https://portal.ct.gov/DOC/Common-Elements/Common-Elements/Health-Information-and-Advisories
146,10006149,WILLARD CYBULSKI CI,2020-08-17,Connecticut,ENFIELD,Prison,NA,75,NA,NA,NA,NA,NA,NA,NA,NA,NA,NA,NA,NA,NA,NA,NA,391 SHAKER RD,6082,TOLLAND,9003,42.0167978,-72.5062987,NA,https://portal.ct.gov/DOC/Common-Elements/Common-Elements/Health-Information-and-Advisories
147,10000933,YORK CI,2020-08-17,Connecticut,NIANTIC,Prison,NA,0,NA,NA,NA,NA,NA,NA,NA,NA,NA,NA,NA,NA,NA,NA,NA,201 W MAIN ST,6357,NEW LONDON,9011,41.3230817885803,-72.2375418908771,NA,https://portal.ct.gov/DOC/Common-Elements/Common-Elements/Health-Information-and-Advisories
145,NA,STATEWIDE,2020-08-17,Connecticut,NA,NA,380,NA,NA,7,359,1324,NA,NA,NA,NA,NA,NA,NA,NA,NA,231,NA,NA,NA,NA,NA,NA,NA,NA,https://portal.ct.gov/DOC/Common-Elements/Common-Elements/Health-Information-and-Advisories
151,10002262,JAMES T VAUGHN CORRECTIONAL CENTER,2020-08-17,Delaware,SMYRNA,Prison,NA,7,NA,7,NA,NA,NA,NA,NA,NA,NA,NA,NA,NA,NA,NA,NA,1181 PADDOCK RD,19977,NEW CASTLE,10003,39.3329545067275,-75.5995895841281,NA,https://doc.delaware.gov/views/covid19.blade.shtml
150,10000699,HOWARD R YOUNG CORRECTIONAL INSTITUTION,2020-08-17,Delaware,WILMINGTON,Prison,NA,NA,NA,NA,NA,NA,NA,NA,NA,NA,NA,NA,NA,NA,NA,NA,NA,1301 E 12TH ST,19802,NEW CASTLE,10003,39.7412422970711,-75.5294058031353,NA,https://doc.delaware.gov/views/covid19.blade.shtml
148,10002260,DELORES J BAYLOR WOMANS CORRECTIONAL INSTITUTION,2020-08-17,Delaware,NEW CASTLE,Prison,NA,NA,NA,NA,NA,NA,NA,NA,NA,NA,NA,NA,NA,NA,NA,NA,NA,660 BAYLOR BLVD,19720,NEW CASTLE,10003,39.7039322007032,-75.581257715656207,NA,https://doc.delaware.gov/views/covid19.blade.shtml
156,10000707,SUSSEX CORRECTIONAL INSTITUTION,2020-08-17,Delaware,GEORGETOWN,Prison,NA,7,NA,3,NA,NA,NA,NA,NA,NA,NA,NA,NA,NA,NA,NA,NA,23203 DUPONT BLVD,19947,SUSSEX,10005,38.665915,-75.3801231,NA,https://doc.delaware.gov/views/covid19.blade.shtml
152,10000704,MORRIS COMMUNITY CORRECTIONS CENTER,2020-08-17,Delaware,DOVER,Prison,NA,NA,NA,NA,NA,NA,NA,NA,NA,NA,NA,NA,NA,NA,NA,NA,NA,300 WATER ST,19904,KENT,10001,39.1532851548921,-75.5272690607103,NA,https://doc.delaware.gov/views/covid19.blade.shtml
149,10002260,HAZEL D PLANT WOMANS TREATMENT FACILITY,2020-08-17,Delaware,NEW CASTLE,Prison,NA,NA,NA,NA,NA,NA,NA,NA,NA,NA,NA,NA,NA,NA,NA,NA,NA,660 BAYLOR BLVD,19720,NEW CASTLE,10003,39.7039322007032,-75.581257715656207,NA,https://doc.delaware.gov/views/covid19.blade.shtml
153,10000701,PLUMMER COMMUNITY CORRECTIONS CENTER,2020-08-17,Delaware,WILMINGTON,Prison,NA,NA,NA,NA,NA,NA,NA,NA,NA,NA,NA,NA,NA,NA,NA,NA,NA,38 TODDS LN,19802,NEW CASTLE,10003,39.756644707953,-75.5290437145666,NA,https://doc.delaware.gov/views/covid19.blade.shtml
155,10000706,SUSSEX COMMUNITY CORRECTIONS CENTER,2020-08-17,Delaware,GEORGETOWN,Prison,NA,NA,NA,NA,NA,NA,NA,NA,NA,NA,NA,NA,NA,NA,NA,NA,NA,23207 DUPONT BLVD,19947,SUSSEX,10005,38.6584840608973,-75.371967886004,NA,https://doc.delaware.gov/views/covid19.blade.shtml
1746,NA,SPECIAL OPERATIONS GROUP,2020-08-17,Delaware,NA,Administrative,NA,NA,NA,NA,NA,NA,NA,NA,NA,NA,NA,NA,NA,NA,NA,NA,NA,NA,NA,NA,NA,NA,NA,NA,https://doc.delaware.gov/views/covid19.blade.shtml
1740,NA,DOVER PROBATION AND PAROLE,2020-08-17,Delaware,NA,Administrative,NA,NA,NA,NA,NA,NA,NA,NA,NA,NA,NA,NA,NA,NA,NA,NA,NA,NA,NA,NA,NA,NA,NA,NA,https://doc.delaware.gov/views/covid19.blade.shtml
1743,NA,NEW CASTLE PROBATION AND PAROLE,2020-08-17,Delaware,NA,Administrative,NA,NA,NA,NA,NA,NA,NA,NA,NA,NA,NA,NA,NA,NA,NA,NA,NA,NA,NA,NA,NA,NA,NA,NA,https://doc.delaware.gov/views/covid19.blade.shtml
1744,NA,NORTHERN NEW CASTLE COUNTY PROBATION AND PAROLE,2020-08-17,Delaware,NA,Administrative,NA,NA,NA,NA,NA,NA,NA,NA,NA,NA,NA,NA,NA,NA,NA,NA,NA,NA,NA,NA,NA,NA,NA,NA,https://doc.delaware.gov/views/covid19.blade.shtml
1741,NA,GEORGETOWN ADMINISTRATIVE SERVICES,2020-08-17,Delaware,NA,Administrative,NA,NA,NA,NA,NA,NA,NA,NA,NA,NA,NA,NA,NA,NA,NA,NA,NA,NA,NA,NA,NA,NA,NA,NA,https://doc.delaware.gov/views/covid19.blade.shtml
1742,NA,GEORGETOWN PROBATION AND PAROLE,2020-08-17,Delaware,NA,Administrative,NA,NA,NA,NA,NA,NA,NA,NA,NA,NA,NA,NA,NA,NA,NA,NA,NA,NA,NA,NA,NA,NA,NA,NA,https://doc.delaware.gov/views/covid19.blade.shtml
1745,NA,SEAFORD PROBATION AND PAROLE,2020-08-17,Delaware,NA,Administrative,NA,NA,NA,NA,NA,NA,NA,NA,NA,NA,NA,NA,NA,NA,NA,NA,NA,NA,NA,NA,NA,NA,NA,NA,https://doc.delaware.gov/views/covid19.blade.shtml
1747,NA,STEVEN FLOYD TRAINING ACADEMY,2020-08-17,Delaware,NA,Administrative,NA,NA,NA,NA,NA,NA,NA,NA,NA,NA,NA,NA,NA,NA,NA,NA,NA,NA,NA,NA,NA,NA,NA,NA,https://doc.delaware.gov/views/covid19.blade.shtml
363,10000336,APALACHEE CI,2020-08-17,Florida,SNEADS,Prison,25,152,0,0,NA,NA,NA,NA,NA,1659,NA,0,NA,57,NA,NA,NA,52 WEST UNIT DR,32460,JACKSON,12063,30.7114831551355,-84.8881821919236,NA,http://www.dc.state.fl.us/comm/covid-19.html
364,10002177,AVON PARK CI,2020-08-17,Florida,AVON PARK,Prison,47,227,0,2,NA,NA,NA,NA,NA,1264,NA,159,NA,151,NA,NA,NA,8100 HIGHWAY 64 EAST,33825,POLK,12105,27.6462871,-81.4036521,NA,http://www.dc.state.fl.us/comm/covid-19.html
365,10000402,BAKER CI,2020-08-17,Florida,SANDERSON,Prison,33,562,0,0,NA,NA,NA,NA,NA,908,NA,49,NA,662,NA,NA,NA,20706 US HIGHWAY 90 W,32087,BAKER,12003,30.2132514288661,-82.3745121153818,NA,http://www.dc.state.fl.us/comm/covid-19.html
366,10001445,BAY CF,2020-08-17,Florida,PANAMA CITY,Prison,28,338,0,1,NA,NA,NA,NA,NA,657,NA,8,NA,204,NA,NA,NA,5400 BAYLINE DR,32404,BAY,12005,30.2657071162655,-85.5055324679539,NA,http://www.dc.state.fl.us/comm/covid-19.html
367,10006205,BLACKWATER CF,2020-08-17,Florida,MILTON,Prison,26,101,0,7,NA,NA,NA,NA,NA,1953,NA,30,NA,37,NA,NA,NA,5914 JEFF ATES ROAD,32583,SANTA ROSA,12113,30.6456869610417,-86.9506090861526,NA,http://www.dc.state.fl.us/comm/covid-19.html
369,10000387,CALHOUN CI,2020-08-17,Florida,BLOUNTSTOWN,Prison,7,148,0,0,NA,NA,NA,NA,NA,1555,NA,20,NA,74,NA,NA,NA,19564 SE INSTITUTION DR,32424,CALHOUN,12013,30.4058499971463,-85.063944669723,NA,http://www.dc.state.fl.us/comm/covid-19.html
1758,NA,CENTRAL OFFICE,2020-08-17,Florida,NA,Prison,2,NA,NA,NA,NA,NA,NA,NA,NA,NA,NA,NA,NA,NA,NA,NA,NA,NA,NA,NA,NA,NA,NA,NA,http://www.dc.state.fl.us/comm/covid-19.html
370,10002152,CENTURY CI,2020-08-17,Florida,CENTURY,Prison,35,759,0,0,NA,NA,NA,NA,NA,748,NA,25,NA,558,NA,NA,NA,400 TEDDER RD,32535,ESCAMBIA,12033,30.958176406169,-87.2995001696073,NA,http://www.dc.state.fl.us/comm/covid-19.html
371,10000460,CFRC,2020-08-17,Florida,ORLANDO,Prison,53,262,0,1,NA,NA,NA,NA,NA,1968,NA,123,NA,489,NA,NA,NA,7000 H C KELLEY RD,32831,ORANGE,12095,28.4532751351237,-81.1590095560322,NA,http://www.dc.state.fl.us/comm/covid-19.html
372,10002187,CHARLOTTE CI,2020-08-17,Florida,PUNTA GORDA,Prison,18,52,0,0,NA,NA,NA,NA,NA,1256,NA,48,NA,190,NA,NA,NA,33123 OIL WELL RD,33955,CHARLOTTE,12015,26.8036078961339,-81.9038099549163,NA,http://www.dc.state.fl.us/comm/covid-19.html
373,10000394,COLUMBIA CI,2020-08-17,Florida,LAKE CITY,Prison,85,1317,0,5,NA,NA,NA,NA,NA,729,NA,151,NA,949,NA,NA,NA,7906 EAST HIGHWAY 90,32055,COLUMBIA,12023,30.1925279654372,-82.5077389325603,NA,http://www.dc.state.fl.us/comm/covid-19.html
374,NA,COMMUNITY CORRECTIONS REGION 1,2020-08-17,Florida,JASPER,Prison,21,NA,NA,NA,NA,NA,NA,NA,NA,NA,NA,NA,NA,NA,NA,NA,NA,10650 SOUTHWEST 46TH STREET,10650,NA,NA,30.5046671,-82.9631939,NA,http://www.dc.state.fl.us/comm/covid-19.html
375,NA,COMMUNITY CORRECTIONS REGION 2,2020-08-17,Florida,NA,Prison,12,NA,NA,NA,NA,NA,NA,NA,NA,NA,NA,NA,NA,NA,NA,NA,NA,NA,NA,NA,NA,NA,NA,NA,http://www.dc.state.fl.us/comm/covid-19.html
377,NA,COMMUNITY CORRECTIONS REGION 3,2020-08-17,Florida,TAMPA,Prison,57,NA,NA,NA,NA,NA,NA,NA,NA,NA,NA,NA,NA,NA,NA,NA,NA,2002 E 26TH AVENUE,33605,NA,NA,26.8384331,-81.1208015,NA,http://www.dc.state.fl.us/comm/covid-19.html
378,NA,COMMUNITY CORRECTIONS REGION 4,2020-08-17,Florida,WEST PALM BEACH FL,Prison,45,NA,NA,NA,NA,NA,NA,NA,NA,NA,NA,NA,NA,NA,NA,NA,NA,1641 WORTHINGTON ROAD,33409,NA,NA,30.5046671,-82.9631939,NA,http://www.dc.state.fl.us/comm/covid-19.html
379,10000432,CROSS CITY CI,2020-08-17,Florida,CROSS CITY,Prison,27,247,0,0,NA,NA,NA,NA,NA,1293,NA,29,NA,605,NA,NA,NA,568 NE 255TH ST,32628,DIXIE,12029,29.6347536414177,-83.0988713270045,NA,http://www.dc.state.fl.us/comm/covid-19.html
380,10000546,DADE CI,2020-08-17,Florida,FLORIDA CITY,Prison,163,88,0,8,NA,NA,NA,NA,NA,1429,NA,21,NA,132,NA,NA,NA,19000 SW 377TH ST,33034,MIAMI-DADE,12086,25.4154012,-80.4999188,NA,http://www.dc.state.fl.us/comm/covid-19.html
381,10000504,DESOTO ANNEX,2020-08-17,Florida,ARCADIA,Prison,24,188,0,0,NA,NA,NA,NA,NA,1687,NA,23,NA,417,NA,NA,NA,13617 SE HWY 70,34266,DESOTO,12027,27.20934,-81.66191,NA,http://www.dc.state.fl.us/comm/covid-19.html
382,10004646,EVERGLADES CI,2020-08-17,Florida,MIAMI,Prison,101,352,0,6,NA,NA,NA,NA,NA,2209,NA,31,NA,743,NA,NA,NA,1599 SW 187TH AVE,33194,MIAMI-DADE,12086,25.7508633649157,-80.4889613829557,NA,http://www.dc.state.fl.us/comm/covid-19.html
383,10004580,FLORIDA STATE PRISON,2020-08-17,Florida,RAIFORD,Prison,47,127,0,0,NA,NA,NA,NA,NA,1759,NA,29,NA,648,NA,NA,NA,7819 NW 228TH STREET,32026,BRADFORD,12007,30.0584396,-82.1836503999999,NA,http://www.dc.state.fl.us/comm/covid-19.html
384,10000422,FRANKLIN CI,2020-08-17,Florida,CARRABELLE,Prison,21,308,0,0,NA,NA,NA,NA,NA,881,NA,13,NA,624,NA,NA,NA,1760 HWY 67 NORTH,32322,FRANKLIN,12037,29.8779742807351,-84.6458565567821,NA,http://www.dc.state.fl.us/comm/covid-19.html
385,10006167,FWRC,2020-08-17,Florida,OCALA,Prison,45,473,1,2,NA,NA,NA,NA,NA,277,NA,83,NA,350,NA,NA,NA,3700 NW 111TH PLACE,34482,MARION,12083,29.3097992158521,-82.1862602132609,NA,http://www.dc.state.fl.us/comm/covid-19.html
386,10000369,GADSDEN CF,2020-08-17,Florida,QUINCY,Prison,26,92,0,0,NA,NA,NA,NA,NA,1119,NA,0,NA,0,NA,NA,NA,6044 GREENSBORO HWY,32351,GADSDEN,12039,30.5897214012162,-84.6555837631364,NA,http://www.dc.state.fl.us/comm/covid-19.html
387,10006326,GADSDEN RE ENTRY CENTER,2020-08-17,Florida,HAVANA,Prison,23,203,NA,NA,NA,NA,NA,NA,NA,113,NA,10,NA,250,NA,NA,NA,630 OPPORTUNITY LANE,32333,GADSDEN,12039,30.5460807918661,-84.4948987703154,NA,http://www.dc.state.fl.us/comm/covid-19.html
388,10000332,GRACEVILLE CF,2020-08-17,Florida,GRACEVILLE,Prison,35,656,0,2,NA,NA,NA,NA,NA,1134,NA,0,NA,100,NA,NA,NA,5230 EZELL RD,32440,JACKSON,12063,30.9482908653797,-85.4922241410006,NA,http://www.dc.state.fl.us/comm/covid-19.html
389,10000411,GULF CI,2020-08-17,Florida,WEWAHITCHKA,Prison,32,242,0,0,NA,NA,NA,NA,NA,935,NA,17,NA,619,NA,NA,NA,699 IKE STEELE ROAD,32465,GULF,12045,30.1751276583454,-85.267248933454,NA,http://www.dc.state.fl.us/comm/covid-19.html
390,10000385,HAMILTON CI,2020-08-17,Florida,JASPER,Prison,34,215,0,0,NA,NA,NA,NA,NA,2037,NA,70,NA,493,NA,NA,NA,10650 SW 46TH ST,32052,HAMILTON,12047,30.504668,-82.9631921,NA,http://www.dc.state.fl.us/comm/covid-19.html
391,10000492,HARDEE CI,2020-08-17,Florida,BOWLING GREEN,Prison,27,87,0,0,NA,NA,NA,NA,NA,1539,NA,49,NA,592,NA,NA,NA,6899 STATE RD 62,33834,HARDEE,12049,27.5936935298036,-82.0068749818079,NA,http://www.dc.state.fl.us/comm/covid-19.html
392,10000465,HERNANDO CI,2020-08-17,Florida,BROOKSVILLE,Prison,5,0,0,0,NA,NA,NA,NA,NA,3,NA,0,NA,4,NA,NA,NA,16415 SPRING HILL DR,34604,HERNANDO,12053,28.4830219923017,-82.4544337348687,NA,http://www.dc.state.fl.us/comm/covid-19.html
393,10000356,HOLMES CI,2020-08-17,Florida,BONIFAY,Prison,28,169,0,1,NA,NA,NA,NA,NA,1137,NA,6,NA,1033,NA,NA,NA,3142 THOMAS DR,32425,HOLMES,12059,30.7554506376682,-85.6701593968009,NA,http://www.dc.state.fl.us/comm/covid-19.html
394,10000545,HOMESTEAD CI,2020-08-17,Florida,FLORIDA CITY,Prison,50,302,0,2,NA,NA,NA,NA,NA,507,NA,3,NA,159,NA,NA,NA,19000 SW 377TH ST,33034,MIAMI-DADE,12086,25.4129930636582,-80.4972998182045,NA,http://www.dc.state.fl.us/comm/covid-19.html
395,10000334,JACKSON CI,2020-08-17,Florida,MALONE,Prison,27,89,1,0,NA,NA,NA,NA,NA,127,NA,1294,NA,158,NA,NA,NA,5563 10TH ST,32445,JACKSON,12063,30.9687258897222,-85.1686040537145,NA,http://www.dc.state.fl.us/comm/covid-19.html
396,10000378,JEFFERSON CI,2020-08-17,Florida,MONTICELLO,Prison,46,257,0,0,NA,NA,NA,NA,NA,328,NA,10,NA,354,NA,NA,NA,1050 BIG JOE RD,32344,JEFFERSON,12065,30.5097361831331,-83.8015759322232,NA,http://www.dc.state.fl.us/comm/covid-19.html
397,10000453,LAKE CI,2020-08-17,Florida,CLERMONT,Prison,17,105,0,0,NA,NA,NA,NA,NA,977,NA,7,NA,700,NA,NA,NA,19225 US HWY 27,34715,LAKE,12069,28.6204936231526,-81.7664277388051,NA,http://www.dc.state.fl.us/comm/covid-19.html
398,10000394,LAKE CITY CF,2020-08-17,Florida,LAKE CITY,Prison,11,30,0,0,NA,NA,NA,NA,NA,102,NA,695,NA,29,NA,NA,NA,7906 EAST HIGHWAY 90,32055,COLUMBIA,12023,30.1925279654372,-82.5077389325603,NA,http://www.dc.state.fl.us/comm/covid-19.html
399,10000428,LANCASTER CI,2020-08-17,Florida,TRENTON,Prison,16,33,0,0,NA,NA,NA,NA,NA,706,NA,0,NA,33,NA,NA,NA,3449 SW STATE RD 26,32693,GILCHRIST,12041,29.6080119715794,-82.8634738992093,NA,http://www.dc.state.fl.us/comm/covid-19.html
400,10000414,LAWTEY CI,2020-08-17,Florida,LAWTEY,Prison,4,0,0,0,NA,NA,NA,NA,NA,6,NA,0,NA,1,NA,NA,NA,22298 NE COUNTY ROAD 200B,32058,BRADFORD,12007,30.0339212030165,-82.0723646415646,NA,http://www.dc.state.fl.us/comm/covid-19.html
401,10000391,LIBERTY CI,2020-08-17,Florida,BRISTOL,Prison,22,215,0,1,NA,NA,NA,NA,NA,1747,NA,32,NA,207,NA,NA,NA,11064 NW DEMPSEY BARRON RD,32321,LIBERTY,12077,30.4638368271688,-84.8558812510053,NA,http://www.dc.state.fl.us/comm/covid-19.html
402,10000437,LOWELL CI,2020-08-17,Florida,OCALA,Prison,60,993,0,2,NA,NA,NA,NA,NA,1259,NA,110,NA,1490,NA,NA,NA,11120 NW GAINESVILLE RD,34482,MARION,12083,29.310797890024,-82.2003976343922,NA,http://www.dc.state.fl.us/comm/covid-19.html
403,10000381,MADISON CI,2020-08-17,Florida,MADISON,Prison,47,47,0,0,NA,NA,NA,NA,NA,1079,NA,80,NA,385,NA,NA,NA,382 SW MCI WAY,32340,MADISON,12079,30.4400875124177,-83.421611687913,NA,http://www.dc.state.fl.us/comm/covid-19.html
404,10000440,MARION CI,2020-08-17,Florida,OCALA,Prison,20,289,0,0,NA,NA,NA,NA,NA,1116,NA,126,NA,663,NA,NA,NA,3269 NW 105TH ST,34475,MARION,12083,29.3081008923062,-82.1750238503758,NA,http://www.dc.state.fl.us/comm/covid-19.html
405,10000508,MARTIN CI,2020-08-17,Florida,INDIANTOWN,Prison,8,1,0,0,NA,NA,NA,NA,NA,20,NA,2,NA,58,NA,NA,NA,1150 SW ALLAPATTAH ROAD,34956,MARTIN,12085,27.1966197154986,-80.4848774608298,NA,http://www.dc.state.fl.us/comm/covid-19.html
406,10000409,MAYO ANNEX,2020-08-17,Florida,MAYO,Prison,24,786,0,0,NA,NA,NA,NA,NA,404,NA,241,NA,1038,NA,NA,NA,8784 US HWY 27 W,32066,LAFAYETTE,12067,30.1384624966281,-83.3051421746282,NA,http://www.dc.state.fl.us/comm/covid-19.html
407,10000510,MOORE HAVEN CF,2020-08-17,Florida,MOORE HAVEN,Prison,28,149,0,0,NA,NA,NA,NA,NA,690,NA,1,NA,19,NA,NA,NA,1282 EAST STATE ROAD 78,33471,GLADES,12043,26.8384322078576,-81.120182039878,NA,http://www.dc.state.fl.us/comm/covid-19.html
408,10000416,NEW RIVER CI,2020-08-17,Florida,RAIFORD,Prison,8,101,0,1,NA,NA,NA,NA,NA,1040,NA,77,NA,256,NA,NA,NA,8000 NW 80TH PLACE,32083,BRADFORD,12007,30.0628479016043,-82.1780915296033,NA,http://www.dc.state.fl.us/comm/covid-19.html
409,10000365,NWFRC,2020-08-17,Florida,CHIPLEY,Prison,38,305,0,0,NA,NA,NA,NA,NA,1615,NA,65,NA,1402,NA,NA,NA,4455 SAM MITCHELL DR,32428,WASHINGTON,12133,30.5207299930625,-85.659698413051,NA,http://www.dc.state.fl.us/comm/covid-19.html
410,10004557,OKALOOSA CI,2020-08-17,Florida,CRESTVIEW,Prison,12,12,0,0,NA,NA,NA,NA,NA,1098,NA,10,NA,158,NA,NA,NA,3189 COLONEL GREG MALLOY RD,32539,OKALOOSA,12091,30.6968119578041,-86.5273310382406,NA,http://www.dc.state.fl.us/comm/covid-19.html
411,10000495,OKEECHOBEE CI,2020-08-17,Florida,OKEECHOBEE,Prison,21,17,0,0,NA,NA,NA,NA,NA,607,NA,1523,NA,263,NA,NA,NA,3420 NE 168TH ST,34972,OKEECHOBEE,12093,27.3960695415089,-80.7844446452798,NA,http://www.dc.state.fl.us/comm/covid-19.html
412,10000473,POLK CI,2020-08-17,Florida,POLK CITY,Prison,32,210,0,0,NA,NA,NA,NA,NA,1040,NA,6,NA,339,NA,NA,NA,10800 EVANS RD,33868,POLK,12105,28.1915172379226,-81.7867579450162,NA,http://www.dc.state.fl.us/comm/covid-19.html
413,10000430,PUTNAM CI,2020-08-17,Florida,EAST PALATKA,Prison,3,0,0,0,NA,NA,NA,NA,NA,2,NA,0,NA,21,NA,NA,NA,128 YELVINGTON RD,32131,PUTNAM,12107,29.6461700753965,-81.5877859182756,NA,http://www.dc.state.fl.us/comm/covid-19.html
414,10000418,RMC,2020-08-17,Florida,LAKE BUTLER,Prison,34,193,0,0,NA,NA,NA,NA,NA,1879,NA,47,NA,244,NA,NA,NA,7765 S COUNTY RD 231,32054,UNION,12125,29.9896555595091,-82.3591838141584,NA,http://www.dc.state.fl.us/comm/covid-19.html
415,10000339,SANTA ROSA CI,2020-08-17,Florida,MILTON,Prison,140,802,0,0,NA,NA,NA,NA,NA,1730,NA,167,NA,738,NA,NA,NA,5850 E MILTON RD,32583,SANTA ROSA,12113,30.6456152503383,-86.9674285701666,NA,http://www.dc.state.fl.us/comm/covid-19.html
416,10000547,SFRC,2020-08-17,Florida,DORAL,Prison,140,188,0,14,NA,NA,NA,NA,NA,2100,NA,30,NA,419,NA,NA,NA,14000 NW 41ST ST,33178,MIAMI-DADE,12086,25.8058765588424,-80.4263871153609,NA,http://www.dc.state.fl.us/comm/covid-19.html
417,10000512,SOUTH BAY CF,2020-08-17,Florida,SOUTH BAY,Prison,83,344,0,4,NA,NA,NA,NA,NA,1799,NA,5,NA,81,NA,NA,NA,600 US HWY 27 S,33493,PALM BEACH,12099,26.6577476551144,-80.7192898396007,NA,http://www.dc.state.fl.us/comm/covid-19.html
420,10000455,SUMTER CI,2020-08-17,Florida,BUSHNELL,Prison,29,103,0,3,NA,NA,NA,NA,NA,68,NA,0,NA,67,NA,NA,NA,9544 COUNTY RD 476B,33513,SUMTER,12119,28.6174838712683,-82.2075429744292,NA,http://www.dc.state.fl.us/comm/covid-19.html
421,10000405,SUWANNEE CI,2020-08-17,Florida,LIVE OAK,Prison,73,810,0,6,NA,NA,NA,NA,NA,1058,NA,137,NA,915,NA,NA,NA,5964 US HWY 90,32060,SUWANNEE,12121,30.2381941322832,-82.8731181263933,NA,http://www.dc.state.fl.us/comm/covid-19.html
422,10004574,TAYLOR CI,2020-08-17,Florida,PERRY,Prison,17,660,0,0,NA,NA,NA,NA,NA,1468,NA,70,NA,1083,NA,NA,NA,8501 HAMPTON SPRINGS ROAD,32348,TAYLOR,12123,30.040944,-83.71342,NA,http://www.dc.state.fl.us/comm/covid-19.html
423,10000444,TOMOKA CI,2020-08-17,Florida,DAYTONA BEACH,Prison,29,139,0,0,NA,NA,NA,NA,NA,98,NA,6,NA,345,NA,NA,NA,3950 TIGER BAY RD,32124,VOLUSIA,12127,29.1515709385533,-81.1572681284282,NA,http://www.dc.state.fl.us/comm/covid-19.html
424,10000417,UNION CI,2020-08-17,Florida,RAIFORD,Prison,11,33,0,2,NA,NA,NA,NA,NA,1161,NA,564,NA,92,NA,NA,NA,25636 NE SR-16,32083,UNION,12125,30.0667463548044,-82.1927871248284,NA,http://www.dc.state.fl.us/comm/covid-19.html
425,10004575,WAKULLA CI,2020-08-17,Florida,CRAWFORDVILLE,Prison,90,233,0,3,NA,NA,NA,NA,NA,2581,NA,133,NA,103,NA,NA,NA,110 MELALEUCA DRIVE,32327,WAKULLA,12129,30.2614929,-84.1748045,NA,http://www.dc.state.fl.us/comm/covid-19.html
426,10000360,WALTON CI,2020-08-17,Florida,DEFUNIAK SPRINGS,Prison,3,0,0,0,NA,NA,NA,NA,NA,2,NA,1,NA,53,NA,NA,NA,691 INSTITUTION RD,32433,WALTON,12131,30.7786800868362,-86.1031853217621,NA,http://www.dc.state.fl.us/comm/covid-19.html
427,10000467,ZEPHYRHILLS CI,2020-08-17,Florida,ZEPHYRHILLS,Prison,12,0,0,0,NA,NA,NA,NA,NA,18,NA,1,NA,142,NA,NA,NA,2739 GALL BLVD,33541,PASCO,12101,28.1990979073021,-82.198692171018,NA,http://www.dc.state.fl.us/comm/covid-19.html
387,10006326,GADSDEN RE ENTRY CENTER,2020-08-17,Florida,HAVANA,NA,NA,NA,0,0,NA,NA,NA,NA,NA,NA,NA,NA,NA,NA,NA,NA,NA,630 OPPORTUNITY LANE,32333,GADSDEN,12039,30.5460807918661,-84.4948987703154,NA,NA
1768,NA,WOMENS PDC,2020-08-17,Georgia,NA,Prison,3,1,0,0,3,0,NA,NA,NA,NA,NA,NA,NA,NA,NA,NA,NA,NA,NA,NA,NA,NA,NA,NA,http://www.gdc.ga.gov/content/cases
1760,NA,APPLING ITF,2020-08-17,Georgia,NA,Prison,1,0,0,0,0,0,NA,NA,NA,NA,NA,NA,NA,NA,NA,NA,NA,NA,NA,NA,NA,NA,NA,NA,http://www.gdc.ga.gov/content/cases
428,10006153,ASMP,2020-08-17,Georgia,GROVETOWN,Prison,50,43,0,1,11,16,NA,NA,NA,NA,NA,NA,NA,NA,NA,NA,NA,3001 GORDON HWY,30813,COLUMBIA,13073,33.4328790520748,-82.188521119641,NA,http://www.gdc.ga.gov/content/cases
429,10001411,ATLANTA TC,2020-08-17,Georgia,ATLANTA,Prison,0,1,0,0,0,1,NA,NA,NA,NA,NA,NA,NA,NA,NA,NA,NA,332 PONCE DE LEON AVE NE,30308,FULTON,13121,33.7727021662958,-84.3762642021278,NA,http://www.gdc.ga.gov/content/cases
1761,NA,AUGUSTA TC,2020-08-17,Georgia,NA,Prison,1,2,0,0,0,2,NA,NA,NA,NA,NA,NA,NA,NA,NA,NA,NA,NA,NA,NA,NA,NA,NA,NA,http://www.gdc.ga.gov/content/cases
430,10000325,AUTRY STATE PRISON,2020-08-17,Georgia,PELHAM,Prison,13,76,0,3,11,73,NA,NA,NA,NA,NA,NA,NA,NA,NA,NA,NA,3178 MOUNT ZION CHURCH RD,31779,MITCHELL,13205,31.189464706804,-84.1451095201423,NA,http://www.gdc.ga.gov/content/cases
431,10004534,BACON PDC,2020-08-17,Georgia,ALMA,Prison,4,3,0,0,1,3,NA,NA,NA,NA,NA,NA,NA,NA,NA,NA,NA,165 EAST EASTSIDE INDUSTRIAL BOULEVARD,31510,BACON,13005,31.5330826172306,-82.4498770479822,NA,http://www.gdc.ga.gov/content/cases
432,10006339,BAINBRIDGE PSAT,2020-08-17,Georgia,BAINBRIDGE,Prison,15,43,0,0,10,31,NA,NA,NA,NA,NA,NA,NA,NA,NA,NA,NA,235 STATE HOSPITAL ROAD,39817,DECATUR,13087,30.9825299479775,-84.6367746159665,NA,http://www.gdc.ga.gov/content/cases
433,10002129,BALDWIN STATE PRISON,2020-08-17,Georgia,HARDWICK,Prison,30,24,0,2,15,20,NA,NA,NA,NA,NA,NA,NA,NA,NA,NA,NA,140 LAYING FARM RD,31034,BALDWIN,13009,33.0250608001789,-83.2213613031961,NA,http://www.gdc.ga.gov/content/cases
1762,NA,BLECKLEY PSATC,2020-08-17,Georgia,NA,Prison,4,10,0,0,0,1,NA,NA,NA,NA,NA,NA,NA,NA,NA,NA,NA,NA,NA,NA,NA,NA,NA,NA,http://www.gdc.ga.gov/content/cases
434,10001421,BURRUSS CTC,2020-08-17,Georgia,FORSYTH,Prison,15,9,0,0,8,3,NA,NA,NA,NA,NA,NA,NA,NA,NA,NA,NA,1000 INDIAN SPRINGS DR,31029,MONROE,13207,33.0555455599074,-83.9753853556914,NA,http://www.gdc.ga.gov/content/cases
435,10002146,CALHOUN STATE PRISON,2020-08-17,Georgia,MORGAN,Prison,27,57,1,1,23,52,NA,NA,NA,NA,NA,NA,NA,NA,NA,NA,NA,27823 MAIN ST,39866,CALHOUN,13037,31.5397571772194,-84.6166883024513,NA,http://www.gdc.ga.gov/content/cases
436,10002134,CENTRAL STATE PRISON,2020-08-17,Georgia,MACON,Prison,11,20,0,0,4,6,NA,NA,NA,NA,NA,NA,NA,NA,NA,NA,NA,4600 FULTON MILL RD,31208,BIBB,13021,32.7768271393695,-83.7518193356178,NA,http://www.gdc.ga.gov/content/cases
437,10002121,CLAYTON TC,2020-08-17,Georgia,FOREST PARK,Prison,7,7,0,0,7,7,NA,NA,NA,NA,NA,NA,NA,NA,NA,NA,NA,242 FALCON DR,30297,CLAYTON,13063,33.6243019292736,-84.3976812980742,NA,http://www.gdc.ga.gov/content/cases
438,10000314,COASTAL STATE PRISON,2020-08-17,Georgia,GARDEN CITY,Prison,8,51,0,5,8,44,NA,NA,NA,NA,NA,NA,NA,NA,NA,NA,NA,200 GULF STREAM RD,31418,CHATHAM,13051,32.1375921696296,-81.1865669336269,NA,http://www.gdc.ga.gov/content/cases
441,10001426,COLUMBUS TC,2020-08-17,Georgia,COLUMBUS,Prison,2,4,0,0,2,4,NA,NA,NA,NA,NA,NA,NA,NA,NA,NA,NA,3900 SCHATULGA ROAD,31907,MUSCOGEE,13215,32.4940787284715,-84.8689276054158,NA,http://www.gdc.ga.gov/content/cases
442,10002138,DODGE STATE PRISON,2020-08-17,Georgia,CHESTER,Prison,6,5,0,1,0,1,NA,NA,NA,NA,NA,NA,NA,NA,NA,NA,NA,2971 OLD BETHEL CHURCH ROAD,31012,DODGE,13091,32.3942333994944,-83.1674595503001,NA,http://www.gdc.ga.gov/content/cases
443,10006154,DOOLY STATE PRISON,2020-08-17,Georgia,UNADILLA,Prison,12,18,0,2,10,14,NA,NA,NA,NA,NA,NA,NA,NA,NA,NA,NA,1412 PLUNKETT ROAD,31091,HOUSTON,13093,32.2809242343653,-83.715675960049,NA,http://www.gdc.ga.gov/content/cases
444,10004496,EMANUEL WOMENS FACILITY,2020-08-17,Georgia,SWAINSBORO,Prison,10,26,0,0,7,26,NA,NA,NA,NA,NA,NA,NA,NA,NA,NA,NA,714 GUMLOG ROAD,30401,EMANUEL,13107,32.6130382546035,-82.3564077989977,NA,http://www.gdc.ga.gov/content/cases
445,10000298,GDCP,2020-08-17,Georgia,JACKSON,Prison,34,114,0,4,30,96,NA,NA,NA,NA,NA,NA,NA,NA,NA,NA,NA,2978 STATE HWYY 36 W PRISON BLVD,30233,BUTTS,13035,33.2210737293523,-84.0616182776144,NA,http://www.gdc.ga.gov/content/cases
446,10000298,GDCP SMU,2020-08-17,Georgia,JACKSON,Prison,5,0,0,0,4,0,NA,NA,NA,NA,NA,NA,NA,NA,NA,NA,NA,2978 STATE HWYY 36 W PRISON BLVD,30233,BUTTS,13035,33.2210737293523,-84.0616182776144,NA,http://www.gdc.ga.gov/content/cases
447,10002141,GEORGIA STATE PRISON,2020-08-17,Georgia,REIDSVILLE,Prison,7,2,0,0,4,2,NA,NA,NA,NA,NA,NA,NA,NA,NA,NA,NA,300 1ST AVENUE SOUTH,30453,TATTNALL,13267,32.0051289513703,-82.1647342743003,NA,http://www.gdc.ga.gov/content/cases
448,10000297,HANCOCK STATE PRISON,2020-08-17,Georgia,SPARTA,Prison,11,4,0,0,6,0,NA,NA,NA,NA,NA,NA,NA,NA,NA,NA,NA,701 PRISON BLVD,31087,HANCOCK,13141,33.2454940527243,-82.950923125620207,NA,http://www.gdc.ga.gov/content/cases
1463,NA,HAYS STATE PRISON,2020-08-17,Georgia,NA,Prison,3,4,0,0,2,0,NA,NA,NA,NA,NA,NA,NA,NA,NA,NA,NA,NA,NA,NA,NA,NA,NA,NA,http://www.gdc.ga.gov/content/cases
1464,NA,HELMS FACILITY,2020-08-17,Georgia,NA,Prison,1,0,0,0,0,0,NA,NA,NA,NA,NA,NA,NA,NA,NA,NA,NA,NA,NA,NA,NA,NA,NA,NA,http://www.gdc.ga.gov/content/cases
1465,NA,HUDSON TC,2020-08-17,Georgia,NA,Prison,1,0,0,0,1,0,NA,NA,NA,NA,NA,NA,NA,NA,NA,NA,NA,NA,NA,NA,NA,NA,NA,NA,http://www.gdc.ga.gov/content/cases
449,10000303,JOHNSON STATE PRISON,2020-08-17,Georgia,WRIGHTSVILLE,Prison,10,47,0,1,7,46,NA,NA,NA,NA,NA,NA,NA,NA,NA,NA,NA,290 DONOVAN-HARRISON ROAD,31096,JOHNSON,13167,32.7435336204469,-82.7023498487737,NA,http://www.gdc.ga.gov/content/cases
450,10002102,LEE ARRENDALE STATE PRISON,2020-08-17,Georgia,ALTO,Prison,15,9,0,0,9,4,NA,NA,NA,NA,NA,NA,NA,NA,NA,NA,NA,2023 GAINESVILLE HWY,30510,HABERSHAM,13137,34.4510668058125,-83.5959664492393,NA,http://www.gdc.ga.gov/content/cases
1769,NA,LEE ARRENDALE TC,2020-08-17,Georgia,NA,Prison,3,0,0,0,0,0,NA,NA,NA,NA,NA,NA,NA,NA,NA,NA,NA,NA,NA,NA,NA,NA,NA,NA,http://www.gdc.ga.gov/content/cases
451,10000323,LEE STATE PRISON,2020-08-17,Georgia,LEESBURG,Prison,27,24,0,2,23,20,NA,NA,NA,NA,NA,NA,NA,NA,NA,NA,NA,153 PINEWOOD DRIVE,31763,LEE,13177,31.7636945119342,-84.1935491929872,NA,http://www.gdc.ga.gov/content/cases
1710,10002137,MACON STATE PRISON,2020-08-17,Georgia,OGLETHORPE,Prison,29,30,0,2,18,24,NA,NA,NA,NA,NA,NA,NA,NA,NA,NA,NA,2728 SOUTH 49 HWY,31068,MACON,13193,32.2593065864778,-84.0914400277346,NA,http://www.gdc.ga.gov/content/cases
452,NA,MACON TC,2020-08-17,Georgia,NA,Prison,1,1,0,0,0,0,NA,NA,NA,NA,NA,NA,NA,NA,NA,NA,NA,NA,NA,NA,NA,NA,NA,NA,http://www.gdc.ga.gov/content/cases
453,10004500,MCEVER PDC,2020-08-17,Georgia,PERRY,Prison,5,1,0,0,5,1,NA,NA,NA,NA,NA,NA,NA,NA,NA,NA,NA,2100 KINGS CHAPEL ROAD,31069,HOUSTON,13153,32.4649472755325,-83.6950126775188,NA,http://www.gdc.ga.gov/content/cases
454,10001414,METRO REENTRY FACILITY,2020-08-17,Georgia,ATLANTA,Prison,13,2,0,0,11,2,NA,NA,NA,NA,NA,NA,NA,NA,NA,NA,NA,1303 CONSTITUTION ROAD,30316,DEKALB,13089,33.687261,-84.336355,NA,http://www.gdc.ga.gov/content/cases
455,10001414,METRO TC,2020-08-17,Georgia,ATLANTA,Prison,4,8,0,0,4,7,NA,NA,NA,NA,NA,NA,NA,NA,NA,NA,NA,1303 CONSTITUTION ROAD,30316,DEKALB,13089,33.6885252,-84.336397,NA,http://www.gdc.ga.gov/content/cases
1466,NA,MONTGOMERY STATE PRISON,2020-08-17,Georgia,NA,Prison,14,20,0,1,12,18,NA,NA,NA,NA,NA,NA,NA,NA,NA,NA,NA,NA,NA,NA,NA,NA,NA,NA,http://www.gdc.ga.gov/content/cases
1767,NA,NORTHWEST RSAT,2020-08-17,Georgia,NA,Prison,0,10,0,0,0,0,NA,NA,NA,NA,NA,NA,NA,NA,NA,NA,NA,NA,NA,NA,NA,NA,NA,NA,http://www.gdc.ga.gov/content/cases
458,10004551,PATTEN PDC,2020-08-17,Georgia,LAKELAND,Prison,10,0,0,0,10,0,NA,NA,NA,NA,NA,NA,NA,NA,NA,NA,NA,1009 NORTH 10TH AVENUE,31635,LANIER,13173,31.0398830425782,-83.0617537030288,NA,http://www.gdc.ga.gov/content/cases
459,10002108,PAULDING RSAT,2020-08-17,Georgia,DALLAS,Prison,1,0,0,0,1,0,NA,NA,NA,NA,NA,NA,NA,NA,NA,NA,NA,1295 N INDUSTRIAL BLVD,30132,PAULDING,13223,33.9497667362816,-84.814666443619,NA,http://www.gdc.ga.gov/content/cases
460,10002106,PHILLIPS STATE PRISON,2020-08-17,Georgia,BUFORD,Prison,15,17,0,0,13,15,NA,NA,NA,NA,NA,NA,NA,NA,NA,NA,NA,2989 WEST ROCK QUARRY ROAD,30519,GWINNETT,13135,34.0942918,-83.9105204999999,NA,http://www.gdc.ga.gov/content/cases
461,10002105,PHILLIPS TC,2020-08-17,Georgia,BUFORD,Prison,2,5,0,0,2,3,NA,NA,NA,NA,NA,NA,NA,NA,NA,NA,NA,2989 W ROCK QUARRY ROAD,30519,GWINNETT,13135,34.0955462309862,-83.9094697394886,NA,http://www.gdc.ga.gov/content/cases
462,10000307,PULASKI STATE PRISON,2020-08-17,Georgia,HAWKINSVILLE,Prison,7,1,0,0,3,0,NA,NA,NA,NA,NA,NA,NA,NA,NA,NA,NA,373 UPPER RIVER ROAD,31036,PULASKI,13235,32.3115198973267,-83.4572346441957,NA,http://www.gdc.ga.gov/content/cases
1467,NA,ROGERS STATE PRISON,2020-08-17,Georgia,NA,Prison,18,11,0,0,9,9,NA,NA,NA,NA,NA,NA,NA,NA,NA,NA,NA,NA,NA,NA,NA,NA,NA,NA,http://www.gdc.ga.gov/content/cases
464,10000304,RUTLEDGE STATE PRISON,2020-08-17,Georgia,COLUMBUS,Prison,19,24,0,2,16,21,NA,NA,NA,NA,NA,NA,NA,NA,NA,NA,NA,7175 MANOR ROAD,31907,MUSCOGEE,13215,32.495827961036,-84.8661797121481,NA,http://www.gdc.ga.gov/content/cases
465,10000309,SMITH STATE PRISON,2020-08-17,Georgia,GLENNVILLE,Prison,9,3,0,1,3,1,NA,NA,NA,NA,NA,NA,NA,NA,NA,NA,NA,9676 UNITED STATES HIGHWAY 301 NORTH,30427,TATTNALL,13267,31.9731083593774,-81.9157836141098,NA,http://www.gdc.ga.gov/content/cases
1711,NA,SMITH TC,2020-08-17,Georgia,NA,Prison,1,6,0,0,0,5,NA,NA,NA,NA,NA,NA,NA,NA,NA,NA,NA,NA,NA,NA,NA,NA,NA,NA,http://www.gdc.ga.gov/content/cases
466,10005191,TREUTLEN PDC,2020-08-17,Georgia,SOPERTON,Prison,4,8,0,0,3,0,NA,NA,NA,NA,NA,NA,NA,NA,NA,NA,NA,1 SESSIONS STREET,30457,TREUTLEN,13283,32.3624615030946,-82.6023810441275,NA,http://www.gdc.ga.gov/content/cases
467,10005201,TURNER RSAT,2020-08-17,Georgia,SYCAMORE,Prison,8,33,0,0,2,29,NA,NA,NA,NA,NA,NA,NA,NA,NA,NA,NA,514 SOUTH RAILROAD AVE,31790,TURNER,13287,31.6621586973818,-83.6339373137539,NA,http://www.gdc.ga.gov/content/cases
469,10000328,VALDOSTA STATE PRISON,2020-08-17,Georgia,VALDOSTA,Prison,57,12,0,0,41,10,NA,NA,NA,NA,NA,NA,NA,NA,NA,NA,NA,3259 VALTECH RD,31601,LOWNDES,13185,30.8599572270688,-83.345754025748107,NA,http://www.gdc.ga.gov/content/cases
470,10001432,VALDOSTA TC,2020-08-17,Georgia,VALDOSTA,Prison,1,1,0,0,1,1,NA,NA,NA,NA,NA,NA,NA,NA,NA,NA,NA,263 GILL HARBIN INDUSTRIAL BLVD,31601,LOWNDES,13185,30.8056587137606,-83.2675068962103,NA,http://www.gdc.ga.gov/content/cases
1699,NA,WALKER STATE PRISON,2020-08-17,Georgia,NA,Prison,1,1,0,0,0,0,NA,NA,NA,NA,NA,NA,NA,NA,NA,NA,NA,NA,NA,NA,NA,NA,NA,NA,http://www.gdc.ga.gov/content/cases
471,10002147,WARE STATE PRISON,2020-08-17,Georgia,WAYCROSS,Prison,43,26,0,2,26,5,NA,NA,NA,NA,NA,NA,NA,NA,NA,NA,NA,3620 NORTH HARRIS ROAD,31501,WARE,13299,31.2567308421211,-82.3933566052896,NA,http://www.gdc.ga.gov/content/cases
472,10002126,WASHINGTON STATE PRISON,2020-08-17,Georgia,DAVISBORO,Prison,7,5,0,0,3,0,NA,NA,NA,NA,NA,NA,NA,NA,NA,NA,NA,13262 HWY 24 E,31018,WASHINGTON,13303,32.9887237932409,-82.5949079802089,NA,http://www.gdc.ga.gov/content/cases
473,10004487,WEST CENTRAL ITF,2020-08-17,Georgia,ZEBULON,Prison,4,1,0,0,3,0,NA,NA,NA,NA,NA,NA,NA,NA,NA,NA,NA,1070 COUNTY FARM ROAD,30295,PIKE,13231,33.1160981497144,-84.3610402016447,NA,http://www.gdc.ga.gov/content/cases
1468,NA,WHITWORTH WOMENS FACILITY,2020-08-17,Georgia,NA,Prison,14,16,0,0,12,13,NA,NA,NA,NA,NA,NA,NA,NA,NA,NA,NA,NA,NA,NA,NA,NA,NA,NA,http://www.gdc.ga.gov/content/cases
1469,NA,WILCOX STATE PRISON,2020-08-17,Georgia,NA,Prison,13,28,0,1,3,17,NA,NA,NA,NA,NA,NA,NA,NA,NA,NA,NA,NA,NA,NA,NA,NA,NA,NA,http://www.gdc.ga.gov/content/cases
1460,NA,CLARKE COUNTY CI,2020-08-17,Georgia,NA,Prison,NA,15,0,0,NA,15,NA,NA,NA,NA,NA,NA,NA,NA,NA,NA,NA,NA,NA,NA,NA,NA,NA,NA,http://www.gdc.ga.gov/content/cases
439,10002144,COFFEE CORRECTIONAL FACILITY,2020-08-17,Georgia,NICHOLLS,Prison,NA,202,0,3,NA,190,NA,NA,NA,NA,NA,NA,NA,NA,NA,NA,NA,1153 NORTH LIBERTY STREET,31554,COFFEE,13069,31.5306354293181,-82.6379125894683,NA,http://www.gdc.ga.gov/content/cases
440,10004548,COLQUITT COUNTY CI,2020-08-17,Georgia,MOULTRIE,Prison,NA,11,0,0,NA,11,NA,NA,NA,NA,NA,NA,NA,NA,NA,NA,NA,200 SOUTH VANDENBERG DRIVE,31768,COLQUITT,13071,31.1297308177219,-83.7078659408289,NA,http://www.gdc.ga.gov/content/cases
1763,NA,DECATUR COUNTY CI,2020-08-17,Georgia,NA,Prison,NA,1,0,0,NA,0,NA,NA,NA,NA,NA,NA,NA,NA,NA,NA,NA,NA,NA,NA,NA,NA,NA,NA,http://www.gdc.ga.gov/content/cases
1461,NA,EFFINGHAM COUNTY CI,2020-08-17,Georgia,NA,Prison,NA,47,0,0,NA,47,NA,NA,NA,NA,NA,NA,NA,NA,NA,NA,NA,NA,NA,NA,NA,NA,NA,NA,http://www.gdc.ga.gov/content/cases
1462,NA,GWINNETT COUNTY CI,2020-08-17,Georgia,NA,Prison,NA,15,0,0,NA,14,NA,NA,NA,NA,NA,NA,NA,NA,NA,NA,NA,NA,NA,NA,NA,NA,NA,NA,http://www.gdc.ga.gov/content/cases
1764,NA,JEFFERSON COUNTY CI,2020-08-17,Georgia,NA,Prison,NA,1,0,0,NA,1,NA,NA,NA,NA,NA,NA,NA,NA,NA,NA,NA,NA,NA,NA,NA,NA,NA,NA,http://www.gdc.ga.gov/content/cases
1765,NA,JENKINS CORRECTIONAL CENTER,2020-08-17,Georgia,NA,Prison,NA,9,0,0,NA,0,NA,NA,NA,NA,NA,NA,NA,NA,NA,NA,NA,NA,NA,NA,NA,NA,NA,NA,http://www.gdc.ga.gov/content/cases
457,10002149,MITCHELL COUNTY CI,2020-08-17,Georgia,CAMILLA,Prison,NA,3,0,0,NA,3,NA,NA,NA,NA,NA,NA,NA,NA,NA,NA,NA,4838 STATE HWY 37 E,31730,MITCHELL,13205,31.2324017999999,-84.1800849999999,NA,http://www.gdc.ga.gov/content/cases
1766,NA,MUSCOGEE COUNTY CI,2020-08-17,Georgia,NA,Prison,NA,1,0,0,NA,1,NA,NA,NA,NA,NA,NA,NA,NA,NA,NA,NA,NA,NA,NA,NA,NA,NA,NA,http://www.gdc.ga.gov/content/cases
463,10006322,RIVERBEND CORRECTIONAL FACILITY,2020-08-17,Georgia,MILLEDGEVILLE,Prison,NA,18,0,3,NA,14,NA,NA,NA,NA,NA,NA,NA,NA,NA,NA,NA,196 LAYING FARM ROAD,31061,BALDWIN,13009,NA,NA,NA,http://www.gdc.ga.gov/content/cases
474,10002142,WHEELER CORRECTIONAL FACILITY,2020-08-17,Georgia,ALAMO,Prison,NA,54,0,0,NA,2,NA,NA,NA,NA,NA,NA,NA,NA,NA,NA,NA,195 NORTH BROAD STREET,30411,WHEELER,13309,32.1504926956896,-82.7950075321552,NA,http://www.gdc.ga.gov/content/cases
476,10000124,HCF,2020-08-17,Hawaii,AIEA,Prison,NA,0,NA,0,NA,0,NA,30,NA,19,NA,11,NA,0,NA,NA,NA,99-902 MOANALUA RD,96701,HONOLULU,15003,21.3737913394653,-157.898982192409,NA,https://dps.hawaii.gov/blog/2020/03/17/coronavirus-covid-19-information-and-resources/
475,10003694,HCCC,2020-08-17,Hawaii,HILO,Prison,NA,0,NA,0,NA,0,NA,30,NA,29,NA,1,NA,49,NA,NA,NA,60 PUNAHELE STREET,96720,HAWAII,15001,19.7183086559371,-155.09896318497,NA,https://dps.hawaii.gov/blog/2020/03/17/coronavirus-covid-19-information-and-resources/
477,10003692,KCCC,2020-08-17,Hawaii,LIHUE,Prison,NA,0,NA,0,NA,0,NA,7,NA,7,NA,0,NA,0,NA,NA,NA,3-5351 KUHIO HIGHWAY,96766,KAUAI,15007,22.0251525207779,-159.342819224978,NA,https://dps.hawaii.gov/blog/2020/03/17/coronavirus-covid-19-information-and-resources/
478,10000128,KCF,2020-08-17,Hawaii,HILO,Prison,NA,0,NA,0,NA,0,NA,1,NA,1,NA,0,NA,0,NA,NA,NA,HC 01 STAINBACK HWY,96720,HAWAII,15001,19.5491789266996,-155.301105308957,NA,https://dps.hawaii.gov/blog/2020/03/17/coronavirus-covid-19-information-and-resources/
479,10000127,MCCC,2020-08-17,Hawaii,WAILUKU,Prison,NA,0,NA,0,NA,0,NA,11,NA,11,NA,0,NA,0,NA,NA,NA,600 WAIALE DR,96793,MAUI,15009,20.8770160458046,-156.498375288867,NA,https://dps.hawaii.gov/blog/2020/03/17/coronavirus-covid-19-information-and-resources/
480,10003691,OCCC,2020-08-17,Hawaii,HONOLULU,Prison,NA,170,NA,0,NA,0,NA,400,NA,202,NA,26,NA,211,NA,NA,NA,2199 KAMEHAMEHA HIGHWAY,96819,HONOLULU,15003,21.3298938192474,-157.884873958585,NA,https://dps.hawaii.gov/blog/2020/03/17/coronavirus-covid-19-information-and-resources/
482,10000126,WCCC,2020-08-17,Hawaii,KAILUA,Prison,NA,0,NA,0,NA,0,NA,4,NA,1,NA,3,NA,0,NA,NA,NA,42-477 KALANIANAOLE HWY,96734,HONOLULU,15003,21.3780250426941,-157.748449869478,NA,https://dps.hawaii.gov/blog/2020/03/17/coronavirus-covid-19-information-and-resources/
483,10001191,WCF,2020-08-17,Hawaii,WAIPAHU,Prison,NA,0,NA,0,NA,0,NA,5,NA,5,NA,0,NA,83,NA,NA,NA,94-560 KAMEHAMEHA HWY,96797,HONOLULU,15003,21.4446500282664,-157.960909245692,NA,https://dps.hawaii.gov/blog/2020/03/17/coronavirus-covid-19-information-and-resources/
1470,NA,SAGUARO,2020-08-17,Hawaii,NA,Prison,NA,0,NA,0,NA,0,NA,42,NA,42,NA,0,NA,11,NA,NA,NA,NA,NA,NA,NA,NA,NA,NA,https://dps.hawaii.gov/blog/2020/03/17/coronavirus-covid-19-information-and-resources/
1474,NA,BIG MUDDY RIVER,2020-08-17,Illinois,NA,Prison,3,1,NA,0,2,1,NA,NA,NA,NA,NA,NA,NA,NA,NA,NA,NA,NA,NA,NA,NA,NA,NA,NA,https://www2.illinois.gov/idoc/facilities/Pages/Covid19Response.aspx
1770,NA,CENTRALIA,2020-08-17,Illinois,NA,Prison,4,0,NA,0,3,0,NA,NA,NA,NA,NA,NA,NA,NA,NA,NA,NA,NA,NA,NA,NA,NA,NA,NA,https://www2.illinois.gov/idoc/facilities/Pages/Covid19Response.aspx
501,10000635,CROSSROADS ATC,2020-08-17,Illinois,CHICAGO,Prison,1,3,NA,0,1,3,NA,NA,NA,NA,NA,NA,NA,NA,NA,NA,NA,3210 WEST ARTHINGTON STREET,60624,COOK,17031,41.8704835745159,-87.706359377782,NA,https://www2.illinois.gov/idoc/facilities/Pages/Covid19Response.aspx
502,10000662,DANVILLE,2020-08-17,Illinois,DANVILLE,Prison,1,0,NA,0,1,0,NA,NA,NA,NA,NA,NA,NA,NA,NA,NA,NA,3820 EAST MAIN STREET,61834,VERMILION,17183,40.1295667909211,-87.5364559331012,NA,https://www2.illinois.gov/idoc/facilities/Pages/Covid19Response.aspx
1475,NA,DECATUR,2020-08-17,Illinois,NA,Prison,3,0,NA,0,2,0,NA,NA,NA,NA,NA,NA,NA,NA,NA,NA,NA,NA,NA,NA,NA,NA,NA,NA,https://www2.illinois.gov/idoc/facilities/Pages/Covid19Response.aspx
503,10000642,DIXON CORRECTIONAL INSTITUTE,2020-08-17,Illinois,DIXON,Prison,6,0,NA,0,4,0,NA,NA,NA,NA,NA,NA,NA,NA,NA,NA,NA,2600 NORTH BRINTON AVENUE,61021,LEE,17103,41.8737451004064,-89.4781731694838,NA,https://www2.illinois.gov/idoc/facilities/Pages/Covid19Response.aspx
504,10000644,EAST MOLINE,2020-08-17,Illinois,EAST MOLINE,Prison,7,93,NA,0,6,71,NA,NA,NA,NA,NA,NA,NA,NA,NA,NA,NA,100 HILLCREST ROAD,61244,ROCK ISLAND,17161,41.5337290523413,-90.4191215104056,NA,https://www2.illinois.gov/idoc/facilities/Pages/Covid19Response.aspx
505,NA,ELGIN TREATMENT CENTER,2020-08-17,Illinois,NA,Prison,5,0,NA,0,5,0,NA,NA,NA,NA,NA,NA,NA,NA,NA,NA,NA,NA,NA,NA,17089,NA,NA,NA,https://www2.illinois.gov/idoc/facilities/Pages/Covid19Response.aspx
506,10000638,FOX VALLEY ATC,2020-08-17,Illinois,AURORA,Prison,7,4,NA,0,7,4,NA,NA,NA,NA,NA,NA,NA,NA,NA,NA,NA,1329 N LAKE ST,60506,KANE,17089,41.7879212524653,-88.3202915978952,NA,https://www2.illinois.gov/idoc/facilities/Pages/Covid19Response.aspx
1476,NA,GENERAL OFFICE,2020-08-17,Illinois,NA,Prison,6,0,NA,0,1,0,NA,NA,NA,NA,NA,NA,NA,NA,NA,NA,NA,NA,NA,NA,NA,NA,NA,NA,https://www2.illinois.gov/idoc/facilities/Pages/Covid19Response.aspx
507,10000674,GRAHAM,2020-08-17,Illinois,HILLSBORO,Prison,4,2,NA,0,1,0,NA,NA,NA,NA,NA,NA,NA,NA,NA,NA,NA,12078 ILLINOIS ROUTE 185,62049,MONTGOMERY,17135,39.1264896909498,-89.4749326230977,NA,https://www2.illinois.gov/idoc/facilities/Pages/Covid19Response.aspx
508,10000653,HILL,2020-08-17,Illinois,GALESBURG,Prison,3,20,NA,0,3,19,NA,NA,NA,NA,NA,NA,NA,NA,NA,NA,NA,600 SOUTH LINWOOD ROAD,61401,KNOX,17095,40.9397454826162,-90.4069579931376,NA,https://www2.illinois.gov/idoc/facilities/Pages/Covid19Response.aspx
1477,NA,ILLINOIS RIVER,2020-08-17,Illinois,NA,Prison,6,0,NA,0,5,0,NA,NA,NA,NA,NA,NA,NA,NA,NA,NA,NA,NA,NA,NA,NA,NA,NA,NA,https://www2.illinois.gov/idoc/facilities/Pages/Covid19Response.aspx
509,10000671,JACKSONVILLE,2020-08-17,Illinois,JACKSONVILLE,Prison,17,81,NA,0,3,1,NA,NA,NA,NA,NA,NA,NA,NA,NA,NA,NA,2268 EAST MORTON AVENUE,62650,MORGAN,17137,39.7266897576409,-90.1756144945182,NA,https://www2.illinois.gov/idoc/facilities/Pages/Covid19Response.aspx
510,10000646,JOLIET TREATMENT CENTER,2020-08-17,Illinois,JOLIET,Prison,28,0,NA,0,24,0,NA,NA,NA,NA,NA,NA,NA,NA,NA,NA,NA,2848 WEST MCDONOUGH,60436,WILL,17197,41.5123466936532,-88.1526461410471,NA,https://www2.illinois.gov/idoc/facilities/Pages/Covid19Response.aspx
511,10004677,KEWANEE LSRC,2020-08-17,Illinois,KEWANEE,Prison,6,0,NA,0,3,0,NA,NA,NA,NA,NA,NA,NA,NA,NA,NA,NA,2021 KENTVILLE ROAD,61443,HENRY,17073,41.253332089818,-89.8917123289119,NA,https://www2.illinois.gov/idoc/facilities/Pages/Covid19Response.aspx
1771,NA,LAWRENCE,2020-08-17,Illinois,NA,Prison,1,2,NA,0,0,0,NA,NA,NA,NA,NA,NA,NA,NA,NA,NA,NA,NA,NA,NA,NA,NA,NA,NA,https://www2.illinois.gov/idoc/facilities/Pages/Covid19Response.aspx
1478,NA,LINCOLN,2020-08-17,Illinois,NA,Prison,12,16,NA,0,7,0,NA,NA,NA,NA,NA,NA,NA,NA,NA,NA,NA,NA,NA,NA,NA,NA,NA,NA,https://www2.illinois.gov/idoc/facilities/Pages/Covid19Response.aspx
512,10000665,LOGAN,2020-08-17,Illinois,LINCOLN,Prison,16,72,NA,0,10,12,NA,NA,NA,NA,NA,NA,NA,NA,NA,NA,NA,1096 1350TH STREET,62656,LOGAN,17107,40.1140649,-89.3881401,NA,https://www2.illinois.gov/idoc/facilities/Pages/Covid19Response.aspx
513,10000687,MENARD,2020-08-17,Illinois,MENARD,Prison,31,31,NA,0,19,1,NA,NA,NA,NA,NA,NA,NA,NA,NA,NA,NA,711 KASKASKIA STREET,62259,RANDOLPH,17157,37.9126856911675,-89.8419781658563,NA,https://www2.illinois.gov/idoc/facilities/Pages/Covid19Response.aspx
1703,NA,MURPHYSBORO,2020-08-17,Illinois,NA,Prison,1,0,NA,0,1,0,NA,NA,NA,NA,NA,NA,NA,NA,NA,NA,NA,NA,NA,NA,NA,NA,NA,NA,https://www2.illinois.gov/idoc/facilities/Pages/Covid19Response.aspx
514,10000636,NORTH LAWNDALE ATC,2020-08-17,Illinois,CHICAGO,Prison,4,5,NA,0,4,5,NA,NA,NA,NA,NA,NA,NA,NA,NA,NA,NA,2839 WEST FILLMORE STREET,60612,COOK,17031,41.868038,-87.697785,NA,https://www2.illinois.gov/idoc/facilities/Pages/Covid19Response.aspx
1479,NA,PAROLE,2020-08-17,Illinois,NA,Prison,3,0,NA,0,2,0,NA,NA,NA,NA,NA,NA,NA,NA,NA,NA,NA,NA,NA,NA,NA,NA,NA,NA,https://www2.illinois.gov/idoc/facilities/Pages/Covid19Response.aspx
1480,NA,PEORIA ATC,2020-08-17,Illinois,NA,Prison,5,8,NA,0,5,8,NA,NA,NA,NA,NA,NA,NA,NA,NA,NA,NA,NA,NA,NA,NA,NA,NA,NA,https://www2.illinois.gov/idoc/facilities/Pages/Covid19Response.aspx
1481,NA,PINCKNEYVILLE,2020-08-17,Illinois,NA,Prison,5,0,NA,0,5,0,NA,NA,NA,NA,NA,NA,NA,NA,NA,NA,NA,NA,NA,NA,NA,NA,NA,NA,https://www2.illinois.gov/idoc/facilities/Pages/Covid19Response.aspx
515,10000655,PONTIAC,2020-08-17,Illinois,PONTIAC,Prison,11,6,NA,1,10,6,NA,NA,NA,NA,NA,NA,NA,NA,NA,NA,NA,700 WEST LINCOLN STREET,61764,LIVINGSTON,17105,40.8692835462051,-88.6360368898148,NA,https://www2.illinois.gov/idoc/facilities/Pages/Covid19Response.aspx
1482,NA,ROBINSON,2020-08-17,Illinois,NA,Prison,3,0,NA,0,0,0,NA,NA,NA,NA,NA,NA,NA,NA,NA,NA,NA,NA,NA,NA,NA,NA,NA,NA,https://www2.illinois.gov/idoc/facilities/Pages/Covid19Response.aspx
516,10000652,SHERIDAN,2020-08-17,Illinois,SHERIDAN,Prison,14,20,NA,0,8,20,NA,NA,NA,NA,NA,NA,NA,NA,NA,NA,NA,4017 EAST 2603 ROAD,60551,LA SALLE,17099,41.5160491248661,-88.6846597526037,NA,https://www2.illinois.gov/idoc/facilities/Pages/Covid19Response.aspx
517,10000685,SOUTHWESTERN IL,2020-08-17,Illinois,EAST ST LOUIS,Prison,15,0,NA,0,12,0,NA,NA,NA,NA,NA,NA,NA,NA,NA,NA,NA,950 KINGSHIGHWAY ST,62203,ST CLAIR,17163,38.616913022869,-90.0908181965704,NA,https://www2.illinois.gov/idoc/facilities/Pages/Covid19Response.aspx
518,10000647,STATEVILLE,2020-08-17,Illinois,JOLIET,Prison,98,260,NA,12,80,211,NA,NA,NA,NA,NA,NA,NA,NA,NA,NA,NA,16830 SOUTH BROADWAY STREET,60434,WILL,17197,41.5787377762752,-88.0945626662689,NA,https://www2.illinois.gov/idoc/facilities/Pages/Covid19Response.aspx
519,10000647,STATEVILLE NRC,2020-08-17,Illinois,JOLIET,Prison,43,9,NA,0,37,2,NA,NA,NA,NA,NA,NA,NA,NA,NA,NA,NA,16830 SOUTH BROADWAY STREET,60434,WILL,17197,41.5787377762752,-88.0945626662689,NA,https://www2.illinois.gov/idoc/facilities/Pages/Covid19Response.aspx
1483,NA,TAYLORVILLE,2020-08-17,Illinois,NA,Prison,3,1,NA,0,2,1,NA,NA,NA,NA,NA,NA,NA,NA,NA,NA,NA,NA,NA,NA,NA,NA,NA,NA,https://www2.illinois.gov/idoc/facilities/Pages/Covid19Response.aspx
1484,NA,VIENNA,2020-08-17,Illinois,NA,Prison,3,0,NA,0,3,0,NA,NA,NA,NA,NA,NA,NA,NA,NA,NA,NA,NA,NA,NA,NA,NA,NA,NA,https://www2.illinois.gov/idoc/facilities/Pages/Covid19Response.aspx
520,10000667,WESTERN IL,2020-08-17,Illinois,MOUNT STERLING,Prison,5,2,NA,0,4,0,NA,NA,NA,NA,NA,NA,NA,NA,NA,NA,NA,2500 RT 99 SOUTH,62353,BROWN,17009,39.9628569645,-90.7539665681765,NA,https://www2.illinois.gov/idoc/facilities/Pages/Covid19Response.aspx
521,10001075,BRANCHVILLE BTC,2020-08-17,Indiana,BRANCHVILLE,Prison,6,15,0,0,6,15,55,30,NA,NA,NA,NA,NA,1,NA,NA,NA,21390 OLD STATE RD 37,47514,PERRY,18123,38.1513782759866,-86.5998005602644,NA,https://www.in.gov/idoc/3780.htm
523,10004895,CHAIN OLAKES COL,2020-08-17,Indiana,ALBION,Prison,0,0,0,0,0,0,1,3,NA,NA,NA,NA,NA,0,NA,NA,NA,3516 E 75 SOUTH,46701,NOBLE,18113,41.337010276257,-85.3531025328601,NA,https://www.in.gov/idoc/3780.htm
524,10001060,CORRECTIONAL INDUSTRIAL CIF,2020-08-17,Indiana,PENDLETON,Prison,6,0,0,0,6,0,45,23,NA,NA,NA,NA,NA,0,NA,NA,NA,5124 W REFORMATORY RD,46064,MADISON,18095,39.9759849418104,-85.7713590923608,NA,https://www.in.gov/idoc/3780.htm
526,10004920,EDINBURGH JCU,2020-08-17,Indiana,EDINBURGH,Prison,12,8,0,0,11,8,37,9,NA,NA,NA,NA,NA,0,NA,NA,NA,PO BOX 470 23RD  SCHOOLHOUSE RD,46124,JOHNSON,18081,39.3514530197433,-86.0386027031857,NA,https://www.in.gov/idoc/3780.htm
528,10006309,HERITAGE TRAIL CORRECTIONAL FACILITY,2020-08-17,Indiana,PLAINFIELD,Prison,15,49,0,0,12,50,31,55,NA,NA,NA,NA,NA,0,NA,NA,NA,501 WEST MAIN STREET,46168,HENDRICKS,18063,39.693662238696,-86.4076171824369,NA,https://www.in.gov/idoc/3780.htm
529,10005599,INDIANA STATE PRISON ISP,2020-08-17,Indiana,MICHIGAN CITY,Prison,24,7,0,0,23,7,98,23,NA,NA,NA,NA,NA,0,NA,NA,NA,1 PARK ROW,46360,LAPORTE,18091,41.7034308928386,-86.917316898434,NA,https://www.in.gov/idoc/3780.htm
530,10001065,INDIANA WOMENS PRISON IWP,2020-08-17,Indiana,INDIANAPOLIS,Prison,15,25,1,0,11,25,46,68,NA,NA,NA,NA,NA,0,NA,NA,NA,2596 GIRLS SCHOOL ROAD,46214,MARION,18097,39.8009401842097,-86.2918979464388,NA,https://www.in.gov/idoc/3780.htm
532,10001053,LAPORTE JUVENILE LPJ,2020-08-17,Indiana,LA PORTE,Prison,2,0,0,0,2,0,7,0,NA,NA,NA,NA,NA,0,NA,NA,NA,809 STATE ST,46350,LAPORTE,18091,41.6120623102204,-86.7229225949385,NA,https://www.in.gov/idoc/3780.htm
535,10004903,LOGANSPORT LJCF,2020-08-17,Indiana,LOGANSPORT,Prison,6,0,0,0,6,0,24,0,NA,NA,NA,NA,NA,0,NA,NA,NA,1118 S STATE RD 25,46947,CASS,18017,40.7415460586947,-86.4015230939224,NA,https://www.in.gov/idoc/3780.htm
536,10006545,MADISON MCU,2020-08-17,Indiana,MADISON,Prison,6,0,0,0,5,0,66,13,NA,NA,NA,NA,NA,0,NA,NA,NA,1130 MSH 4TH STREET,47250,JEFFERSON,18077,38.7477811592524,-85.4004705149676,NA,https://www.in.gov/idoc/3780.htm
537,10001059,MIAMI MCF,2020-08-17,Indiana,BUNKER HILL,Prison,3,1,0,1,3,0,9,51,NA,NA,NA,NA,NA,0,NA,NA,NA,3038 W 850 S,46914,MIAMI,18103,40.6459300994516,-86.1353004068465,NA,https://www.in.gov/idoc/3780.htm
538,10004913,NEW CASTLE NCCF,2020-08-17,Indiana,NEW CASTLE,Prison,15,136,0,1,3,43,40,330,NA,NA,NA,NA,NA,94,NA,NA,NA,1000 VAN NUYS RD,47362,HENRY,18065,39.9623778786047,-85.3702254052184,NA,https://www.in.gov/idoc/3780.htm
539,10001061,PENDLETON ISR,2020-08-17,Indiana,PENDLETON,Prison,20,62,0,4,18,59,159,91,NA,NA,NA,NA,NA,0,NA,NA,NA,4490 W REFORMATORY RD,46064,MADISON,18095,39.9833811156233,-85.7608570226343,NA,https://www.in.gov/idoc/3780.htm
540,10001062,PENDLETON JUVENILE PNJ,2020-08-17,Indiana,PENDLETON,Prison,28,26,0,0,26,26,89,74,NA,NA,NA,NA,NA,0,NA,NA,NA,9310 S STATE RD 67,46064,MADISON,18095,39.969070672232,-85.7745804453376,NA,https://www.in.gov/idoc/3780.htm
542,10001067,PLAINFIELD IYC,2020-08-17,Indiana,PLAINFIELD,Prison,53,128,0,8,50,120,197,158,NA,NA,NA,NA,NA,0,NA,NA,NA,737 MOON RD,46168,HENDRICKS,18063,39.6889997248354,-86.4160404640473,NA,https://www.in.gov/idoc/3780.htm
543,10001071,PUTNAMVILLE ISF,2020-08-17,Indiana,GREENCASTLE,Prison,14,131,0,0,8,36,152,542,NA,NA,NA,NA,NA,494,NA,NA,NA,1946 W US HWY 40,46135,PUTNAM,18133,39.5650372576402,-86.8866648761438,NA,https://www.in.gov/idoc/3780.htm
544,10001067,RECEPTION DIAGNOSTIC RDC,2020-08-17,Indiana,PLAINFIELD,Prison,18,130,0,0,16,137,93,1405,NA,NA,NA,NA,NA,98,NA,NA,NA,737 MOON RD,46168,HENDRICKS,18063,39.6889997248354,-86.4160404640473,NA,https://www.in.gov/idoc/3780.htm
545,10001063,ROCKVILLE RTC,2020-08-17,Indiana,ROCKVILLE,Prison,7,1,0,0,6,0,67,19,NA,NA,NA,NA,NA,23,NA,NA,NA,811 W 50 N,47872,PARKE,18121,39.774315714295,-87.2543471684695,NA,https://www.in.gov/idoc/3780.htm
546,10001054,SOUTH BEND COMMUNITY SBCRC,2020-08-17,Indiana,SOUTH BEND,Prison,0,3,0,0,0,0,2,34,NA,NA,NA,NA,NA,16,NA,NA,NA,4650 OLD CLEVELAND RD,46628,ST JOSEPH,18141,41.7215113008718,-86.3120723002771,NA,https://www.in.gov/idoc/3780.htm
548,10001072,WABASH VALLEY WVCF,2020-08-17,Indiana,CARLISLE,Prison,17,6,1,0,11,5,124,82,NA,NA,NA,NA,NA,0,NA,NA,NA,6908 S OLD US HWY 41,47838,SULLIVAN,18153,38.9779291164484,-87.4003028739827,NA,https://www.in.gov/idoc/3780.htm
550,10001051,WESTVILLE WCC,2020-08-17,Indiana,WESTVILLE,Prison,110,205,0,6,106,197,351,264,NA,NA,NA,NA,NA,19,NA,NA,NA,5501 S 1100 W,46391,LAPORTE,18091,41.5257525654292,-86.908084952127,NA,https://www.in.gov/idoc/3780.htm
1485,NA,CENTRAL OFFICE,2020-08-17,Indiana,NA,Prison,3,NA,0,NA,3,NA,30,NA,NA,NA,NA,NA,NA,NA,NA,NA,NA,NA,NA,NA,NA,NA,NA,NA,https://www.in.gov/idoc/3780.htm
551,10001082,ANAMOSA,2020-08-17,Iowa,ANAMOSA,Prison,5,0,NA,0,2,0,NA,173,NA,NA,NA,NA,NA,NA,NA,NA,NA,406 N HIGH ST,52205,JONES,19105,42.1112907096043,-91.2912720247299,NA,https://doc.iowa.gov/COVID19
552,10001099,CLARINDA,2020-08-17,Iowa,CLARINDA,Prison,3,2,NA,0,2,1,NA,366,NA,NA,NA,NA,NA,NA,NA,NA,NA,2000 NORTH 16TH STREET,51632,PAGE,19145,40.7624909396464,-95.0358256253359,NA,https://doc.iowa.gov/COVID19
553,10001077,FORT DODGE,2020-08-17,Iowa,FORT DODGE,Prison,37,358,NA,3,33,341,NA,3642,NA,NA,NA,NA,NA,NA,NA,NA,NA,1550 L STREET,50501,WEBSTER,19187,42.4848925208666,-94.1960925265692,NA,https://doc.iowa.gov/COVID19
554,10001087,ICIW,2020-08-17,Iowa,MITCHELLVILLE,Prison,10,0,NA,0,8,0,NA,129,NA,NA,NA,NA,NA,NA,NA,NA,NA,420 MILL STREET SOUTHWEST,50169,POLK,19153,41.6629957920549,-93.3661037033624,NA,https://doc.iowa.gov/COVID19
555,10001091,IMCC,2020-08-17,Iowa,CORALVILLE,Prison,20,35,NA,0,17,34,NA,2354,NA,NA,NA,NA,NA,NA,NA,NA,NA,2700 CORAL RIDGE AVE,52241,JOHNSON,19103,41.713695970718,-91.6118258503199,NA,https://doc.iowa.gov/COVID19
556,10001100,ISP,2020-08-17,Iowa,FORT MADISON,Prison,5,0,NA,0,1,0,NA,54,NA,NA,NA,NA,NA,NA,NA,NA,NA,2111 330TH AVENUE,52627,LEE,19111,40.6536188269723,-91.3032678912847,NA,https://doc.iowa.gov/COVID19
557,10001096,MT PLEASANT,2020-08-17,Iowa,MOUNT PLEASANT,Prison,1,2,NA,0,0,2,NA,357,NA,NA,NA,NA,NA,NA,NA,NA,NA,1200 EAST WASHINGTON STREET,52641,HENRY,19087,40.955813838310704,-91.5361735821262,NA,https://doc.iowa.gov/COVID19
558,10001090,NEWTON,2020-08-17,Iowa,NEWTON,Prison,2,0,NA,0,2,0,NA,205,NA,NA,NA,NA,NA,NA,NA,NA,NA,307 SOUTH 60TH AVENUE WEST,50208,JASPER,19099,41.6271702177751,-93.0569685104879,NA,https://doc.iowa.gov/COVID19
559,10001080,NORTH CENTRAL,2020-08-17,Iowa,ROCKWELL CITY,Prison,0,0,NA,0,0,0,NA,84,NA,NA,NA,NA,NA,NA,NA,NA,NA,313 LANEDALE,50579,CALHOUN,19025,42.3922276229634,-94.6043766725378,NA,https://doc.iowa.gov/COVID19
561,10001045,EL DORADO,2020-08-17,Kansas,EL DORADO,Prison,15,14,0,0,13,10,NA,NA,NA,NA,NA,NA,NA,NA,NA,NA,NA,1737 SOUTHEAST UNITED STATES HIGHWAY 54,67042,BUTLER,20015,37.8032567271634,-96.8171326066807,NA,https://www.doc.ks.gov/kdoc-coronavirus-updates/kdoc-covid-19-status
562,10001040,ELLSWORTH,2020-08-17,Kansas,ELLSWORTH,Prison,4,2,0,0,3,0,NA,NA,NA,NA,NA,NA,NA,NA,NA,NA,NA,1607 STATE STREET,67439,ELLSWORTH,20053,38.7430114711192,-98.2321500791163,NA,https://www.doc.ks.gov/kdoc-coronavirus-updates/kdoc-covid-19-status
563,10001043,HUTCHINSON,2020-08-17,Kansas,HUTCHINSON,Prison,17,99,0,0,7,3,NA,NA,NA,NA,NA,NA,NA,NA,NA,NA,NA,500 REFORMATORY STREET,67504,RENO,20155,38.0445847573801,-97.910735785867,NA,https://www.doc.ks.gov/kdoc-coronavirus-updates/kdoc-covid-19-status
565,10001030,LANSING,2020-08-17,Kansas,LANSING,Prison,96,850,0,0,94,850,NA,NA,NA,NA,NA,NA,NA,NA,NA,NA,NA,301 EAST KANSAS AVE,66043,LEAVENWORTH,20103,39.2519041127165,-94.8913045507306,NA,https://www.doc.ks.gov/kdoc-coronavirus-updates/kdoc-covid-19-status
566,10001830,LARNED,2020-08-17,Kansas,LARNED,Prison,16,43,0,0,0,0,NA,NA,NA,NA,NA,NA,NA,NA,NA,NA,NA,1318 STATE HIGHWAY 264,67550,PAWNEE,20145,38.177107868988,-99.1510129373541,NA,https://www.doc.ks.gov/kdoc-coronavirus-updates/kdoc-covid-19-status
567,10001028,NORTON,2020-08-17,Kansas,NORTON,Prison,1,2,0,0,1,2,NA,NA,NA,NA,NA,NA,NA,NA,NA,NA,NA,ROAD EAST 4 AND UNITED STATES HIGHWAY 36,67654,NORTON,20137,39.8441632097653,-99.8163728368054,NA,https://www.doc.ks.gov/kdoc-coronavirus-updates/kdoc-covid-19-status
569,10001033,TOPEKA,2020-08-17,Kansas,TOPEKA,Prison,10,3,0,0,10,3,NA,NA,NA,NA,NA,NA,NA,NA,NA,NA,NA,815 SOUTHEAST RICE ROAD,66607,SHAWNEE,20177,39.0406927451068,-95.6254706983491,NA,https://www.doc.ks.gov/kdoc-coronavirus-updates/kdoc-covid-19-status
571,10001050,WINFIELD,2020-08-17,Kansas,WINFIELD,Prison,2,1,0,0,2,0,NA,NA,NA,NA,NA,NA,NA,NA,NA,NA,NA,1806 PINECREST CIRCLE,67156,COWLEY,20035,37.2642658676657,-96.9736512482982,NA,https://www.doc.ks.gov/kdoc-coronavirus-updates/kdoc-covid-19-status
570,10001048,WICHITA WORK RELEASE,2020-08-17,Kansas,WICHITA,Prison,9,58,0,0,9,58,NA,NA,NA,NA,NA,NA,NA,NA,NA,NA,NA,401 SOUTH EMPORIA STREET,67202,SEDGWICK,20173,37.6820965863011,-97.3332952348294,NA,https://www.doc.ks.gov/kdoc-coronavirus-updates/kdoc-covid-19-status
564,10001034,KJCC,2020-08-17,Kansas,TOPEKA,Prison,3,0,0,0,3,0,NA,NA,NA,NA,NA,NA,NA,NA,NA,NA,NA,1430 NORTHWEST 25TH STREET,66618,SHAWNEE,20177,39.0967872890694,-95.684233674512,NA,https://www.doc.ks.gov/kdoc-coronavirus-updates/kdoc-covid-19-status
572,10000122,BELL COUNTY FORESTRY CAMP,2020-08-17,Kentucky,PINEVILLE,Prison,1,0,0,0,NA,NA,NA,NA,NA,NA,NA,NA,NA,NA,NA,NA,NA,560 CORRECTIONAL DR,40977,BELL,21013,36.6689937950587,-83.8516923263816,NA,https://corrections.ky.gov/Facilities/Pages/covid19.aspx
573,10003650,BLACKBURN CORRECTIONAL COMPLEX,2020-08-17,Kentucky,LEXINGTON,Prison,1,0,0,0,NA,NA,NA,NA,NA,NA,NA,NA,NA,NA,NA,NA,NA,3111 SPURR RD,40511,FAYETTE,21067,38.113159348383,-84.5372045217855,NA,https://corrections.ky.gov/Facilities/Pages/covid19.aspx
574,10000110,EASTERN KENTUCKY CORRECTIONAL COMPLEX,2020-08-17,Kentucky,WEST LIBERTY,Prison,0,0,0,0,NA,NA,NA,NA,NA,NA,NA,NA,NA,NA,NA,NA,NA,200 ROAD TO JUSTICE,41472,MORGAN,21175,37.9038891099382,-83.2693099548641,NA,https://corrections.ky.gov/Facilities/Pages/covid19.aspx
575,10000117,GREEN RIVER CORRECTIONAL COMPLEX,2020-08-17,Kentucky,CENTRAL CITY,Prison,51,367,0,3,NA,NA,NA,NA,NA,NA,NA,NA,NA,NA,NA,NA,NA,1200 RIVER RD,42330,MUHLENBERG,21177,37.3143803020928,-87.1134167394017,NA,https://corrections.ky.gov/Facilities/Pages/covid19.aspx
576,10000106,KENTUCKY CORRECTIONAL INSTITUTION FOR WOMEN,2020-08-17,Kentucky,PEWEE VALLEY,Prison,32,243,0,0,NA,NA,NA,NA,NA,NA,NA,NA,NA,NA,NA,NA,NA,3000 ASH AVE,40056,SHELBY,21211,38.2854755968453,-85.4571197193385,NA,https://corrections.ky.gov/Facilities/Pages/covid19.aspx
577,10000120,KENTUCKY STATE PENITENTIARY,2020-08-17,Kentucky,EDDYVILLE,Prison,4,1,0,1,NA,NA,NA,NA,NA,NA,NA,NA,NA,NA,NA,NA,NA,266 WATER ST,42038,LYON,21143,37.0492710447248,-88.0757422094165,NA,https://corrections.ky.gov/Facilities/Pages/covid19.aspx
578,10000103,KENTUCKY STATE REFORMATORY,2020-08-17,Kentucky,LAGRANGE,Prison,21,221,0,7,NA,NA,NA,NA,NA,NA,NA,NA,NA,NA,NA,NA,NA,3001 W HWY 146,40032,OLDHAM,21185,38.4038913324781,-85.416582694977,NA,https://corrections.ky.gov/Facilities/Pages/covid19.aspx
579,10000115,LEE ADJUSTMENT CENTER,2020-08-17,Kentucky,BEATTYVILLE,Prison,1,0,0,0,NA,NA,NA,NA,NA,NA,NA,NA,NA,NA,NA,NA,NA,168 LEE ADJUSTMENT CENTER DRIVE,41311,LEE,21129,37.6066831020497,-83.70579564409,NA,https://corrections.ky.gov/Facilities/Pages/covid19.aspx
580,10000107,LITTLE SANDY CORRECTIONAL COMPLEX,2020-08-17,Kentucky,SANDY HOOK,Prison,0,0,0,0,NA,NA,NA,NA,NA,NA,NA,NA,NA,NA,NA,NA,NA,505 PRISON CONNECTOR,41171,ELLIOTT,21063,38.1339203311556,-83.081004222593,NA,https://corrections.ky.gov/Facilities/Pages/covid19.aspx
581,10000101,LUTHER LUCKETT CORRECTIONAL COMPLEX,2020-08-17,Kentucky,LAGRANGE,Prison,2,0,0,0,NA,NA,NA,NA,NA,NA,NA,NA,NA,NA,NA,NA,NA,1612 DAWKINS RD,40031,OLDHAM,21185,38.4124308737643,-85.4259908495759,NA,https://corrections.ky.gov/Facilities/Pages/covid19.aspx
582,10000116,NORTHPOINT TRAINING CENTER,2020-08-17,Kentucky,BURGIN,Prison,17,22,0,0,NA,NA,NA,NA,NA,NA,NA,NA,NA,NA,NA,NA,NA,710 WALTER REED RD,40310,BOYLE,21021,37.7100209190974,-84.7463568122559,NA,https://corrections.ky.gov/Facilities/Pages/covid19.aspx
583,10000102,ROEDERER CORRECTIONAL COMPLEX,2020-08-17,Kentucky,LAGRANGE,Prison,13,2,0,0,NA,NA,NA,NA,NA,NA,NA,NA,NA,NA,NA,NA,NA,PO BOX 69,40031,OLDHAM,21185,38.4031279909613,-85.4297630460536,NA,https://corrections.ky.gov/Facilities/Pages/covid19.aspx
585,10000121,WESTERN KENTUCKY CORRECTIONAL COMPLEX,2020-08-17,Kentucky,FREDONIA,Prison,0,0,0,0,NA,NA,NA,NA,NA,NA,NA,NA,NA,NA,NA,NA,NA,374 NEW BETHEL CHURCH RD,42411,LYON,21143,37.1364597871572,-88.0401480134619,NA,https://corrections.ky.gov/Facilities/Pages/covid19.aspx
586,10000967,ALLEN CORRECTIONAL CENTER,2020-08-17,Louisiana,KINDER,Prison,24,262,0,0,23,NA,167,804,NA,NA,NA,NA,NA,NA,NA,NA,NA,3751 LAUDERDALE WOODYARD RD,70648,ALLEN,22003,30.5614831926837,-92.789672681971,NA,https://doc.louisiana.gov/doc-covid-19-testing/
588,10000948,DAVID WADE CORRECTIONAL CENTER,2020-08-17,Louisiana,HOMER,Prison,26,13,0,0,12,NA,78,52,NA,NA,NA,NA,NA,NA,NA,NA,NA,670 BELL HILL RD,71040,CLAIBORNE,22027,32.9017308835314,-93.019544388459,NA,https://doc.louisiana.gov/doc-covid-19-testing/
590,10000972,ELAYN HUNT CORRECTIONAL CENTER,2020-08-17,Louisiana,ST GABRIEL,Prison,40,19,0,1,33,NA,116,105,NA,NA,NA,NA,NA,NA,NA,NA,NA,6925 HWY 74,70776,IBERVILLE,22047,30.2656369091593,-91.0862134067519,NA,https://doc.louisiana.gov/doc-covid-19-testing/
592,10000974,LOUISIANA CORRECTIONAL INSTITUTE FOR WOMEN HUNT,2020-08-17,Louisiana,ST GABRIEL,Prison,71,169,0,2,69,NA,327,198,NA,NA,NA,NA,NA,NA,NA,NA,NA,7205 STATE HWY 74,70776,IBERVILLE,22047,30.2631887953671,-91.0737434843383,NA,https://doc.louisiana.gov/doc-covid-19-testing/
593,NA,LOUISIANA CORRECTIONAL INSTITUTE FOR WOMEN JETSON,2020-08-17,Louisiana,NA,Prison,NA,178,NA,0,NA,NA,NA,273,NA,NA,NA,NA,NA,NA,NA,NA,NA,NA,NA,NA,NA,NA,NA,NA,https://doc.louisiana.gov/doc-covid-19-testing/
594,10000963,LOUISIANA STATE PENITENTIARY,2020-08-17,Louisiana,ANGOLA,Prison,121,246,3,13,77,NA,582,1262,NA,NA,NA,NA,NA,NA,NA,NA,NA,17544 TUNICA TRACE,70712,WEST FELICIANA,22125,30.9597693526242,-91.5973255924496,NA,https://doc.louisiana.gov/doc-covid-19-testing/
587,10002416,RAYBURN CORRECTIONAL CENTER,2020-08-17,Louisiana,ANGIE,Prison,36,62,0,1,33,NA,250,443,NA,NA,NA,NA,NA,NA,NA,NA,NA,27268 STATE HWY 21 N,70426,WASHINGTON,22117,30.9216982267576,-89.8158427326706,NA,https://doc.louisiana.gov/doc-covid-19-testing/
596,10000960,RAYMOND LABORDE CORRECTIONAL CENTER,2020-08-17,Louisiana,COTTONPORT,Prison,30,51,2,1,22,NA,97,96,NA,NA,NA,NA,NA,NA,NA,NA,NA,1630 PRISON RD,71327,AVOYELLES,22009,30.9744223229185,-92.0252270527833,NA,https://doc.louisiana.gov/doc-covid-19-testing/
