ID,jurisdiction,State,Name,Date,source,Residents.Confirmed,Staff.Confirmed,Residents.Deaths,Staff.Deaths,Residents.Recovered,Staff.Recovered,Residents.Tadmin,Staff.Tested,Residents.Negative,Staff.Negative,Residents.Pending,Staff.Pending,Residents.Quarantine,Staff.Quarantine,Residents.Active,Residents.Population,Address,Zipcode,City,County,Latitude,Longitude,County.FIPS,hifld_id,Notes
1865,state,Alabama,ADOC HEADQUARTERS,"December 16, 2020",http://www.doc.alabama.gov/covid19news,0,36,0,0,0,28,,,,,0,,,,,,,,,,,,,,
1866,state,Alabama,ALABAMA CORRECTIONS ACADEMY,"December 16, 2020",http://www.doc.alabama.gov/covid19news,0,18,0,0,0,14,,,,,0,,,,,,,,,,,,,,
1,state,Alabama,ALEX CITY,"December 16, 2020",http://www.doc.alabama.gov/covid19news,1,6,0,0,1,6,,,,,0,,,,,,HIGHWAY 22 WEST,35011,ALEX CITY,COOSA,32.90447114,-86.00896897,1037,10003721,
159,federal,Alabama,ALICEVILLE FCI,"December 16, 2020",https://www.bop.gov/coronavirus/,50,,0,0,47,9,,,,,4,,,,,1267,11070 HIGHWAY 14,35442,ALICEVILLE,PICKENS,33.17626974,-88.19304609,10107,10006173,
2,state,Alabama,ATEF,"December 16, 2020",http://www.doc.alabama.gov/covid19news,5,2,0,0,1,2,,,,,0,,,,,,102 INDUSTRIAL PARKWAY,35051,COLUMBIANA,SHELBY,33.18100499,-86.62401724,1117,10006524,
3,state,Alabama,BIBB,"December 16, 2020",http://www.doc.alabama.gov/covid19news,162,45,2,0,53,18,,,,,2,,,,,,565 BIBB LANE,35034,BRENT,BIBB,32.92242,-87.16458,1007,10001954,
4,state,Alabama,BIRMINGHAM,"December 16, 2020",http://www.doc.alabama.gov/covid19news,13,26,0,0,8,12,,,,,5,,,,,,1216 25TH ST N,35234,BIRMINGHAM,JEFFERSON,33.53104632,-86.80836181,1073,10001204,
5,state,Alabama,BULLOCK,"December 16, 2020",http://www.doc.alabama.gov/covid19news,69,42,2,0,66,35,,,,,4,,,,,,104 BULLOCK DR,36089,UNION SPRINGS,BULLOCK,32.14940285,-85.67232013,1011,10001223,
6,state,Alabama,CAMDEN,"December 16, 2020",http://www.doc.alabama.gov/covid19news,0,2,0,0,0,1,,,,,0,,,,,,1780 ALABAMA HWY 221,36726,CAMDEN,WILCOX,31.99483708,-87.33312321,1131,10000142,
7,state,Alabama,CHILDERSBURG,"December 16, 2020",http://www.doc.alabama.gov/covid19news,5,11,0,0,0,6,,,,,1,,,,,,13501 PLANT RD,35014,ALPINE,TALLADEGA,33.36493323,-86.33219762,1121,10001209,
9,state,Alabama,DONALDSON,"December 16, 2020",http://www.doc.alabama.gov/covid19news,14,25,0,0,2,6,,,,,8,,,,,,100 WARRIOR LN,35023,BESSEMER,JEFFERSON,33.51366663,-87.18478369,1073,10000132,
1376,state,Alabama,DRAPER QIF,"December 16, 2020",http://www.doc.alabama.gov/covid19news,82,0,0,0,82,0,,,,,2,,,,,,,,,,,,,,
10,state,Alabama,EASTERLING,"December 16, 2020",http://www.doc.alabama.gov/covid19news,56,25,1,0,51,14,,,,,0,,,,,,200 WALLACE DR,36017,CLIO,BARBOUR,31.68938149,-85.58555889,1005,10000144,
11,state,Alabama,ELBA,"December 16, 2020",http://www.doc.alabama.gov/covid19news,1,8,0,0,1,2,,,,,0,,,,,,1620 BOSWELL ST,36323,ELBA,COFFEE,31.41312386,-86.08373748,1031,10001226,
12,state,Alabama,ELMORE,"December 16, 2020",http://www.doc.alabama.gov/covid19news,27,18,0,0,27,18,,,,,0,,,,,,3520 MARION SPILLWAY ROAD,36025,ELMORE,ELMORE,32.57430479,-86.32080582,1051,10001214,
13,state,Alabama,FOUNTAIN,"December 16, 2020",http://www.doc.alabama.gov/covid19news,20,31,1,0,18,28,,,,,0,,,,,,9677 AL HWY 21 N,36503,ATMORE,ESCAMBIA,31.15658,-87.46372,1053,10001957,
14,state,Alabama,FRANK LEE,"December 16, 2020",http://www.doc.alabama.gov/covid19news,1,17,0,0,1,9,,,,,0,,,,,,5305 INGRAM RD,36022,DEATSVILLE,ELMORE,32.58235451,-86.39221844,1051,10003728,
15,state,Alabama,HAMILTON A I,"December 16, 2020",http://www.doc.alabama.gov/covid19news,37,33,5,0,19,21,,,,,5,,,,,,223 SASSER DR,35570,HAMILTON,MARION,34.12434611,-87.99171938,1093,10001197,
16,state,Alabama,HAMILTON CBF,"December 16, 2020",http://www.doc.alabama.gov/covid19news,8,21,2,0,5,2,,,,,0,,,,,,1826 BEXAR AVE E,35570,HAMILTON,MARION,34.14329559,-87.95895958,1093,10001199,
17,state,Alabama,HOLMAN,"December 16, 2020",http://www.doc.alabama.gov/covid19news,37,25,1,0,34,23,,,,,1,,,,,,866 ROSS RD,36503,ATMORE,ESCAMBIA,31.13438612,-87.4498642,1053,10000149,
18,state,Alabama,KILBY,"December 16, 2020",http://www.doc.alabama.gov/covid19news,10,38,1,0,9,37,,,,,0,,,,,,12201 WARES FERRY RD,36117,MONTGOMERY,MONTGOMERY,32.38835654,-86.1009811,1101,10001221,
19,state,Alabama,LIMESTONE,"December 16, 2020",http://www.doc.alabama.gov/covid19news,108,72,4,0,80,22,,,,,14,,,,,,28779 NICK DAVIS RD,35749,HARVEST,LIMESTONE,34.81254392,-86.80413307,1083,10000129,
20,state,Alabama,LOXLEY,"December 16, 2020",http://www.doc.alabama.gov/covid19news,106,14,0,0,105,14,,,,,0,,,,,,14880 COUNTY RD 64,36551,LOXLEY,BALDWIN,30.6153358,-87.77030984,1003,10000146,
21,state,Alabama,MOBILE,"December 16, 2020",http://www.doc.alabama.gov/covid19news,0,7,0,0,0,6,,,,,0,,,,,,2423 N BELTLINE HWY,36610,PRITCHARD,MOBILE,30.73788106,-88.10905742,1097,10000150,
293,federal,Alabama,MONTGOMERY FPC,"December 16, 2020",https://www.bop.gov/coronavirus/,43,,0,0,0,2,,,,,3,,,,,858,MAXWELL AIR FORCE BASE,36112,MONTGOMERY,MONTGOMERY,32.39424124,-86.35915818,1101,10000141,
22,state,Alabama,MONTGOMERY WF,"December 16, 2020",http://www.doc.alabama.gov/covid19news,1,10,0,0,1,5,,,,,0,,,,,,12085 WARES FERRY RD,36117,MONTGOMERY,MONTGOMERY,,,1101,10001222,
23,state,Alabama,NORTH ALABAMA,"December 16, 2020",http://www.doc.alabama.gov/covid19news,85,27,0,0,85,25,,,,,0,,,,,,1401 STATE HIGHWAY 20 WEST,35601,DECATUR,MORGAN,34.61756728,-87.00562813,1103,10003698,
24,state,Alabama,RED EAGLE,"December 16, 2020",http://www.doc.alabama.gov/covid19news,0,3,0,0,0,1,,,,,0,,,,,,1290 RED EAGLE RD,36110,MONTGOMERY,MONTGOMERY,32.46559439,-86.23690422,1101,10001218,
1650,federal,Alabama,RRC BIRMINGHAM ALABAMA,"December 16, 2020",https://www.bop.gov/coronavirus/,2,,0,0,0,0,,,,,0,,,,,,,,,,,,,,
1439,federal,Alabama,RRC SPANISH FORT ALABAMA,"December 16, 2020",https://www.bop.gov/coronavirus/,0,,,,,,,,,,1,,,,,,,,,,,,,,
25,state,Alabama,ST CLAIR,"December 16, 2020",http://www.doc.alabama.gov/covid19news,102,51,15,0,78,36,,,,,0,,,,,,1000 SAINT CLAIR ROAD,35146,SPRINGVILLE,ST CLAIR,33.74558817,-86.38437373,1115,10003710,
27,state,Alabama,STATON,"December 16, 2020",http://www.doc.alabama.gov/covid19news,42,49,7,0,34,35,,,,,0,,,,,,2690 MARION SPILLWAY RD,36025,ELMORE,ELMORE,32.577215700000004,-86.33248852,1051,10000140,
330,federal,Alabama,TALLADEGA FCI,"December 16, 2020",https://www.bop.gov/coronavirus/,190,,1,0,158,9,,,,,0,,,,,793,565 EAST RENFROE ROAD,35160,TALLADEGA,TALLADEGA,33.42063528,-86.14008892,1121,10000136,
1864,state,Alabama,TUTWILER PRISON FOR WOMEN,"December 16, 2020",http://www.doc.alabama.gov/covid19news,16,53,1,2,15,42,,,,,2,,,,,,,,,,,,,,
1377,state,Alabama,TUTWILER QIF,"December 16, 2020",http://www.doc.alabama.gov/covid19news,9,0,0,0,9,0,,,,,0,,,,,,,,,,,,,,
29,state,Alabama,VENTRESS,"December 16, 2020",http://www.doc.alabama.gov/covid19news,17,32,1,0,16,26,,,,,0,,,,,,379 ALABAMA HWY 239 N,36016,CLAYTON,BARBOUR,31.88902864,-85.49299808,1005,10000143,
33,state,Alaska,STATEWIDE,"December 16, 2020",https://doc.alaska.gov/covid-19,1384,,,,,,14318,,11927,,824,,,,,,,,,,,,,,
169,federal,Arizona,BEHAVIORAL SYSTEMS SOUTHWEST INC RRC PHOENIX,"December 16, 2020",https://www.bop.gov/coronavirus/,5,,1,0,1,0,,,,,0,,,,,,2846 E ROOSEVELT ST,85008,PHOENIX,,33.4588091,-112.0198483,4013,,
34,state,Arizona,CACF,"December 16, 2020",https://corrections.az.gov/adcrr-covid-19-dashboard?order=title_field&sort=asc,67,,3,,64,,,,1134,,0,,,,,,1401 E DIVERSION DAM RD,85132,FLORENCE,PINAL,33.03731012,-111.3727528,4021,10000618,
1621,federal,Arizona,CENTRAL AZ DETENTION CENTER,"December 16, 2020",https://www.bop.gov/coronavirus/,1,,0,0,1,0,,,,,0,,,,,,,,,,,,,,
35,state,Arizona,DOUGLAS,"December 16, 2020",https://corrections.az.gov/adcrr-covid-19-dashboard?order=title_field&sort=asc,815,,0,,211,,,,1274,,0,,,,,2086,6911 N BDI BLVD,85607,DOUGLAS,COCHISE,31.46242829,-109.5912299,4003,10000632,
37,state,Arizona,EYMAN,"December 16, 2020",https://corrections.az.gov/adcrr-covid-19-dashboard?order=title_field&sort=asc,963,,1,,415,,,,4422,,0,,,,,5693,4374 E BUTTE AVE,85132,FLORENCE,PINAL,33.03691871,-111.3264441,4021,10000615,
38,state,Arizona,FLORENCE,"December 16, 2020",https://corrections.az.gov/adcrr-covid-19-dashboard?order=title_field&sort=asc,294,,12,,264,,,,2934,,0,,,,,3924,1305 E BUTTE AVE,85132,FLORENCE,PINAL,33.02816949,-111.3707281,4021,10003976,
40,state,Arizona,FLORENCE WEST,"December 16, 2020",https://corrections.az.gov/adcrr-covid-19-dashboard?order=title_field&sort=asc,0,,0,,0,,,,478,,0,,,,,,915 EAST DIVERSION DAM ROAD,85132,FLORENCE,PINAL,33.037233,-111.376527,4021,10006312,
41,state,Arizona,KINGMAN,"December 16, 2020",https://corrections.az.gov/adcrr-covid-19-dashboard?order=title_field&sort=asc,56,,1,,54,,,,2632,,0,,,,,,4626 WEST ENGLISH DRIVE,86414,GOLDEN VALLEY,MOHAVE,35.02891497,-114.1796097,4015,10003957,
42,state,Arizona,LEWIS,"December 16, 2020",https://corrections.az.gov/adcrr-covid-19-dashboard?order=title_field&sort=asc,341,,2,,283,,,,3839,,0,,,,,4623,26700 S HWY 85,85326,BUCKEYE,MARICOPA,33.2085241,-112.6514629,4013,10000605,
43,state,Arizona,MARANA,"December 16, 2020",https://corrections.az.gov/adcrr-covid-19-dashboard?order=title_field&sort=asc,9,,0,,8,,,,331,,0,,,,,,12610 W SILVERBELL RD,85653,MARANA,PIMA,32.41791032,-111.2412161,4019,10000626,
1733,county,Arizona,MARICOPA COUNTY JAIL,"December 16, 2020",https://www.maricopa.gov/5574/COVID-19-in-County-Jails,1780,,0,,688,,21426,,19472,,174,,,,,,,,,,,,,,
45,state,Arizona,MRC,"December 16, 2020",https://corrections.az.gov/adcrr-covid-19-dashboard?order=title_field&sort=asc,0,,0,,0,,,,0,,0,,,,,,24601 N 29TH AVE,85027,PHOENIX,MARICOPA,33.70669655,-112.1194385,4013,10002246,
46,state,Arizona,PERRYVILLE,"December 16, 2020",https://corrections.az.gov/adcrr-covid-19-dashboard?order=title_field&sort=asc,117,,0,,83,,,,4242,,0,,,,,4336,2105 N CITRUS RD,85395,GOODYEAR,MARICOPA,33.47038654,-112.4377658,4013,10000606,
47,state,Arizona,PHOENIX,"December 16, 2020",https://corrections.az.gov/adcrr-covid-19-dashboard?order=title_field&sort=asc,429,,0,,385,,,,3494,,0,,,,,544,2500 E VAN BUREN ST,85008,PHOENIX,MARICOPA,33.45312989,-112.0250399,4013,10002245,
1435,federal,Arizona,PHOENIX FCI,"December 16, 2020",https://www.bop.gov/coronavirus/,226,,0,0,85,21,,,,,334,,,,,,,,,,,,,,
48,state,Arizona,PHOENIX WEST,"December 16, 2020",https://corrections.az.gov/adcrr-covid-19-dashboard?order=title_field&sort=asc,21,,0,,3,,,,346,,0,,,,,,3402 W COCOPAH ST,85009,PHOENIX,MARICOPA,33.43277711,-112.1326085,4013,10002244,
49,state,Arizona,PRC,"December 16, 2020",https://corrections.az.gov/adcrr-covid-19-dashboard?order=title_field&sort=asc,0,,0,,0,,,,0,,0,,,,,,1275 W STARR PASS BLVD,85713,TUCSON,PIMA,32.2037634,-110.9909333,4019,10000630,
50,state,Arizona,RED ROCK,"December 16, 2020",https://corrections.az.gov/adcrr-covid-19-dashboard?order=title_field&sort=asc,90,,0,,71,,,,1580,,0,,,,,,1750 EAST ARICA ROAD,85131,ELOY,PINAL,32.81056,-111.5196,4021,10003974,
51,state,Arizona,SAFFORD,"December 16, 2020",https://corrections.az.gov/adcrr-covid-19-dashboard?order=title_field&sort=asc,15,,0,,12,,,,1416,,0,,,,,1579,896 S COOK RD,85546,SAFFORD,GRAHAM,32.82810149,-109.5636396,4009,10002248,
1440,federal,Arizona,SAFFORD FCI,"December 16, 2020",https://www.bop.gov/coronavirus/,40,,0,0,8,2,,,,,44,,,,,,,,,,,,,,
52,state,Arizona,STATEWIDE,"December 16, 2020",https://corrections.az.gov/adcrr-covid-19-dashboard?order=title_field&sort=asc,,1517,,,,1229,,,,,,,,,,,,,,,,,,,
53,state,Arizona,TUCSON,"December 16, 2020",https://corrections.az.gov/adcrr-covid-19-dashboard?order=title_field&sort=asc,1314,,11,,1271,,,,3930,,0,,,,,,10000 S WILMOT RD,85734,TUCSON,PIMA,32.06640097,-110.8663122,4019,10000628,
341,federal,Arizona,TUCSON FCI,"December 16, 2020",https://www.bop.gov/coronavirus/,155,,0,0,140,13,,,,,0,,,,,630,8901 S WILMOT RD,85706,TUCSON,PIMA,32.08957049,-110.8562398,4019,10000624,
342,federal,Arizona,TUCSON USP,"December 16, 2020",https://www.bop.gov/coronavirus/,637,,8,0,622,15,,,,,2,,,,,1385,9300 S WILMOT RD,85756,TUCSON,PIMA,32.08384226,-110.867108,4019,10000627,
54,state,Arizona,WINSLOW,"December 16, 2020",https://corrections.az.gov/adcrr-covid-19-dashboard?order=title_field&sort=asc,115,,0,,103,,,,1176,,0,,,,,1295,2100 S HWY 87,86047,WINSLOW,NAVAJO,34.98471625,-110.7210891,4017,10000595,
55,state,Arizona,YUMA,"December 16, 2020",https://corrections.az.gov/adcrr-covid-19-dashboard?order=title_field&sort=asc,844,,3,,245,,,,3704,,0,,,,,4876,7125 E CESAR CHAVEZ BLVD,85349,SAN LUIS,YUMA,32.48750181,-114.6397153,4027,10000622,
1408,federal,Arkansas,CITY FAITH LITTLE ROCK AR,"December 16, 2020",https://www.bop.gov/coronavirus/,1,,0,0,1,0,,,,,0,,,,,,,,,,,,,,
248,federal,Arkansas,FORREST CITY LOW FCI,"December 16, 2020",https://www.bop.gov/coronavirus/,689,,0,0,607,4,,,,,0,,,,,1821,1400 DALE BUMPERS ROAD,72335,FORREST CITY,ST FRANCIS,34.98233926,-90.80306156,5123,10003614,
249,federal,Arkansas,FORREST CITY MEDIUM FCI,"December 16, 2020",https://www.bop.gov/coronavirus/,303,,0,0,106,5,,,,,2,,,,,1821,1400 DALE BUMPERS ROAD,72335,FORREST CITY,ST FRANCIS,34.98233926,-90.80306156,5123,10003614,
57,state,Arkansas,STATEWIDE,"December 16, 2020",https://doc.arkansas.gov/covid-19-updates/,9186,,,,8763,,,,,,,,,,423,,,,,,,,,,
58,state,California,ASP AVENAL STATE PRISON,"December 16, 2020",https://www.cdcr.ca.gov/covid19/cdcr-cchcs-covid-19-status/; https://www.cdcr.ca.gov/covid19/updates/,3013,399,8,,2900,358,,,,,,,,,23,4204,1 KINGS WAY,93204,AVENAL,KINGS,35.97394934,-120.1231018,6031,10000826,
1398,federal,California,ATWATER USP,"December 16, 2020",https://www.bop.gov/coronavirus/,28,,0,0,17,13,,,,,61,,,,,,,,,,,,,,
171,federal,California,BRAWLEY RRC,"December 16, 2020",https://www.bop.gov/coronavirus/,10,,1,0,3,0,,,,,0,,,,,,,,,,,,,,
59,state,California,CAC CALIFORNIA CITY CORRECTIONAL FACILITY,"December 16, 2020",https://www.cdcr.ca.gov/covid19/cdcr-cchcs-covid-19-status/; https://www.cdcr.ca.gov/covid19/updates/,465,124,0,,110,56,,,,,,,,,352,,22844 VIRGINIA BLVD,93505,CALIFORNIA CITY,KERN,35.1532512,-117.8588801,6029,10000852,
60,state,California,CAL CALIPATRIA STATE PRISON,"December 16, 2020",https://www.cdcr.ca.gov/covid19/cdcr-cchcs-covid-19-status/; https://www.cdcr.ca.gov/covid19/updates/,425,231,0,,193,149,,,,,,,,,223,3109,7018 BLAIR ROAD,92233,CALIPATRIA,IMPERIAL,33.16569337,-115.484344,6025,10002347,
61,state,California,CCC CALIFORNIA CORRECTIONAL CENTER,"December 16, 2020",https://www.cdcr.ca.gov/covid19/cdcr-cchcs-covid-19-status/; https://www.cdcr.ca.gov/covid19/updates/,732,160,0,,665,70,,,,,,,,,32,4049,711-045 CENTER ROAD,96127,SUSANVILLE,LASSEN,40.40195801,-120.5167302,6035,10000773,
62,state,California,CCI CALIFORNIA CORRECTIONAL INSTITUTION,"December 16, 2020",https://www.cdcr.ca.gov/covid19/cdcr-cchcs-covid-19-status/; https://www.cdcr.ca.gov/covid19/updates/,1041,393,0,,804,259,,,,,,,,,173,3696,24900 HWY 202,93561,TEHACHAPI,KERN,35.10991489,-118.5703307,6029,10001530,
63,state,California,CCWF CENTRAL CA WOMENS FACILITY,"December 16, 2020",https://www.cdcr.ca.gov/covid19/cdcr-cchcs-covid-19-status/; https://www.cdcr.ca.gov/covid19/updates/,28,138,0,,17,77,,,,,,,,,11,2814,23370 ROAD 22,93610,CHOWCHILLA,MADERA,37.09368073,-120.1527098,6039,10000801,
1739,state,California,CDCR CCHCS WORKSITE LOCATION FRESNO COUNTY,"December 16, 2020",https://www.cdcr.ca.gov/covid19/cdcr-cchcs-covid-19-status/,,8,,,,2,,,,,,,,,,,,,,,,,,,
1738,state,California,CDCR CCHCS WORKSITE LOCATION IMPERIAL COUNTY,"December 16, 2020",https://www.cdcr.ca.gov/covid19/cdcr-cchcs-covid-19-status/,,5,,,,1,,,,,,,,,,,,,,,,,,,
1644,state,California,CDCR CCHCS WORKSITE LOCATION KERN COUNTY,"December 16, 2020",https://www.cdcr.ca.gov/covid19/cdcr-cchcs-covid-19-status/,,16,,,,5,,,,,,,,,,,,,,,,,,,
101,state,California,CDCR CCHCS WORKSITE LOCATION LOS ANGELES COUNTY,"December 16, 2020",https://www.cdcr.ca.gov/covid19/cdcr-cchcs-covid-19-status/,,41,,,,15,,,,,,,,,,,,,,,,,6037,,
1737,state,California,CDCR CCHCS WORKSITE LOCATION MENDOCINO COUNTY,"December 16, 2020",https://www.cdcr.ca.gov/covid19/cdcr-cchcs-covid-19-status/,,2,,,,1,,,,,,,,,,,,,,,,,,,
1681,state,California,CDCR CCHCS WORKSITE LOCATION MONTEREY COUNTY,"December 16, 2020",https://www.cdcr.ca.gov/covid19/cdcr-cchcs-covid-19-status/,,3,,,,2,,,,,,,,,,,,,,,,,,,
1736,state,California,CDCR CCHCS WORKSITE LOCATION ORANGE COUNTY,"December 16, 2020",https://www.cdcr.ca.gov/covid19/cdcr-cchcs-covid-19-status/,,6,,,,4,,,,,,,,,,,,,,,,,,,
1735,state,California,CDCR CCHCS WORKSITE LOCATION SAN LUIS OBISPO COUNTY,"December 16, 2020",https://www.cdcr.ca.gov/covid19/cdcr-cchcs-covid-19-status/,,0,,,,0,,,,,,,,,,,,,,,,,,,
1682,state,California,CDCR CCHCS WORKSITE LOCATION SANTA BARBARA COUNTY,"December 16, 2020",https://www.cdcr.ca.gov/covid19/cdcr-cchcs-covid-19-status/,,2,,,,1,,,,,,,,,,,,,,,,,,,
1734,state,California,CDCR CCHCS WORKSITE LOCATION SANTA CLARA COUNTY,"December 16, 2020",https://www.cdcr.ca.gov/covid19/cdcr-cchcs-covid-19-status/,,3,,,,1,,,,,,,,,,,,,,,,,,,
1683,state,California,CDCR CCHCS WORKSITE LOCATION SOLANO COUNTY,"December 16, 2020",https://www.cdcr.ca.gov/covid19/cdcr-cchcs-covid-19-status/,,2,,,,2,,,,,,,,,,,,,,,,,,,
1684,state,California,CDCR CCHCS WORKSITE LOCATION STANISLAUS COUNTY,"December 16, 2020",https://www.cdcr.ca.gov/covid19/cdcr-cchcs-covid-19-status/,,1,,,,1,,,,,,,,,,,,,,,,,,,
1685,state,California,CDCR CCHCS WORKSITE LOCATION TULARE COUNTY,"December 16, 2020",https://www.cdcr.ca.gov/covid19/cdcr-cchcs-covid-19-status/,,1,,,,1,,,,,,,,,,,,,,,,,,,
1686,state,California,CDCR CCHCS WORKSITE LOCATION VENTURA COUNTY,"December 16, 2020",https://www.cdcr.ca.gov/covid19/cdcr-cchcs-covid-19-status/,,3,,,,1,,,,,,,,,,,,,,,,,,,
102,state,California,CDCR CCHCS WORKSITE RIVERSIDE COUNTY,"December 16, 2020",https://www.cdcr.ca.gov/covid19/cdcr-cchcs-covid-19-status/,,7,,,,3,,,,,,,,,,,,,,,,,6065,,
103,state,California,CDCR CCHCS WORKSITE SACRAMENTO COUNTY,"December 16, 2020",https://www.cdcr.ca.gov/covid19/cdcr-cchcs-covid-19-status/,,119,,,,55,,,,,,,,,,,,,,,,,6067,,
104,state,California,CDCR CCHCS WORKSITE SAN BERNARDINO COUNTY,"December 16, 2020",https://www.cdcr.ca.gov/covid19/cdcr-cchcs-covid-19-status/,,33,,,,9,,,,,,,,,,,,,,,,,6071,,
1390,state,California,CDCR CCHCS WORKSITE SAN DIEGO COUNTY,"December 16, 2020",https://www.cdcr.ca.gov/covid19/cdcr-cchcs-covid-19-status/,,2,,,,1,,,,,,,,,,,,,,,,,,,
1389,state,California,CDCR CCHCS WORKSITE SAN JOAQUIN COUNTY,"December 16, 2020",https://www.cdcr.ca.gov/covid19/cdcr-cchcs-covid-19-status/,,10,,,,5,,,,,,,,,,,,,,,,,,,
,state,California,CDCRCCHCS WORKSITE LOCATION SAN FRANCISCO COUNTY,"December 16, 2020",https://www.cdcr.ca.gov/covid19/cdcr-cchcs-covid-19-status/,,1,,,,0,,,,,,,,,,,,,,,,,,,
,state,California,CDCRCCHCS WORKSITE LOCATION YOLO COUNTY,"December 16, 2020",https://www.cdcr.ca.gov/covid19/cdcr-cchcs-covid-19-status/,,1,,,,0,,,,,,,,,,,,,,,,,,,
64,state,California,CEN CALIFORNIA STATE PRISON CENTINELA,"December 16, 2020",https://www.cdcr.ca.gov/covid19/cdcr-cchcs-covid-19-status/; https://www.cdcr.ca.gov/covid19/updates/,688,273,1,,180,162,,,,,,,,,498,3475,2302 BROWN ROAD,92251,IMPERIAL,IMPERIAL,32.82339731,-115.7890555,6025,10002348,
82,state,California,CHADERJIAN YOUTH CORRECTIONAL FACILITY,"December 16, 2020",https://www.cdcr.ca.gov/covid19/cdcr-cchcs-covid-19-status/,,24,,,,7,,,,,,,,,,,7650 SOUTH NEWCASTLE ROAD,95215,STOCKTON,SAN JOAQUIN,37.8911829,-121.1978212,6077,10000796,
65,state,California,CHCF CALIFORNIA HEALTH CARE FACILITY,"December 16, 2020",https://www.cdcr.ca.gov/covid19/cdcr-cchcs-covid-19-status/; https://www.cdcr.ca.gov/covid19/updates/,48,332,2,,20,182,,,,,,,,,25,,7707 AUSTIN ROAD,95215,STOCKTON,SAN JOAQUIN,37.8947278,-121.1848441,6077,10000799,
66,state,California,CIM CALIFORNIA INSTITUTION FOR MEN,"December 16, 2020",https://www.cdcr.ca.gov/covid19/cdcr-cchcs-covid-19-status/; https://www.cdcr.ca.gov/covid19/updates/,1425,380,27,,1359,325,,,,,,,,,2,3627,14901 CENTRAL AVENUE,91710,CHINO,SAN BERNARDINO,33.98471223,-117.6823919,6071,10000836,
67,state,California,CIW CALIFORNIA INSTITUTION FOR WOMEN,"December 16, 2020",https://www.cdcr.ca.gov/covid19/cdcr-cchcs-covid-19-status/; https://www.cdcr.ca.gov/covid19/updates/,428,167,1,,343,118,,,,,,,,,74,1619,16756 CHINO-CORONA ROAD,92880,CORONA,SAN BERNARDINO,33.94974531,-117.636365,6071,10002341,
68,state,California,CMC CALIFORNIA MENS COLONY,"December 16, 2020",https://www.cdcr.ca.gov/covid19/cdcr-cchcs-covid-19-status/; https://www.cdcr.ca.gov/covid19/updates/,487,138,2,,297,103,,,,,,,,,182,3758,COLONY DRIVE,93409,SAN LUIS OBISPO,SAN LUIS OBISPO,35.32457413,-120.6989005,6079,10002345,
69,state,California,CMF CALIFORNIA MEDICAL FACILITY,"December 16, 2020",https://www.cdcr.ca.gov/covid19/cdcr-cchcs-covid-19-status/; https://www.cdcr.ca.gov/covid19/updates/,43,142,0,,7,78,,,,,,,,,36,2512,1600 CALIFORNIA DRIVE,95696,VACAVILLE,SOLANO,38.32851019,-121.9791645,6095,10000785,
70,state,California,COR CALIFORNIA STATE PRISON CORCORAN,"December 16, 2020",https://www.cdcr.ca.gov/covid19/cdcr-cchcs-covid-19-status/; https://www.cdcr.ca.gov/covid19/updates/,477,435,1,,424,326,,,,,,,,,49,3043,4001 KING AVENUE,93212,CORCORAN,KINGS,36.06081823,-119.549121,6031,10000824,
193,federal,California,CORRECTIONAL ALTERNATIVES INC RRC SAN DIEGO,"December 16, 2020",https://www.bop.gov/coronavirus/,11,,0,0,9,0,,,,,0,,,,,,,,,,,,,,
71,state,California,CRC CALIFORNIA REHABILITATION CENTER,"December 16, 2020",https://www.cdcr.ca.gov/covid19/cdcr-cchcs-covid-19-status/; https://www.cdcr.ca.gov/covid19/updates/,1726,311,0,,1617,200,,,,,,,,,55,3802,3195 WESTERN AVENUE,92860,NORCO,RIVERSIDE,33.92691794,-117.5759442,6065,10000856,
72,state,California,CTF CORRECTIONAL TRAINING FACILITY,"December 16, 2020",https://www.cdcr.ca.gov/covid19/cdcr-cchcs-covid-19-status/; https://www.cdcr.ca.gov/covid19/updates/,1747,192,5,,926,145,,,,,,,,,798,5063,SOLEDAD PRISON ROAD,93960,SOLEDAD,MONTEREY,36.46964789,-121.3822324,6053,10000817,
73,state,California,CVSP CHUCKAWALLA VALLEY STATE PRISON,"December 16, 2020",https://www.cdcr.ca.gov/covid19/cdcr-cchcs-covid-19-status/; https://www.cdcr.ca.gov/covid19/updates/,1779,190,9,,1737,172,,,,,,,,,5,2773,19025 WILEYS WELL ROAD,92225,BLYTHE,RIVERSIDE,33.56257951,-114.9095058,6065,10002346,
219,federal,California,DUBLIN FCI,"December 16, 2020",https://www.bop.gov/coronavirus/,84,,0,0,16,7,,,,,311,,,,,1019,5701 8TH STREET,94568,DUBLIN,ALAMEDA,,,6001,10005303,
74,state,California,DVI DEUEL VOCATIONAL INSTITUTION,"December 16, 2020",https://www.cdcr.ca.gov/covid19/cdcr-cchcs-covid-19-status/; https://www.cdcr.ca.gov/covid19/updates/,32,133,0,,6,84,,,,,,,,,26,2052,23500 KASSON ROAD,95304,TRACY,SAN JOAQUIN,37.74805759,-121.3306264,6077,10000794,
75,state,California,FSP FOLSOM STATE PRISON,"December 16, 2020",https://www.cdcr.ca.gov/covid19/cdcr-cchcs-covid-19-status/; https://www.cdcr.ca.gov/covid19/updates/,1352,128,2,,1336,114,,,,,,,,,2,,300 PRISON ROAD,95671,REPRESA,SACRAMENTO,38.69538339,-121.1630324,6067,10000780,
1633,federal,California,GEO CARE EL MONTE,"December 16, 2020",https://www.bop.gov/coronavirus/,3,,0,0,1,0,,,,,0,,,,,,,,,,,,,,
257,federal,California,GEO REENTRY OF ALASKA INC RRC OAKLAND,"December 16, 2020",https://www.bop.gov/coronavirus/,4,,0,0,1,0,,,,,0,,,,,,,,,,,,2020,,
76,state,California,HDSP HIGH DESERT STATE PRISON,"December 16, 2020",https://www.cdcr.ca.gov/covid19/cdcr-cchcs-covid-19-status/; https://www.cdcr.ca.gov/covid19/updates/,1708,342,1,,1058,246,,,,,,,,,647,3161,475-750 RICE CANYON ROAD,96127,SUSANVILLE,LASSEN,40.4034569,-120.5258579,6035,10002310,
1380,federal,California,HERLONG FCI,"December 16, 2020",https://www.bop.gov/coronavirus/,254,,0,0,148,7,,,,,55,,,,,,,,,,,,,,
77,state,California,ISP IRONWOOD STATE PRISON,"December 16, 2020",https://www.cdcr.ca.gov/covid19/cdcr-cchcs-covid-19-status/; https://www.cdcr.ca.gov/covid19/updates/,237,195,1,,109,138,,,,,,,,,122,2896,19005 WILEYS WELL ROAD,92225,BLYTHE,RIVERSIDE,33.56098104,-114.9260354,6065,10000861,
78,state,California,KVSP KERN VALLEY STATE PRISON,"December 16, 2020",https://www.cdcr.ca.gov/covid19/cdcr-cchcs-covid-19-status/; https://www.cdcr.ca.gov/covid19/updates/,659,313,0,,130,192,,,,,,,,,526,3551,3000 WEST CECIL AVENUE,93216,DELANO,KERN,35.76647437,-119.3253627,6029,10000844,
79,state,California,LAC CALIFORNIA STATE PRISON LOS ANGELES COUNTY,"December 16, 2020",https://www.cdcr.ca.gov/covid19/cdcr-cchcs-covid-19-status/; https://www.cdcr.ca.gov/covid19/updates/,1073,331,3,,345,140,,,,,,,,,721,3218,44750 60TH STREET WEST,93536,LANCASTER,LOS ANGELES,34.69359649,-118.2276136,6037,10002353,
278,federal,California,LOMPOC FCI,"December 16, 2020",https://www.bop.gov/coronavirus/,686,,2,0,679,19,,,,,0,,,,,1257,3600 GUARD RD,93436,LOMPOC,SANTA BARBARA,34.67675537,-120.4994621,6083,10000863,
279,federal,California,LOMPOC USP,"December 16, 2020",https://www.bop.gov/coronavirus/,181,,2,0,136,28,,,,,10,,,,,947,3901 KLEIN BLVD,93436,LOMPOC,SANTA BARBARA,34.67918746,-120.5054801,6083,10000864,
80,county,California,LOS ANGELES JAILS,"December 16, 2020",https://lasd.org/covid19updates/,3747,1610,9,,3299,,38435,,37987,,,,3838,1634,121,,,,,,34.0591,-118.2321,6037,,
280,federal,California,LOS ANGELES MDC,"December 16, 2020",https://www.bop.gov/coronavirus/,307,,0,0,279,39,,,,,5,,,,,713,535 NORTH ALAMEDA STREET,90012,LOS ANGELES,LOS ANGELES,34.0536306,-118.238468,6037,10000892,
81,state,California,MCSP MULE CREEK STATE PRISON,"December 16, 2020",https://www.cdcr.ca.gov/covid19/cdcr-cchcs-covid-19-status/; https://www.cdcr.ca.gov/covid19/updates/,938,241,2,,359,141,,,,,,,,,575,4007,4001 STATE HIGHWAY 104,95640,IONE,AMADOR,38.37074335,-120.9534458,6005,10000782,
1722,federal,California,MENDOTA FCI,"December 16, 2020",https://www.bop.gov/coronavirus/,68,,0,0,13,13,,,,,11,,,,,,,,,,,,,,
83,state,California,NCYCC NORTHERN CALIFORNIA YOUTH CORRECTIONAL CENTER,"December 16, 2020",https://www.cdcr.ca.gov/covid19/cdcr-cchcs-covid-19-status/,,17,,,,12,,,,,,,,,,,7650 SOUTH NEWCASTLE ROAD,95215,STOCKTON,SAN JOAQUIN,37.8911829,-121.1978213,6077,10000796,
84,state,California,NKSP NORTH KERN STATE PRISON,"December 16, 2020",https://www.cdcr.ca.gov/covid19/cdcr-cchcs-covid-19-status/; https://www.cdcr.ca.gov/covid19/updates/,319,403,0,,103,339,,,,,,,,,213,4355,2737 WEST CECIL AVENUE,93215,DELANO,KERN,35.78188512,-119.3098757,6029,10000841,
86,state,California,OH CLOSE YOUTH CORRECTIONAL FACILITY,"December 16, 2020",https://www.cdcr.ca.gov/covid19/cdcr-cchcs-covid-19-status/,,21,,,,8,,,,,,,,,,,7650 SOUTH NEWCASTLE ROAD,95213,STOCKTON,SAN JOAQUIN,37.89852126,-121.1976947,6077,10000793,
87,county,California,ORANGE COUNTY JAILS,"December 16, 2020",https://ocsheriff.gov/about-ocsd/covid-19/covid-19-oc-jails,1252,,,,625,,,,5994,,86,,,,627,,,,,,,,,,
88,state,California,PBSP PELICAN BAY STATE PRISON,"December 16, 2020",https://www.cdcr.ca.gov/covid19/cdcr-cchcs-covid-19-status/; https://www.cdcr.ca.gov/covid19/updates/,118,106,0,,40,84,,,,,,,,,76,2648,5905 LAKE EARL DRIVE,95531,CRESCENT CITY,DEL NORTE,41.85480851,-124.1490751,6015,10002309,
1831,state,California,PINE GROVE JUVENILE PRISON CAMP,"December 16, 2020",https://www.cdcr.ca.gov/covid19/cdcr-cchcs-covid-19-status/,,2,,,,0,,,,,,,,,,,,,,,,,,,
90,state,California,PVSP PLEASANT VALLEY STATE PRISON,"December 16, 2020",https://www.cdcr.ca.gov/covid19/cdcr-cchcs-covid-19-status/; https://www.cdcr.ca.gov/covid19/updates/,1704,290,1,,958,189,,,,,,,,,738,3131,24863 WEST JAYNE AVENUE,93210,COALINGA,FRESNO,36.13147309,-120.2488996,6019,10000810,
91,state,California,RICHARD A MCGEE CORRECTIONAL TRAINING CENTER GALT,"December 16, 2020",https://www.cdcr.ca.gov/covid19/cdcr-cchcs-covid-19-status/,,43,,,,24,,,,,,,,,,,9850 TWIN CITIES RD,95632,GALT,,38.2890255,-121.3279067,6067,,
92,state,California,RJD RICHARD J DONOVAN CORRECTIONAL FACILITY,"December 16, 2020",https://www.cdcr.ca.gov/covid19/cdcr-cchcs-covid-19-status/; https://www.cdcr.ca.gov/covid19/updates/,440,189,0,,3,117,,,,,,,,,437,,480 ALTA ROAD,92179,SAN DIEGO,SAN DIEGO,32.58456487,-116.9335763,6073,10000869,
93,state,California,SAC CALIFORNIA STATE PRISON SACRAMENTO,"December 16, 2020",https://www.cdcr.ca.gov/covid19/cdcr-cchcs-covid-19-status/; https://www.cdcr.ca.gov/covid19/updates/,156,169,0,,35,80,,,,,,,,,117,2354,100 PRISON ROAD,95671,REPRESA,SACRAMENTO,38.69444411,-121.1539037,6067,10002322,
1381,federal,California,SAN DIEGO MCC,"December 16, 2020",https://www.bop.gov/coronavirus/,185,,1,0,250,26,,,,,7,,,,,,,,,,,,,,
98,state,California,SATF SUBSTANCE ABUSE TREATMENT FACILITY,"December 16, 2020",https://www.cdcr.ca.gov/covid19/cdcr-cchcs-covid-19-status/; https://www.cdcr.ca.gov/covid19/updates/,2832,421,6,,2196,340,,,,,,,,,615,,,,,,,,,,
95,state,California,SCC SIERRA CONSERVATION CENTER,"December 16, 2020",https://www.cdcr.ca.gov/covid19/cdcr-cchcs-covid-19-status/; https://www.cdcr.ca.gov/covid19/updates/,445,110,0,,22,84,,,,,,,,,421,4393,5100 OBYRNES FERRY ROAD,95327,JAMESTOWN,TUOLUMNE,37.89168856,-120.5365401,6109,10001522,
96,state,California,SOL CALIFORNIA STATE PRISON SOLANO,"December 16, 2020",https://www.cdcr.ca.gov/covid19/cdcr-cchcs-covid-19-status/; https://www.cdcr.ca.gov/covid19/updates/,161,112,1,,32,58,,,,,,,,,125,4306,2100 PEABODY ROAD,95687,VACAVILLE,SOLANO,38.32077652,-121.9752369,6095,10002323,
97,state,California,SQ CA STATE PRISON SAN QUENTIN,"December 16, 2020",https://www.cdcr.ca.gov/covid19/cdcr-cchcs-covid-19-status/; https://www.cdcr.ca.gov/covid19/updates/,2241,388,28,,2152,368,,,,,,,,,4,4032,MAIN STREET,94964,SAN QUENTIN,MARIN,37.94003982,-122.4903665,6041,10000790,
,state,California,STATEWIDE,"December 16, 2020",https://www.cdcr.ca.gov/covid19/updates/,,,,,,,114985,,,,,,,,,,,,,,,,,,
99,state,California,SVSP SALINAS VALLEY STATE PRISON,"December 16, 2020",https://www.cdcr.ca.gov/covid19/cdcr-cchcs-covid-19-status/; https://www.cdcr.ca.gov/covid19/updates/,233,258,1,,136,168,,,,,,,,,94,2917,31625 HIGHWAY 101,93960,SOLEDAD,MONTEREY,36.47885699,-121.3743944,6053,10000821,
332,federal,California,TERMINAL ISLAND FCI,"December 16, 2020",https://www.bop.gov/coronavirus/,486,,10,0,554,26,,,,,0,,,,,1185,1299 SEASIDE AVENUE,90731,SAN PEDRO,LOS ANGELES,33.726491,-118.2670631,6037,10000887,
1687,state,California,VENTURA,"December 16, 2020",https://www.cdcr.ca.gov/covid19/cdcr-cchcs-covid-19-status/,,33,,,,21,,,,,,,,,,,,,,,,,,,
1449,federal,California,VICTORVILLE MEDIUM I FCI,"December 16, 2020",https://www.bop.gov/coronavirus/,517,,2,0,404,21,,,,,2,,,,,,,,,,,,,,
349,federal,California,VICTORVILLE MEDIUM II FCI,"December 16, 2020",https://www.bop.gov/coronavirus/,249,,0,0,91,30,,,,,0,,,,,1216,13777 AIR EXPRESSWAY BOULEVARD,92394,VICTORVILLE,SAN BERNARDINO,34.56848411,-117.3583145,6071,10000831,
1450,federal,California,VICTORVILLE USP,"December 16, 2020",https://www.bop.gov/coronavirus/,322,,0,0,146,26,,,,,1,,,,,,,,,,,,,,
100,state,California,VSP VALLEY STATE PRISON,"December 16, 2020",https://www.cdcr.ca.gov/covid19/cdcr-cchcs-covid-19-status/; https://www.cdcr.ca.gov/covid19/updates/,1141,143,1,,728,111,,,,,,,,,402,2999,21633 AVENUE 24,93610,CHOWCHILLA,MADERA,37.10547736,-120.1554719,6039,10000802,
1455,federal,California,WESTERN RO,"December 16, 2020",https://www.bop.gov/coronavirus/,,,0,0,0,1,,,,,,,,,,,,,,,,,,,
106,state,California,WSP WASCO STATE PRISON,"December 16, 2020",https://www.cdcr.ca.gov/covid19/cdcr-cchcs-covid-19-status/; https://www.cdcr.ca.gov/covid19/updates/,733,275,0,,290,191,,,,,,,,,410,4588,701 SCOFIELD AVENUE,93280,WASCO,KERN,35.59431189,-119.4083319,6029,10000847,
107,state,Colorado,ARKANSAS VALLEY CORRECTIONAL FACILITY,"December 16, 2020",https://www.colorado.gov/pacific/cdoc/covid-19-faq-and-updates,915,,3,,859,,3554,,,,,,,,53,,12750 HIGHWAY 96 AT LANE 13,81034,ORDWAY,CROWLEY,38.19146827,-103.8421854,8025,10002228,
108,state,Colorado,ARROWHEAD CORRECTIONAL FACILITY,"December 16, 2020",https://www.colorado.gov/pacific/cdoc/covid-19-faq-and-updates,334,,0,,226,,3846,,,,,,,,108,,E US HIGHWAY 50 AND EVANS BLVD,81212,CANON CITY,FREMONT,38.43610328,-105.1590956,8043,10002225,
109,state,Colorado,BENT COUNTY CORRECTIONAL FACILITY,"December 16, 2020",https://www.colorado.gov/pacific/cdoc/covid-19-faq-and-updates,531,,0,,316,,5179,,,,,,,,215,,11560 ROAD FF75,81054,LAS ANIMAS,BENT,38.06456309,-103.2047922,8011,10002233,
110,state,Colorado,BUENA VISTA CORRECTIONAL COMPLEX,"December 16, 2020",https://www.colorado.gov/pacific/cdoc/covid-19-faq-and-updates,379,,0,,317,,14979,,,,,,,,62,,5125 HWY 24  285,81211,BUENA VISTA,CHAFFEE,38.82210118,-106.1147135,8015,10000573,
111,state,Colorado,CENTENNIAL CORRECTIONAL FACILITY,"December 16, 2020",https://www.colorado.gov/pacific/cdoc/covid-19-faq-and-updates,83,,0,,61,,9202,,,,,,,,22,,E US HIGHWAY 50 EVANS BLVD,81215,CANON CITY,FREMONT,,,8043,10002226,
112,state,Colorado,COLORADO CORRECTIONAL CENTER,"December 16, 2020",https://www.colorado.gov/pacific/cdoc/covid-19-faq-and-updates,1,,0,,1,,1099,,,,,,,,0,,15445 SOUTH GOLDEN ROAD,80401,GOLDEN,JEFFERSON,39.734937360000004,-105.171343,8059,10000563,
113,state,Colorado,COLORADO STATE PENITENTIARY,"December 16, 2020",https://www.colorado.gov/pacific/cdoc/covid-19-faq-and-updates,41,,0,,31,,3331,,,,,,,,10,,E US HIGHWAY 50 EVANS BLVD,81215,CANON CITY,FREMONT,,,8043,10002227,
114,state,Colorado,COLORADO TERRITORIAL CORRECTIONAL FACILITY,"December 16, 2020",https://www.colorado.gov/pacific/cdoc/covid-19-faq-and-updates,537,,2,,483,,5733,,,,,,,,52,,275 WEST UNITED STATES HIGHWAY 50,81215,CANON CITY,FREMONT,38.43802317,-105.2486951,8043,10000578,
115,state,Colorado,CROWLEY COUNTY CORRECTIONAL FACILITY,"December 16, 2020",https://www.colorado.gov/pacific/cdoc/covid-19-faq-and-updates,452,,1,,373,,11710,,,,,,,,78,,6564 HIGHWAY 96,81062,OLNEY SPRINGS,CROWLEY,38.15673868,-103.9573023,8025,10000585,
116,state,Colorado,DELTA CORRECTIONAL FACILITY,"December 16, 2020",https://www.colorado.gov/pacific/cdoc/covid-19-faq-and-updates,68,,0,,11,,1154,,,,,,,,57,,11363 LOCKHART ROAD,81416,DELTA,DELTA,38.70911617,-108.1486112,8029,10000569,
117,state,Colorado,DENVER RECEPTION DIAGNOSTIC CENTER,"December 16, 2020",https://www.colorado.gov/pacific/cdoc/covid-19-faq-and-updates,9,,0,,9,,5339,,,,,,,,0,,10900 SMITH ROAD,80239,DENVER,DENVER,,,8031,10000560,
118,state,Colorado,DENVER WOMENS CORRECTIONAL FACILITY,"December 16, 2020",https://www.colorado.gov/pacific/cdoc/covid-19-faq-and-updates,64,,0,,38,,7130,,,,,,,,26,,3600 HAVANA STREET,80239,DENVER,DENVER,39.76510225,-104.860784,8031,10000561,
222,federal,Colorado,ENGLEWOOD FCI,"December 16, 2020",https://www.bop.gov/coronavirus/,702,,0,0,644,28,,,,,2,,,,,637,9595 WEST QUINCY AVE,80123,LITTLETON,JEFFERSON,39.64192027,-105.1055266,8059,10004659,
1417,federal,Colorado,FLORENCE ADMAX USP,"December 16, 2020",https://www.bop.gov/coronavirus/,4,,0,0,3,0,,,,,3,,,,,,,,,,,,,,
1715,federal,Colorado,FLORENCE FCI,"December 16, 2020",https://www.bop.gov/coronavirus/,411,,1,0,160,5,,,,,71,,,,,,,,,,,,,,
1418,federal,Colorado,FLORENCE HIGH USP,"December 16, 2020",https://www.bop.gov/coronavirus/,64,,0,0,12,2,,,,,5,,,,,,,,,,,,,,
119,state,Colorado,FOUR MILE CORRECTIONAL FACILITY,"December 16, 2020",https://www.colorado.gov/pacific/cdoc/covid-19-faq-and-updates,400,,0,,351,,2062,,,,,,,,49,,E US HIGHWAY 50  EVANS BLVD,81212,CANON CITY,FREMONT,38.42976983,-105.1478509,8043,10000577,
1707,state,Colorado,FREMONT CORRECTIONAL FACILITY,"December 16, 2020",https://www.colorado.gov/pacific/cdoc/covid-19-faq-and-updates,745,,4,,736,,12357,,,,,,,,5,,E US HIGHWAY 50 EVANS BLVD,81215,CANON CITY,FREMONT,,,8043,10000576,
121,state,Colorado,LA VISTA CORRECTIONAL FACILITY,"December 16, 2020",https://www.colorado.gov/pacific/cdoc/covid-19-faq-and-updates,10,,0,,10,,2263,,,,,,,,0,,1401 WEST 17TH STREET,81003,PUEBLO,PUEBLO,38.28484966,-104.6281974,8101,10000586,
1706,state,Colorado,LIMON CORRECTIONAL FACILITY,"December 16, 2020",https://www.colorado.gov/pacific/cdoc/covid-19-faq-and-updates,543,,0,,397,,2527,,,,,,,,146,,,,,,,,,,
123,state,Colorado,RIFLE CORRECTIONAL CENTER,"December 16, 2020",https://www.colorado.gov/pacific/cdoc/covid-19-faq-and-updates,1,,0,,1,,502,,,,,,,,0,,200 COUNTY ROAD 219,81650,RIFLE,GARFIELD,39.65016626,-107.7790488,8045,10000557,
124,state,Colorado,SAN CARLOS CORRECTIONAL FACILITY,"December 16, 2020",https://www.colorado.gov/pacific/cdoc/covid-19-faq-and-updates,9,,0,,9,,1933,,,,,,,,0,,1410 WEST 13TH STREET,81003,PUEBLO,PUEBLO,,,8101,10000587,
120,state,Colorado,SKYLINE CORRECTIONAL CENTER,"December 16, 2020",https://www.colorado.gov/pacific/cdoc/covid-19-faq-and-updates,0,,0,,0,,91,,,,,,,,0,,,,,,,,,,
127,state,Colorado,STERLING CORRECTIONAL FACILITY,"December 16, 2020",https://www.colorado.gov/pacific/cdoc/covid-19-faq-and-updates,1278,,7,,1026,,18276,,,,,,,,245,,12101 HIGHWAY 61,80751,STERLING,LOGAN,40.61123458,-103.1621015,8075,10000554,
128,state,Colorado,TRINIDAD CORRECTIONAL FACILITY,"December 16, 2020",https://www.colorado.gov/pacific/cdoc/covid-19-faq-and-updates,4,,0,,3,,1992,,,,,,,,1,,21000 HIGHWAY 350 EAST,81059,MODEL,LAS ANIMAS,37.30034613,-104.2866571,8071,10000593,
129,state,Colorado,YOUTHFUL OFFENDER SYSTEM,"December 16, 2020",https://www.colorado.gov/pacific/cdoc/covid-19-faq-and-updates,141,,0,,141,,532,,,,,,,,0,,1300 WEST 13TH ST,81003,PUEBLO,PUEBLO,,,8101,10000588,
130,state,Connecticut,BRIDGEPORT CC,"December 16, 2020",https://portal.ct.gov/DOC/Common-Elements/Common-Elements/Health-Information-and-Advisories,143,,,,,,,,,,,,,,,689,1106 NORTH AVE,6604,BRIDGEPORT,FAIRFIELD,41.1906143,-73.20106036,9001,10002400,
131,state,Connecticut,BROOKLYN CI,"December 16, 2020",https://portal.ct.gov/DOC/Common-Elements/Common-Elements/Health-Information-and-Advisories,157,,,,,,,,,,,,,,,428,59 HARTFORD RD,6234,BROOKLYN,WINDHAM,41.78416388,-71.95426216,9015,10002399,
132,state,Connecticut,CARL ROBINSON CI,"December 16, 2020",https://portal.ct.gov/DOC/Common-Elements/Common-Elements/Health-Information-and-Advisories,288,,,,,,,,,,,,,,,,285 SHAKER RD,6082,ENFIELD,HARTFORD,42.0156533,-72.515607,9003,10001605,
133,state,Connecticut,CHESHIRE CI,"December 16, 2020",https://portal.ct.gov/DOC/Common-Elements/Common-Elements/Health-Information-and-Advisories,215,,,,,,,,,,,,,,,1147,900 HIGHLAND AVE,6410,CHESHIRE,NEW HAVEN,41.52149124,-72.9017651,9009,10000937,
134,state,Connecticut,CORRIGAN RADGOWSKI CC,"December 16, 2020",https://portal.ct.gov/DOC/Common-Elements/Common-Elements/Health-Information-and-Advisories,264,,,,,,,,,,,,,,,,986 NORWICH-NEW LONDON TURNPIKE,6382,UNCASVILLE,NEW LONDON,41.45418432,-72.11217243,9011,10000931,
206,federal,Connecticut,DANBURY FCI,"December 16, 2020",https://www.bop.gov/coronavirus/,176,,1,0,81,69,,,,,0,,,,,815,ROUTE 37,6811,DANBURY,FAIRFIELD,41.4367642,-73.4675543,9001,10000935,
136,state,Connecticut,GARNER CI,"December 16, 2020",https://portal.ct.gov/DOC/Common-Elements/Common-Elements/Health-Information-and-Advisories,46,,,,,,,,,,,,,,,543,50 NUNNAWAUK RD,6470,NEWTOWN,FAIRFIELD,41.40035888,-73.2721123,9001,10000934,
137,state,Connecticut,HARTFORD CC,"December 16, 2020",https://portal.ct.gov/DOC/Common-Elements/Common-Elements/Health-Information-and-Advisories,193,,,,,,,,,,,,,,,888,177 WESTON ST,6120,HARTFORD,HARTFORD,41.79362408,-72.66139948,9003,10000926,
3529,state,Connecticut,MACDOUGALL WALKER CI,"December 16, 2020",https://portal.ct.gov/DOC/Common-Elements/Common-Elements/Health-Information-and-Advisories,400,,,,,,,,,,,,,,,,,,,,,,,,
140,state,Connecticut,MANSON YOUTH,"December 16, 2020",https://portal.ct.gov/DOC/Common-Elements/Common-Elements/Health-Information-and-Advisories,11,,,,,,,,,,,,,,,,42 JARVIS ST,6410,CHESHIRE,NEW HAVEN,41.53050021,-72.89979775,9009,10000939,
142,state,Connecticut,NEW HAVEN CC,"December 16, 2020",https://portal.ct.gov/DOC/Common-Elements/Common-Elements/Health-Information-and-Advisories,142,,,,,,,,,,,,,,,683,245 WHALLEY AVE,6511,NEW HAVEN,NEW HAVEN,41.31748057,-72.93997131,9009,10005380,
143,state,Connecticut,NORTHERN CI,"December 16, 2020",https://portal.ct.gov/DOC/Common-Elements/Common-Elements/Health-Information-and-Advisories,2,,,,,,,,,,,,,,,78,287 BILTON RD,6071,SOMERS,TOLLAND,42.0188064,-72.4948806,9013,10000929,
144,state,Connecticut,OSBORN CI,"December 16, 2020",https://portal.ct.gov/DOC/Common-Elements/Common-Elements/Health-Information-and-Advisories,491,,,,,,,,,,,,,,,1253,335 BILTON RD,6071,SOMERS,TOLLAND,42.01640023,-72.49693453,9013,10000928,
145,state,Connecticut,STATEWIDE,"December 16, 2020",https://portal.ct.gov/DOC/Common-Elements/Common-Elements/Health-Information-and-Advisories,,,10,,1942,,,,,,,,,,,,,,,,,,,,
358,federal,Connecticut,WATKINSON HOUSE RRC HARTFORD,"December 16, 2020",https://www.bop.gov/coronavirus/,1,,0,0,0,0,,,,,0,,,,,,,,,,,,9003,,
146,state,Connecticut,WILLARD CYBULSKI CI,"December 16, 2020",https://portal.ct.gov/DOC/Common-Elements/Common-Elements/Health-Information-and-Advisories,102,,,,,,,,,,,,,,,,391 SHAKER RD,6082,ENFIELD,TOLLAND,42.0167978,-72.5062987,9003,10006149,
147,state,Connecticut,YORK CI,"December 16, 2020",https://portal.ct.gov/DOC/Common-Elements/Common-Elements/Health-Information-and-Advisories,89,,,,,,,,,,,,,,,883,201 W MAIN ST,6357,NIANTIC,NEW LONDON,41.32308179,-72.23754189,9011,10000933,
181,federal,DC,CENTRAL OFFICE HQ,"December 16, 2020",https://www.bop.gov/coronavirus/,,,0,0,0,3,,,,,,,,,,,,,,,,,,,
1867,state,DC,COUNTY-WIDE,"December 16, 2020",https://opendata.dc.gov/datasets/dc-covid-19-department-of-corrections/data?orderBy=DATE_REPORTED&orderByAsc=false,219,133,1,1,209,113,,,,,,,68,,,,,,,,,,,,
148,state,Delaware,DELORES J BAYLOR WOMANS CORRECTIONAL INSTITUTION,"December 16, 2020",https://doc.delaware.gov/assets/documents/Confirmed_COVID_Cases.pdf,,,0,,,,,,,,,,,,,,660 BAYLOR BLVD,19720,NEW CASTLE,NEW CASTLE,39.7039322,-75.58125772,10003,10002260,
149,state,Delaware,HAZEL D PLANT WOMANS TREATMENT FACILITY,"December 16, 2020",https://doc.delaware.gov/assets/documents/Confirmed_COVID_Cases.pdf,,,0,,,,,,,,,,,,,,660 BAYLOR BLVD,19720,NEW CASTLE,NEW CASTLE,39.7039322,-75.58125772,10003,10002260,
150,state,Delaware,HOWARD R YOUNG CORRECTIONAL INSTITUTION,"December 16, 2020",https://doc.delaware.gov/assets/documents/Confirmed_COVID_Cases.pdf,,,0,,,,,,,,,,,,,,1301 E 12TH ST,19802,WILMINGTON,NEW CASTLE,39.7412423,-75.5294058,10003,10000699,
151,state,Delaware,JAMES T VAUGHN CORRECTIONAL CENTER,"December 16, 2020",https://doc.delaware.gov/assets/documents/Confirmed_COVID_Cases.pdf,,,7,,,,,,,,,,,,,,1181 PADDOCK RD,19977,SMYRNA,NEW CASTLE,39.33295451,-75.59958958,10003,10002262,
152,state,Delaware,MORRIS COMMUNITY CORRECTIONS CENTER,"December 16, 2020",https://doc.delaware.gov/assets/documents/Confirmed_COVID_Cases.pdf,,,0,,,,,,,,,,,,,,300 WATER ST,19904,DOVER,KENT,39.15328515,-75.52726906,10001,10000704,
153,state,Delaware,PLUMMER COMMUNITY CORRECTIONS CENTER,"December 16, 2020",https://doc.delaware.gov/assets/documents/Confirmed_COVID_Cases.pdf,,,0,,,,,,,,,,,,,,38 TODDS LN,19802,WILMINGTON,NEW CASTLE,39.75664471,-75.52904371,10003,10000701,
154,state,Delaware,STATEWIDE,"December 16, 2020",https://doc.delaware.gov/assets/documents/Confirmed_COVID_Cases.pdf,1372,428,,,1051,292,,,,,,,,,,,,,,,,,,,
155,state,Delaware,SUSSEX COMMUNITY CORRECTIONS CENTER,"December 16, 2020",https://doc.delaware.gov/assets/documents/Confirmed_COVID_Cases.pdf,,,0,,,,,,,,,,,,,,23207 DUPONT BLVD,19947,GEORGETOWN,SUSSEX,38.65848406,-75.37196789,10005,10000706,
156,state,Delaware,SUSSEX CORRECTIONAL INSTITUTION,"December 16, 2020",https://doc.delaware.gov/assets/documents/Confirmed_COVID_Cases.pdf,,,4,,,,,,,,,,,,,,23203 DUPONT BLVD,19947,GEORGETOWN,SUSSEX,38.665915,-75.3801231,10005,10000707,
363,state,Florida,APALACHEE CI,"December 16, 2020",http://www.dc.state.fl.us/comm/covid-19.html,170,59,,,,,1830,,1660,,0,,1,,,,52 WEST UNIT DR,32460,SNEADS,JACKSON,30.71148316,-84.88818219,12063,10000336,
364,state,Florida,AVON PARK CI,"December 16, 2020",http://www.dc.state.fl.us/comm/covid-19.html,230,65,,,,,1500,,1270,,0,,1,,,,8100 HIGHWAY 64 EAST,33825,AVON PARK,POLK,27.6462871,-81.4036521,12105,10002177,
365,state,Florida,BAKER CI,"December 16, 2020",http://www.dc.state.fl.us/comm/covid-19.html,568,63,,,,,1484,,916,,0,,0,,,,20706 US HIGHWAY 90 W,32087,SANDERSON,BAKER,30.21325143,-82.37451212,12003,10000402,
366,state,Florida,BAY CF,"December 16, 2020",http://www.dc.state.fl.us/comm/covid-19.html,356,53,,,,,1051,,695,,0,,119,,,,5400 BAYLINE DR,32404,PANAMA CITY,BAY,30.26570712,-85.50553247,12005,10001445,
368,state,Florida,BLACKWATER CF GEO GROUP,"December 16, 2020",http://www.dc.state.fl.us/comm/covid-19.html,152,29,,,,,2403,,2251,,0,,0,,,,,,,,,,12113,,
369,state,Florida,CALHOUN CI,"December 16, 2020",http://www.dc.state.fl.us/comm/covid-19.html,195,42,,,,,1760,,1565,,0,,0,,,,19564 SE INSTITUTION DR,32424,BLOUNTSTOWN,CALHOUN,30.40585,-85.06394467,12013,10000387,
1758,state,Florida,CENTRAL OFFICE,"December 16, 2020",http://www.dc.state.fl.us/comm/covid-19.html,,2,,,,,,,,,,,,,,,,,,,,,,,
370,state,Florida,CENTURY CI,"December 16, 2020",http://www.dc.state.fl.us/comm/covid-19.html,774,47,,,,,1524,,750,,0,,2,,,,400 TEDDER RD,32535,CENTURY,ESCAMBIA,30.95817641,-87.29950017,12033,10002152,
371,state,Florida,CFRC,"December 16, 2020",http://www.dc.state.fl.us/comm/covid-19.html,279,100,,,,,2277,,1998,,0,,450,,,,7000 H C KELLEY RD,32831,ORLANDO,ORANGE,28.45327514,-81.15900956,12095,10000460,
372,state,Florida,CHARLOTTE CI,"December 16, 2020",http://www.dc.state.fl.us/comm/covid-19.html,54,29,,,,,1322,,1268,,0,,2,,,,33123 OIL WELL RD,33955,PUNTA GORDA,CHARLOTTE,26.8036079,-81.90380995,12015,10002187,
189,federal,Florida,COLEMAN I USP,"December 16, 2020",https://www.bop.gov/coronavirus/,57,,0,0,95,14,,,,,62,,,,,1245,846 NORTHEAST 54TH TERRACE,33521,SUMTERVILLE,SUMTER,28.7737905,-82.00445251,12119,10004592,
190,federal,Florida,COLEMAN II USP,"December 16, 2020",https://www.bop.gov/coronavirus/,218,,1,0,216,21,,,,,46,,,,,1374,846 NORTHEAST 54TH TERRACE,33521,SUMTERVILLE,SUMTER,28.7628994,-82.0011646,12119,10004595,
191,federal,Florida,COLEMAN LOW FCI,"December 16, 2020",https://www.bop.gov/coronavirus/,268,,1,1,220,10,,,,,653,,,,,2415,846 NORTHEAST 54TH TERRACE,33521,SUMTERVILLE,SUMTER,28.7692474,-82.010479,12119,10004593,
192,federal,Florida,COLEMAN MEDIUM FCI,"December 16, 2020",https://www.bop.gov/coronavirus/,279,,3,0,279,6,,,,,38,,,,,1486,846 NORTHEAST 54TH TERRACE,33521,SUMTERVILLE,SUMTER,28.7662507,-82.00753865,12119,10004594,
373,state,Florida,COLUMBIA CI,"December 16, 2020",http://www.dc.state.fl.us/comm/covid-19.html,1369,100,,,,,2166,,797,,0,,88,,,,7906 EAST HIGHWAY 90,32055,LAKE CITY,COLUMBIA,30.19252797,-82.50773893,12023,10000394,
374,state,Florida,COMMUNITY CORRECTIONS REGION 1,"December 16, 2020",http://www.dc.state.fl.us/comm/covid-19.html,,33,,,,,,,,,,,,,,,10650 SOUTHWEST 46TH STREET,10650,JASPER,,30.5046671,-82.9631939,,,
376,state,Florida,COMMUNITY CORRECTIONS REGION 2,"December 16, 2020",http://www.dc.state.fl.us/comm/covid-19.html,,32,,,,,,,,,,,,,,,921 N DAVIS STREET,32209,JACKSONVILLE,,29.3060321,-82.1768417,,,
377,state,Florida,COMMUNITY CORRECTIONS REGION 3,"December 16, 2020",http://www.dc.state.fl.us/comm/covid-19.html,,85,,,,,,,,,,,,,,,2002 E 26TH AVENUE,33605,TAMPA,,26.8384331,-81.1208015,,,
378,state,Florida,COMMUNITY CORRECTIONS REGION 4,"December 16, 2020",http://www.dc.state.fl.us/comm/covid-19.html,,72,,,,,,,,,,,,,,,1641 WORTHINGTON ROAD,33409,WEST PALM BEACH FL,,30.5046671,-82.9631939,,,
379,state,Florida,CROSS CITY CI,"December 16, 2020",http://www.dc.state.fl.us/comm/covid-19.html,306,63,,,,,1630,,1324,,0,,0,,,,568 NE 255TH ST,32628,CROSS CITY,DIXIE,29.63475364,-83.09887133,12029,10000432,
380,state,Florida,DADE CI,"December 16, 2020",http://www.dc.state.fl.us/comm/covid-19.html,101,177,,,,,1590,,1489,,0,,54,,,,19000 SW 377TH ST,33034,FLORIDA CITY,MIAMI-DADE,25.4154012,-80.4999188,12086,10000546,
381,state,Florida,DESOTO ANNEX,"December 16, 2020",http://www.dc.state.fl.us/comm/covid-19.html,214,45,,,,,1911,,1697,,0,,1,,,,13617 SE HWY 70,34266,ARCADIA,DESOTO,27.20934,-81.66191,12027,10000504,
1630,federal,Florida,DISMAS CHARITIES OF ORLANDO,"December 16, 2020",https://www.bop.gov/coronavirus/,2,,0,0,2,0,,,,,0,,,,,,,,,,,,,,
382,state,Florida,EVERGLADES CI,"December 16, 2020",http://www.dc.state.fl.us/comm/covid-19.html,374,118,,,,,2675,,2301,,0,,0,,,,1599 SW 187TH AVE,33194,MIAMI,MIAMI-DADE,25.75086336,-80.48896138,12086,10004646,
383,state,Florida,FLORIDA STATE PRISON,"December 16, 2020",http://www.dc.state.fl.us/comm/covid-19.html,152,83,,,,,1963,,1811,,0,,13,,,,7819 NW 228TH STREET,32026,RAIFORD,BRADFORD,30.0584396,-82.1836504,12007,10004580,
384,state,Florida,FRANKLIN CI,"December 16, 2020",http://www.dc.state.fl.us/comm/covid-19.html,322,48,,,,,1212,,890,,0,,1,,,,1760 HWY 67 NORTH,32322,CARRABELLE,FRANKLIN,29.87797428,-84.64585656,12037,10000422,
385,state,Florida,FWRC,"December 16, 2020",http://www.dc.state.fl.us/comm/covid-19.html,490,59,,,,,785,,295,,0,,80,,,,3700 NW 111TH PLACE,34482,OCALA,MARION,29.30979922,-82.18626021,12083,10006167,
386,state,Florida,GADSDEN CF,"December 16, 2020",http://www.dc.state.fl.us/comm/covid-19.html,92,35,,,,,1285,,1193,,0,,0,,,,6044 GREENSBORO HWY,32351,QUINCY,GADSDEN,30.5897214,-84.65558376,12039,10000369,
387,state,Florida,GADSDEN RE ENTRY CENTER,"December 16, 2020",http://www.dc.state.fl.us/comm/covid-19.html,206,35,,,,,319,,113,,0,,0,,,,630 OPPORTUNITY LANE,32333,HAVANA,GADSDEN,30.54608079,-84.49489877,12039,10006326,
388,state,Florida,GRACEVILLE CF,"December 16, 2020",http://www.dc.state.fl.us/comm/covid-19.html,676,71,,,,,2016,,1340,,0,,70,,,,5230 EZELL RD,32440,GRACEVILLE,JACKSON,30.94829087,-85.49222414,12063,10000332,
389,state,Florida,GULF CI,"December 16, 2020",http://www.dc.state.fl.us/comm/covid-19.html,264,44,,,,,1213,,949,,0,,0,,,,699 IKE STEELE ROAD,32465,WEWAHITCHKA,GULF,30.17512766,-85.26724893,12045,10000411,
390,state,Florida,HAMILTON CI,"December 16, 2020",http://www.dc.state.fl.us/comm/covid-19.html,358,68,,,,,2434,,2076,,0,,15,,,,10650 SW 46TH ST,32052,JASPER,HAMILTON,30.504668,-82.9631921,12047,10000385,
391,state,Florida,HARDEE CI,"December 16, 2020",http://www.dc.state.fl.us/comm/covid-19.html,125,85,,,,,1707,,1581,,1,,50,,,,6899 STATE RD 62,33834,BOWLING GREEN,HARDEE,27.59369353,-82.00687498,12049,10000492,
392,state,Florida,HERNANDO CI,"December 16, 2020",http://www.dc.state.fl.us/comm/covid-19.html,0,8,,,,,3,,3,,0,,0,,,,16415 SPRING HILL DR,34604,BROOKSVILLE,HERNANDO,28.48302199,-82.45443373,12053,10000465,
266,federal,Florida,HILLSBOROUGH COUNTY RRC TAMPA,"December 16, 2020",https://www.bop.gov/coronavirus/,5,,0,0,5,0,,,,,0,,,,,,,,,,,,,,
393,state,Florida,HOLMES CI,"December 16, 2020",http://www.dc.state.fl.us/comm/covid-19.html,174,44,,,,,1315,,1141,,0,,39,,,,3142 THOMAS DR,32425,BONIFAY,HOLMES,30.75545064,-85.6701594,12059,10000356,
394,state,Florida,HOMESTEAD CI,"December 16, 2020",http://www.dc.state.fl.us/comm/covid-19.html,303,56,,,,,834,,531,,0,,60,,,,19000 SW 377TH ST,33034,FLORIDA CITY,MIAMI-DADE,25.41299306,-80.49729982,12086,10000545,
395,state,Florida,JACKSON CI,"December 16, 2020",http://www.dc.state.fl.us/comm/covid-19.html,204,68,,,,,1513,,1309,,0,,34,,,,5563 10TH ST,32445,MALONE,JACKSON,30.96872589,-85.16860405,12063,10000334,
1725,federal,Florida,JACKSONVILLE RESID REENTRY CTR,"December 16, 2020",https://www.bop.gov/coronavirus/,10,,0,0,10,0,,,,,0,,,,,,,,,,,,,,
396,state,Florida,JEFFERSON CI,"December 16, 2020",http://www.dc.state.fl.us/comm/covid-19.html,260,63,,,,,590,,330,,0,,1,,,,1050 BIG JOE RD,32344,MONTICELLO,JEFFERSON,30.50973618,-83.80157593,12065,10000378,
397,state,Florida,LAKE CI,"December 16, 2020",http://www.dc.state.fl.us/comm/covid-19.html,106,52,,,,,1101,,995,,0,,0,,,,19225 US HWY 27,34715,CLERMONT,LAKE,28.62049362,-81.76642774,12069,10000453,
398,state,Florida,LAKE CITY CF,"December 16, 2020",http://www.dc.state.fl.us/comm/covid-19.html,69,29,,,,,827,,758,,0,,0,,,,7906 EAST HIGHWAY 90,32055,LAKE CITY,COLUMBIA,30.19252797,-82.50773893,12023,10000394,
399,state,Florida,LANCASTER CI,"December 16, 2020",http://www.dc.state.fl.us/comm/covid-19.html,107,55,,,,,863,,756,,0,,1,,,,3449 SW STATE RD 26,32693,TRENTON,GILCHRIST,29.60801197,-82.8634739,12041,10000428,
400,state,Florida,LAWTEY CI,"December 16, 2020",http://www.dc.state.fl.us/comm/covid-19.html,3,12,,,,,9,,6,,0,,93,,,,22298 NE COUNTY ROAD 200B,32058,LAWTEY,BRADFORD,30.0339212,-82.07236464,12007,10000414,
401,state,Florida,LIBERTY CI,"December 16, 2020",http://www.dc.state.fl.us/comm/covid-19.html,230,66,,,,,1989,,1759,,0,,0,,,,11064 NW DEMPSEY BARRON RD,32321,BRISTOL,LIBERTY,30.46383683,-84.85588125,12077,10000391,
402,state,Florida,LOWELL CI,"December 16, 2020",http://www.dc.state.fl.us/comm/covid-19.html,1005,86,,,,,2287,,1282,,0,,37,,,,11120 NW GAINESVILLE RD,34482,OCALA,MARION,29.31079789,-82.20039763,12083,10000437,
403,state,Florida,MADISON CI,"December 16, 2020",http://www.dc.state.fl.us/comm/covid-19.html,113,64,,,,,1199,,1084,,2,,71,,,,382 SW MCI WAY,32340,MADISON,MADISON,30.44008751,-83.42161169,12079,10000381,
1720,federal,Florida,MARIANNA FCI,"December 16, 2020",https://www.bop.gov/coronavirus/,26,,0,0,10,16,,,,,0,,,,,,,,,,,,,,
404,state,Florida,MARION CI,"December 16, 2020",http://www.dc.state.fl.us/comm/covid-19.html,313,50,,,,,1437,,1124,,0,,0,,,,3269 NW 105TH ST,34475,OCALA,MARION,29.30810089,-82.17502385,12083,10000440,
405,state,Florida,MARTIN CI,"December 16, 2020",http://www.dc.state.fl.us/comm/covid-19.html,8,28,,,,,1645,,1635,,2,,85,,,,1150 SW ALLAPATTAH ROAD,34956,INDIANTOWN,MARTIN,27.19661972,-80.48487746,12085,10000508,
406,state,Florida,MAYO ANNEX,"December 16, 2020",http://www.dc.state.fl.us/comm/covid-19.html,954,54,,,,,1431,,477,,0,,0,,,,8784 US HWY 27 W,32066,MAYO,LAFAYETTE,30.1384625,-83.30514217,12067,10000409,
288,federal,Florida,MIAMI FCI,"December 16, 2020",https://www.bop.gov/coronavirus/,148,,1,0,132,16,,,,,13,,,,,931,15801 SW 137TH AVE,33177,MIAMI,MIAMI-DADE,25.61832698,-80.41039062,12086,10000542,
289,federal,Florida,MIAMI FDC,"December 16, 2020",https://www.bop.gov/coronavirus/,146,,2,0,153,21,,,,,25,,,,,1389,33 NORTHEAST 4TH STREET,33132,MIAMI,MIAMI-DADE,25.7784897,-80.19323747,12086,10004647,
407,state,Florida,MOORE HAVEN CF,"December 16, 2020",http://www.dc.state.fl.us/comm/covid-19.html,182,41,,,,,943,,761,,0,,33,,,,1282 EAST STATE ROAD 78,33471,MOORE HAVEN,GLADES,26.83843221,-81.12018204,12043,10000510,
408,state,Florida,NEW RIVER CI,"December 16, 2020",http://www.dc.state.fl.us/comm/covid-19.html,104,31,,,,,1150,,1046,,0,,1,,,,8000 NW 80TH PLACE,32083,RAIFORD,BRADFORD,30.0628479,-82.17809153,12007,10000416,
409,state,Florida,NWFRC,"December 16, 2020",http://www.dc.state.fl.us/comm/covid-19.html,328,72,,,,,1969,,1641,,0,,282,,,,4455 SAM MITCHELL DR,32428,CHIPLEY,WASHINGTON,30.52072999,-85.65969841,12133,10000365,
410,state,Florida,OKALOOSA CI,"December 16, 2020",http://www.dc.state.fl.us/comm/covid-19.html,18,52,,,,,1123,,1105,,0,,52,,,,3189 COLONEL GREG MALLOY RD,32539,CRESTVIEW,OKALOOSA,30.69681196,-86.527331040000007,12091,10004557,
411,state,Florida,OKEECHOBEE CI,"December 16, 2020",http://www.dc.state.fl.us/comm/covid-19.html,141,68,,,,,2569,,2428,,0,,51,,,,3420 NE 168TH ST,34972,OKEECHOBEE,OKEECHOBEE,27.39606954,-80.78444465,12093,10000495,
1433,federal,Florida,PENSACOLA FPC,"December 16, 2020",https://www.bop.gov/coronavirus/,20,,0,0,4,5,,,,,3,,,,,,,,,,,,,,
412,state,Florida,POLK CI,"December 16, 2020",http://www.dc.state.fl.us/comm/covid-19.html,210,43,,,,,1274,,1063,,1,,69,,,,10800 EVANS RD,33868,POLK CITY,POLK,28.19151724,-81.78675795,12105,10000473,
413,state,Florida,PUTNAM CI,"December 16, 2020",http://www.dc.state.fl.us/comm/covid-19.html,0,11,,,,,2,,2,,0,,6,,,,128 YELVINGTON RD,32131,EAST PALATKA,PUTNAM,29.64617008,-81.58778592,12107,10000430,
414,state,Florida,RMC,"December 16, 2020",http://www.dc.state.fl.us/comm/covid-19.html,325,178,,,,,2304,,1977,,2,,141,,,,7765 S COUNTY RD 231,32054,LAKE BUTLER,UNION,29.98965556,-82.35918381,12125,10000418,
415,state,Florida,SANTA ROSA CI,"December 16, 2020",http://www.dc.state.fl.us/comm/covid-19.html,808,175,,,,,2553,,1744,,1,,2,,,,5850 E MILTON RD,32583,MILTON,SANTA ROSA,30.64561525,-86.96742857,12113,10000339,
416,state,Florida,SFRC,"December 16, 2020",http://www.dc.state.fl.us/comm/covid-19.html,204,168,,,,,2305,,2100,,1,,175,,,,14000 NW 41ST ST,33178,DORAL,MIAMI-DADE,25.80587656,-80.42638712,12086,10000547,
418,state,Florida,SOUTH BAY CF GEO GROUP,"December 16, 2020",http://www.dc.state.fl.us/comm/covid-19.html,421,88,,,,,2463,,2042,,0,,0,,,,,,,,,,12099,,
1759,county,Florida,ST LUCE COUNTY JAIL,"December 16, 2020",https://www.stluciesheriff.com/288/COVID-19-Information,,,,,,,,,,,,,,,,,,,,,,,,,
419,state,Florida,STATEWIDE,"December 16, 2020",http://www.dc.state.fl.us/comm/covid-19.html,,,189,,,,,,,,,,,,,,,,,,,,,,
420,state,Florida,SUMTER CI,"December 16, 2020",http://www.dc.state.fl.us/comm/covid-19.html,107,59,,,,,180,,73,,0,,1,,,,9544 COUNTY RD 476B,33513,BUSHNELL,SUMTER,28.61748387,-82.20754297,12119,10000455,
421,state,Florida,SUWANNEE CI,"December 16, 2020",http://www.dc.state.fl.us/comm/covid-19.html,884,132,,,,,1996,,1112,,0,,8,,,,5964 US HWY 90,32060,LIVE OAK,SUWANNEE,30.23819413,-82.87311813,12121,10000405,
331,federal,Florida,TALLAHASSEE FCI,"December 16, 2020",https://www.bop.gov/coronavirus/,117,,0,0,138,12,,,,,4,,,,,925,501 CAPITAL CIRCLE NE,32301,TALLAHASSEE,LEON,30.44364798,-84.22253719,12073,10000375,
422,state,Florida,TAYLOR CI,"December 16, 2020",http://www.dc.state.fl.us/comm/covid-19.html,710,42,,,,,2191,,1481,,0,,0,,,,8501 HAMPTON SPRINGS ROAD,32348,PERRY,TAYLOR,30.040944,-83.71342,12123,10004574,
423,state,Florida,TOMOKA CI,"December 16, 2020",http://www.dc.state.fl.us/comm/covid-19.html,141,38,,,,,240,,99,,0,,82,,,,3950 TIGER BAY RD,32124,DAYTONA BEACH,VOLUSIA,29.15157094,-81.15726813,12127,10000444,
424,state,Florida,UNION CI,"December 16, 2020",http://www.dc.state.fl.us/comm/covid-19.html,189,92,,,,,1911,,1722,,0,,0,,,,25636 NE SR-16,32083,RAIFORD,UNION,30.06674635,-82.19278712,12125,10000417,
425,state,Florida,WAKULLA CI,"December 16, 2020",http://www.dc.state.fl.us/comm/covid-19.html,269,189,,,,,2866,,2597,,0,,2,,,,110 MELALEUCA DRIVE,32327,CRAWFORDVILLE,WAKULLA,30.2614929,-84.1748045,12129,10004575,
426,state,Florida,WALTON CI,"December 16, 2020",http://www.dc.state.fl.us/comm/covid-19.html,341,73,,,,,1453,,1112,,0,,258,,,,691 INSTITUTION RD,32433,DEFUNIAK SPRINGS,WALTON,30.77868009,-86.10318532,12131,10000360,
427,state,Florida,ZEPHYRHILLS CI,"December 16, 2020",http://www.dc.state.fl.us/comm/covid-19.html,150,44,,,,,630,,480,,0,,423,,,,2739 GALL BLVD,33541,ZEPHYRHILLS,PASCO,28.19909791,-82.19869217,12101,10000467,
1760,state,Georgia,APPLING ITF,"December 16, 2020",http://www.dcor.state.ga.us/content/CVD_Dashboard,15,3,0,0,15,3,,,,,,,,,,,,,,,,,,,
428,state,Georgia,ASMP,"December 16, 2020",http://www.dcor.state.ga.us/content/CVD_Dashboard,214,102,6,0,131,96,,,,,,,,,,,3001 GORDON HWY,30813,GROVETOWN,COLUMBIA,33.43287905,-82.18852112,13073,10006153,
429,state,Georgia,ATLANTA TC,"December 16, 2020",http://www.dcor.state.ga.us/content/CVD_Dashboard,9,2,0,0,9,2,,,,,,,,,,,332 PONCE DE LEON AVE NE,30308,ATLANTA,FULTON,33.77270217,-84.3762642,13121,10001411,
162,federal,Georgia,ATLANTA USP,"December 16, 2020",https://www.bop.gov/coronavirus/,110,,1,0,75,8,,,,,1,,,,,2093,601 MCDONOUGH BLVD SE,30315,ATLANTA,FULTON,33.71070018,-84.36897923,13121,10000285,
1761,state,Georgia,AUGUSTA TC,"December 16, 2020",http://www.dcor.state.ga.us/content/CVD_Dashboard,6,8,0,0,5,3,,,,,,,,,,,,,,,,,,,
430,state,Georgia,AUTRY STATE PRISON,"December 16, 2020",http://www.dcor.state.ga.us/content/CVD_Dashboard,77,16,3,0,74,15,,,,,,,,,,,3178 MOUNT ZION CHURCH RD,31779,PELHAM,MITCHELL,31.18946471,-84.14510952,13205,10000325,
431,state,Georgia,BACON PDC,"December 16, 2020",http://www.dcor.state.ga.us/content/CVD_Dashboard,3,13,0,0,3,12,,,,,,,,,,,165 EAST EASTSIDE INDUSTRIAL BOULEVARD,31510,ALMA,BACON,31.53308262,-82.44987705,13005,10004534,
432,state,Georgia,BAINBRIDGE PSAT,"December 16, 2020",http://www.dcor.state.ga.us/content/CVD_Dashboard,48,21,0,0,48,19,,,,,,,,,,,235 STATE HOSPITAL ROAD,39817,BAINBRIDGE,DECATUR,30.98252995,-84.63677462,13087,10006339,
433,state,Georgia,BALDWIN STATE PRISON,"December 16, 2020",http://www.dcor.state.ga.us/content/CVD_Dashboard,28,39,2,0,26,35,,,,,,,,,,,140 LAYING FARM RD,31034,HARDWICK,BALDWIN,33.0250608,-83.2213613,13009,10002129,
1762,state,Georgia,BLECKLEY PSATC,"December 16, 2020",http://www.dcor.state.ga.us/content/CVD_Dashboard,35,13,0,0,35,13,,,,,,,,,,,,,,,,,,,
1847,state,Georgia,BULLOCH COUNTY CORRECTIONAL INSTITUTION,"December 16, 2020",http://www.dcor.state.ga.us/content/CVD_Dashboard,0,0,0,0,0,0,,,,,,,,,,,,,,,,,,,
434,state,Georgia,BURRUSS CTC,"December 16, 2020",http://www.dcor.state.ga.us/content/CVD_Dashboard,14,17,1,0,13,17,,,,,,,,,,,1000 INDIAN SPRINGS DR,31029,FORSYTH,MONROE,33.05554556,-83.97538536,13207,10001421,
435,state,Georgia,CALHOUN STATE PRISON,"December 16, 2020",http://www.dcor.state.ga.us/content/CVD_Dashboard,58,28,1,1,56,26,,,,,,,,,,,27823 MAIN ST,39866,MORGAN,CALHOUN,31.53975718,-84.6166883,13037,10002146,
1849,state,Georgia,CARROLL COUNTY CORRECTIONAL INSTITUTION,"December 16, 2020",http://www.dcor.state.ga.us/content/CVD_Dashboard,2,0,0,0,0,0,,,,,,,,,,,,,,,,,,,
436,state,Georgia,CENTRAL STATE PRISON,"December 16, 2020",http://www.dcor.state.ga.us/content/CVD_Dashboard,34,31,0,0,32,25,,,,,,,,,,,4600 FULTON MILL RD,31208,MACON,BIBB,32.77682714,-83.75181934,13021,10002134,
1460,state,Georgia,CLARKE COUNTY CI,"December 16, 2020",http://www.dcor.state.ga.us/content/CVD_Dashboard,15,0,0,0,15,0,,,,,,,,,,,,,,,,,,,
1850,state,Georgia,CLAYTON COUNTY CORRECTIONAL INSTITUTION,"December 16, 2020",http://www.dcor.state.ga.us/content/CVD_Dashboard,0,0,0,0,0,0,,,,,,,,,,,,,,,,,,,
437,state,Georgia,CLAYTON TC,"December 16, 2020",http://www.dcor.state.ga.us/content/CVD_Dashboard,7,9,0,0,7,7,,,,,,,,,,,242 FALCON DR,30297,FOREST PARK,CLAYTON,33.62430193,-84.3976813,13063,10002121,
438,state,Georgia,COASTAL STATE PRISON,"December 16, 2020",http://www.dcor.state.ga.us/content/CVD_Dashboard,70,17,6,0,64,12,,,,,,,,,,,200 GULF STREAM RD,31418,GARDEN CITY,CHATHAM,32.13759217,-81.18656693,13051,10000314,
439,state,Georgia,COFFEE CORRECTIONAL FACILITY,"December 16, 2020",http://www.dcor.state.ga.us/content/CVD_Dashboard,235,0,5,0,229,0,,,,,,,,,,,1153 NORTH LIBERTY STREET,31554,NICHOLLS,COFFEE,31.53063543,-82.63791259,13069,10002144,
440,state,Georgia,COLQUITT COUNTY CI,"December 16, 2020",http://www.dcor.state.ga.us/content/CVD_Dashboard,11,0,0,0,11,0,,,,,,,,,,,200 SOUTH VANDENBERG DRIVE,31768,MOULTRIE,COLQUITT,31.12973082,-83.70786594,13071,10004548,
441,state,Georgia,COLUMBUS TC,"December 16, 2020",http://www.dcor.state.ga.us/content/CVD_Dashboard,4,3,0,0,4,3,,,,,,,,,,,3900 SCHATULGA ROAD,31907,COLUMBUS,MUSCOGEE,32.49407873,-84.86892761,13215,10001426,
1848,state,Georgia,COLWELL PROBATION DETENTION CENTER,"December 16, 2020",http://www.dcor.state.ga.us/content/CVD_Dashboard,0,1,0,0,0,0,,,,,,,,,,,,,,,,,,,
1851,state,Georgia,COWETA COUNTY CORRECTIONAL INSTITUTION,"December 16, 2020",http://www.dcor.state.ga.us/content/CVD_Dashboard,84,0,0,0,84,0,,,,,,,,,,,,,,,,,,,
1624,federal,Georgia,CSC DISMAS CHARITIES RRC ATLANTA,"December 16, 2020",https://www.bop.gov/coronavirus/,3,,0,0,3,0,,,,,0,,,,,,,,,,,,,,
205,federal,Georgia,D RAY JAMES CI,"December 16, 2020",https://www.bop.gov/coronavirus/,,,3,0,194,0,,,,,,,,,,1826,3262 HIGHWAY 252,31537,FOLKSTON,CHARLTON,30.87400142,-81.97896384,13049,10000327,
1763,state,Georgia,DECATUR COUNTY CI,"December 16, 2020",http://www.dcor.state.ga.us/content/CVD_Dashboard,2,0,0,0,2,0,,,,,,,,,,,,,,,,,,,
442,state,Georgia,DODGE STATE PRISON,"December 16, 2020",http://www.dcor.state.ga.us/content/CVD_Dashboard,36,23,3,1,32,20,,,,,,,,,,,2971 OLD BETHEL CHURCH ROAD,31012,CHESTER,DODGE,32.3942334,-83.16745955,13091,10002138,
443,state,Georgia,DOOLY STATE PRISON,"December 16, 2020",http://www.dcor.state.ga.us/content/CVD_Dashboard,18,20,2,0,16,18,,,,,,,,,,,1412 PLUNKETT ROAD,31091,UNADILLA,HOUSTON,32.28092423,-83.71567596,13093,10006154,
1461,state,Georgia,EFFINGHAM COUNTY CI,"December 16, 2020",http://www.dcor.state.ga.us/content/CVD_Dashboard,47,0,0,0,47,0,,,,,,,,,,,,,,,,,,,
1852,state,Georgia,EMANUEL PROBATION DETENTION CENTER,"December 16, 2020",http://www.dcor.state.ga.us/content/CVD_Dashboard,0,0,0,0,0,0,,,,,,,,,,,,,,,,,,,
444,state,Georgia,EMANUEL WOMENS FACILITY,"December 16, 2020",http://www.dcor.state.ga.us/content/CVD_Dashboard,26,15,0,0,26,12,,,,,,,,,,,714 GUMLOG ROAD,30401,SWAINSBORO,EMANUEL,32.61303825,-82.3564078,13107,10004496,
1853,state,Georgia,FLOYD COUNTY CORRECTIONAL INSTITUTION,"December 16, 2020",http://www.dcor.state.ga.us/content/CVD_Dashboard,0,0,0,0,0,0,,,,,,,,,,,,,,,,,,,
445,state,Georgia,GDCP,"December 16, 2020",http://www.dcor.state.ga.us/content/CVD_Dashboard,145,51,5,0,125,45,,,,,,,,,,,2978 STATE HWYY 36 W PRISON BLVD,30233,JACKSON,BUTTS,33.22107373,-84.06161828,13035,10000298,
446,state,Georgia,GDCP SMU,"December 16, 2020",http://www.dcor.state.ga.us/content/CVD_Dashboard,0,11,0,0,0,10,,,,,,,,,,,2978 STATE HWYY 36 W PRISON BLVD,30233,JACKSON,BUTTS,33.22107373,-84.06161828,13035,10000298,
447,state,Georgia,GEORGIA STATE PRISON,"December 16, 2020",http://www.dcor.state.ga.us/content/CVD_Dashboard,30,32,3,0,27,26,,,,,,,,,,,300 1ST AVENUE SOUTH,30453,REIDSVILLE,TATTNALL,32.00512895,-82.16473427,13267,10002141,
1462,state,Georgia,GWINNETT COUNTY CI,"December 16, 2020",http://www.dcor.state.ga.us/content/CVD_Dashboard,18,0,0,0,18,0,,,,,,,,,,,,,,,,,,,
1826,state,Georgia,HALL COUNTY CI,"December 16, 2020",http://www.dcor.state.ga.us/content/CVD_Dashboard,3,0,0,0,3,0,,,,,,,,,,,,,,,,,,,
448,state,Georgia,HANCOCK STATE PRISON,"December 16, 2020",http://www.dcor.state.ga.us/content/CVD_Dashboard,90,15,0,0,26,14,,,,,,,,,,,701 PRISON BLVD,31087,SPARTA,HANCOCK,33.24549405,-82.95092313,13141,10000297,
1825,state,Georgia,HARRIS COUNTY CI,"December 16, 2020",http://www.dcor.state.ga.us/content/CVD_Dashboard,3,0,0,0,3,0,,,,,,,,,,,,,,,,,,,
1463,state,Georgia,HAYS STATE PRISON,"December 16, 2020",http://www.dcor.state.ga.us/content/CVD_Dashboard,43,30,0,0,43,28,,,,,,,,,,,,,,,,,,,
1464,state,Georgia,HELMS FACILITY,"December 16, 2020",http://www.dcor.state.ga.us/content/CVD_Dashboard,0,4,0,0,0,3,,,,,,,,,,,,,,,,,,,
1465,state,Georgia,HUDSON TC,"December 16, 2020",http://www.dcor.state.ga.us/content/CVD_Dashboard,2,1,0,0,2,1,,,,,,,,,,,,,,,,,,,
1854,state,Georgia,JACKSON COUNTY CORRECTIONAL INSTITUTION,"December 16, 2020",http://www.dcor.state.ga.us/content/CVD_Dashboard,0,0,0,0,0,0,,,,,,,,,,,,,,,,,,,
1764,state,Georgia,JEFFERSON COUNTY CI,"December 16, 2020",http://www.dcor.state.ga.us/content/CVD_Dashboard,4,0,0,0,4,0,,,,,,,,,,,,,,,,,,,
1765,state,Georgia,JENKINS CORRECTIONAL CENTER,"December 16, 2020",http://www.dcor.state.ga.us/content/CVD_Dashboard,31,0,4,0,27,0,,,,,,,,,,,,,,,,,,,
449,state,Georgia,JOHNSON STATE PRISON,"December 16, 2020",http://www.dcor.state.ga.us/content/CVD_Dashboard,47,14,1,0,46,11,,,,,,,,,,,290 DONOVAN-HARRISON ROAD,31096,WRIGHTSVILLE,JOHNSON,32.74353362,-82.70234985,13167,10000303,
450,state,Georgia,LEE ARRENDALE STATE PRISON,"December 16, 2020",http://www.dcor.state.ga.us/content/CVD_Dashboard,65,34,0,0,61,30,,,,,,,,,,,2023 GAINESVILLE HWY,30510,ALTO,HABERSHAM,34.45106681,-83.59596645,13137,10002102,
1769,state,Georgia,LEE ARRENDALE TC,"December 16, 2020",http://www.dcor.state.ga.us/content/CVD_Dashboard,0,3,0,0,0,2,,,,,,,,,,,,,,,,,,,
451,state,Georgia,LEE STATE PRISON,"December 16, 2020",http://www.dcor.state.ga.us/content/CVD_Dashboard,24,33,2,0,22,32,,,,,,,,,,,153 PINEWOOD DRIVE,31763,LEESBURG,LEE,31.76369451,-84.19354919,13177,10000323,
1801,state,Georgia,LONG UNIT,"December 16, 2020",http://www.dcor.state.ga.us/content/CVD_Dashboard,9,17,1,0,8,17,,,,,,,,,,,,,,,,,,,
1710,state,Georgia,MACON STATE PRISON,"December 16, 2020",http://www.dcor.state.ga.us/content/CVD_Dashboard,33,44,2,0,30,35,,,,,,,,,,,2728 SOUTH 49 HWY,31068,OGLETHORPE,MACON,32.25930659,-84.09144003,13193,10002137,
452,state,Georgia,MACON TC,"December 16, 2020",http://www.dcor.state.ga.us/content/CVD_Dashboard,9,4,1,0,8,4,,,,,,,,,,,,,,,,,,,
453,state,Georgia,MCEVER PDC,"December 16, 2020",http://www.dcor.state.ga.us/content/CVD_Dashboard,25,13,0,0,4,9,,,,,,,,,,,2100 KINGS CHAPEL ROAD,31069,PERRY,HOUSTON,32.46494728,-83.69501268,13153,10004500,
285,federal,Georgia,MCRAE CI,"December 16, 2020",https://www.bop.gov/coronavirus/,,,1,0,20,0,,,,,,,,,,1601,112 JIM HAMMOCK DRIVE,31055,MCRAE,TELFAIR,32.05007042,-82.8715772,13271,10000315,
454,state,Georgia,METRO REENTRY FACILITY,"December 16, 2020",http://www.dcor.state.ga.us/content/CVD_Dashboard,3,17,0,0,3,15,,,,,,,,,,,1303 CONSTITUTION ROAD,30316,ATLANTA,DEKALB,33.687261,-84.336355,13089,10001414,
455,state,Georgia,METRO TC,"December 16, 2020",http://www.dcor.state.ga.us/content/CVD_Dashboard,9,11,0,0,9,11,,,,,,,,,,,1303 CONSTITUTION ROAD,30316,ATLANTA,DEKALB,33.6885252,-84.336397,13089,10001414,
457,state,Georgia,MITCHELL COUNTY CI,"December 16, 2020",http://www.dcor.state.ga.us/content/CVD_Dashboard,3,0,0,0,3,0,,,,,,,,,,,4838 STATE HWY 37 E,31730,CAMILLA,MITCHELL,31.2324018,-84.180085,13205,10002149,
1466,state,Georgia,MONTGOMERY STATE PRISON,"December 16, 2020",http://www.dcor.state.ga.us/content/CVD_Dashboard,22,23,1,0,21,21,,,,,,,,,,,,,,,,,,,
1766,state,Georgia,MUSCOGEE COUNTY CI,"December 16, 2020",http://www.dcor.state.ga.us/content/CVD_Dashboard,2,0,0,0,1,0,,,,,,,,,,,,,,,,,,,
1767,state,Georgia,NORTHWEST RSAT,"December 16, 2020",http://www.dcor.state.ga.us/content/CVD_Dashboard,18,0,0,0,18,0,,,,,,,,,,,,,,,,,,,
458,state,Georgia,PATTEN PDC,"December 16, 2020",http://www.dcor.state.ga.us/content/CVD_Dashboard,4,11,0,0,4,11,,,,,,,,,,,1009 NORTH 10TH AVENUE,31635,LAKELAND,LANIER,31.03988304,-83.0617537,13173,10004551,
459,state,Georgia,PAULDING RSAT,"December 16, 2020",http://www.dcor.state.ga.us/content/CVD_Dashboard,17,15,0,0,17,15,,,,,,,,,,,1295 N INDUSTRIAL BLVD,30132,DALLAS,PAULDING,33.94976674,-84.81466644,13223,10002108,
460,state,Georgia,PHILLIPS STATE PRISON,"December 16, 2020",http://www.dcor.state.ga.us/content/CVD_Dashboard,17,30,0,0,16,28,,,,,,,,,,,2989 WEST ROCK QUARRY ROAD,30519,BUFORD,GWINNETT,34.0942918,-83.9105205,13135,10002106,
461,state,Georgia,PHILLIPS TC,"December 16, 2020",http://www.dcor.state.ga.us/content/CVD_Dashboard,6,3,0,0,6,3,,,,,,,,,,,2989 W ROCK QUARRY ROAD,30519,BUFORD,GWINNETT,34.09554623,-83.90946974,13135,10002105,
462,state,Georgia,PULASKI STATE PRISON,"December 16, 2020",http://www.dcor.state.ga.us/content/CVD_Dashboard,91,43,1,0,90,42,,,,,,,,,,,373 UPPER RIVER ROAD,31036,HAWKINSVILLE,PULASKI,32.3115199,-83.45723464,13235,10000307,
1855,state,Georgia,RICHMOND COUNTY CORRECTIONAL INSTITUTION,"December 16, 2020",http://www.dcor.state.ga.us/content/CVD_Dashboard,12,0,0,0,12,0,,,,,,,,,,,,,,,,,,,
463,state,Georgia,RIVERBEND CORRECTIONAL FACILITY,"December 16, 2020",http://www.dcor.state.ga.us/content/CVD_Dashboard,18,0,3,0,15,0,,,,,,,,,,,196 LAYING FARM ROAD,31061,MILLEDGEVILLE,BALDWIN,,,13009,10006322,
1467,state,Georgia,ROGERS STATE PRISON,"December 16, 2020",http://www.dcor.state.ga.us/content/CVD_Dashboard,17,22,0,0,16,20,,,,,,,,,,,,,,,,,,,
464,state,Georgia,RUTLEDGE STATE PRISON,"December 16, 2020",http://www.dcor.state.ga.us/content/CVD_Dashboard,26,22,2,0,24,21,,,,,,,,,,,7175 MANOR ROAD,31907,COLUMBUS,MUSCOGEE,32.49582796,-84.86617971,13215,10000304,
1856,state,Georgia,SCREVEN COUNTY CORRECTIONAL INSTITUTION,"December 16, 2020",http://www.dcor.state.ga.us/content/CVD_Dashboard,0,0,0,0,0,0,,,,,,,,,,,,,,,,,,,
465,state,Georgia,SMITH STATE PRISON,"December 16, 2020",http://www.dcor.state.ga.us/content/CVD_Dashboard,21,19,1,0,20,18,,,,,,,,,,,9676 UNITED STATES HIGHWAY 301 NORTH,30427,GLENNVILLE,TATTNALL,31.97310836,-81.91578361,13267,10000309,
1711,state,Georgia,SMITH TC,"December 16, 2020",http://www.dcor.state.ga.us/content/CVD_Dashboard,10,2,0,0,10,1,,,,,,,,,,,,,,,,,,,
327,federal,Georgia,SOUTHEAST RO,"December 16, 2020",https://www.bop.gov/coronavirus/,,,0,0,0,1,,,,,,,,,,,,,,,,,13121,,
1857,state,Georgia,SPALDING COUNTY CORRECTIONAL INSTITUTION,"December 16, 2020",http://www.dcor.state.ga.us/content/CVD_Dashboard,0,0,0,0,0,0,,,,,,,,,,,,,,,,,,,
1858,state,Georgia,SUMTER COUNTY CORRECTIONAL INSTITUTION,"December 16, 2020",http://www.dcor.state.ga.us/content/CVD_Dashboard,0,0,0,0,0,0,,,,,,,,,,,,,,,,,,,
1802,state,Georgia,TELFAIR STATE PRISON,"December 16, 2020",http://www.dcor.state.ga.us/content/CVD_Dashboard,77,17,6,0,71,17,,,,,,,,,,,,,,,,,,,
1859,state,Georgia,TERRELL COUNTY CORRECTIONAL INSTITUTION,"December 16, 2020",http://www.dcor.state.ga.us/content/CVD_Dashboard,0,0,0,0,0,0,,,,,,,,,,,,,,,,,,,
466,state,Georgia,TREUTLEN PDC,"December 16, 2020",http://www.dcor.state.ga.us/content/CVD_Dashboard,13,20,0,0,13,20,,,,,,,,,,,1 SESSIONS STREET,30457,SOPERTON,TREUTLEN,32.3624615,-82.60238104,13283,10005191,
467,state,Georgia,TURNER RSAT,"December 16, 2020",http://www.dcor.state.ga.us/content/CVD_Dashboard,33,9,0,0,33,8,,,,,,,,,,,514 SOUTH RAILROAD AVE,31790,SYCAMORE,TURNER,31.6621587,-83.63393731,13287,10005201,
469,state,Georgia,VALDOSTA STATE PRISON,"December 16, 2020",http://www.dcor.state.ga.us/content/CVD_Dashboard,19,67,0,0,19,60,,,,,,,,,,,3259 VALTECH RD,31601,VALDOSTA,LOWNDES,30.85995723,-83.34575403,13185,10000328,
470,state,Georgia,VALDOSTA TC,"December 16, 2020",http://www.dcor.state.ga.us/content/CVD_Dashboard,2,8,0,0,1,3,,,,,,,,,,,263 GILL HARBIN INDUSTRIAL BLVD,31601,VALDOSTA,LOWNDES,30.80565871,-83.2675069,13185,10001432,
1699,state,Georgia,WALKER STATE PRISON,"December 16, 2020",http://www.dcor.state.ga.us/content/CVD_Dashboard,64,27,1,0,63,24,,,,,,,,,,,,,,,,,,,
471,state,Georgia,WARE STATE PRISON,"December 16, 2020",http://www.dcor.state.ga.us/content/CVD_Dashboard,31,60,4,0,24,58,,,,,,,,,,,3620 NORTH HARRIS ROAD,31501,WAYCROSS,WARE,31.25673084,-82.39335661,13299,10002147,
472,state,Georgia,WASHINGTON STATE PRISON,"December 16, 2020",http://www.dcor.state.ga.us/content/CVD_Dashboard,26,7,0,0,26,7,,,,,,,,,,,13262 HWY 24 E,31018,DAVISBORO,WASHINGTON,32.98872379,-82.59490798,13303,10002126,
473,state,Georgia,WEST CENTRAL ITF,"December 16, 2020",http://www.dcor.state.ga.us/content/CVD_Dashboard,8,13,0,0,1,12,,,,,,,,,,,1070 COUNTY FARM ROAD,30295,ZEBULON,PIKE,33.11609815,-84.3610402,13231,10004487,
474,state,Georgia,WHEELER CORRECTIONAL FACILITY,"December 16, 2020",http://www.dcor.state.ga.us/content/CVD_Dashboard,171,0,12,0,159,0,,,,,,,,,,,195 NORTH BROAD STREET,30411,ALAMO,WHEELER,32.1504927,-82.79500753,13309,10002142,
1468,state,Georgia,WHITWORTH WOMENS FACILITY,"December 16, 2020",http://www.dcor.state.ga.us/content/CVD_Dashboard,18,17,1,0,17,15,,,,,,,,,,,,,,,,,,,
1469,state,Georgia,WILCOX STATE PRISON,"December 16, 2020",http://www.dcor.state.ga.us/content/CVD_Dashboard,45,26,3,0,41,23,,,,,,,,,,,,,,,,,,,
1768,state,Georgia,WOMENS PDC,"December 16, 2020",http://www.dcor.state.ga.us/content/CVD_Dashboard,6,7,0,0,6,7,,,,,,,,,,,,,,,,,,,
475,state,Hawaii,HCCC,"December 16, 2020",https://dps.hawaii.gov/blog/2020/03/17/coronavirus-covid-19-information-and-resources/,1,,0,,1,,253,,252,,0,,0,,0,515,60 PUNAHELE STREET,96720,HILO,HAWAII,19.71830866,-155.0989632,15001,10003694,
476,state,Hawaii,HCF,"December 16, 2020",https://dps.hawaii.gov/blog/2020/03/17/coronavirus-covid-19-information-and-resources/,170,,0,,5,,1528,,1355,,,,,,168,,99-902 MOANALUA RD,96701,AIEA,HONOLULU,21.37379134,-157.8989822,15003,10000124,
1427,federal,Hawaii,HONOLULU FDC,"December 16, 2020",https://www.bop.gov/coronavirus/,6,,0,0,4,1,,,,,1,,,,,,,,,,,,,,
477,state,Hawaii,KCCC,"December 16, 2020",https://dps.hawaii.gov/blog/2020/03/17/coronavirus-covid-19-information-and-resources/,0,,0,,0,,59,,58,,1,,75,,0,159,3-5351 KUHIO HIGHWAY,96766,LIHUE,KAUAI,22.02515252,-159.3428192,15007,10003692,
478,state,Hawaii,KCF,"December 16, 2020",https://dps.hawaii.gov/blog/2020/03/17/coronavirus-covid-19-information-and-resources/,0,,0,,0,,218,,218,,0,,0,,0,184,HC 01 STAINBACK HWY,96720,HILO,HAWAII,19.54917893,-155.3011053,15001,10000128,
479,state,Hawaii,MCCC,"December 16, 2020",https://dps.hawaii.gov/blog/2020/03/17/coronavirus-covid-19-information-and-resources/,0,,0,,0,,250,,250,,0,,0,,0,452,600 WAIALE DR,96793,WAILUKU,MAUI,20.87701605,-156.4983753,15009,10000127,
480,state,Hawaii,OCCC,"December 16, 2020",https://dps.hawaii.gov/blog/2020/03/17/coronavirus-covid-19-information-and-resources/,450,,0,,445,,5327,,4857,,0,,,,3,1268,2199 KAMEHAMEHA HIGHWAY,96819,HONOLULU,HONOLULU,21.32989382,-157.884874,15003,10003691,
1470,state,Hawaii,SAGUARO,"December 16, 2020",https://dps.hawaii.gov/blog/2020/03/17/coronavirus-covid-19-information-and-resources/,633,,1,,646,,2973,,2315,,,,367,,27,,,,,,,,,,
482,state,Hawaii,WCCC,"December 16, 2020",https://dps.hawaii.gov/blog/2020/03/17/coronavirus-covid-19-information-and-resources/,0,,0,,0,,229,,229,,0,,0,,0,278,42-477 KALANIANAOLE HWY,96734,KAILUA,HONOLULU,21.37802504,-157.7484499,15003,10000126,
483,state,Hawaii,WCF,"December 16, 2020",https://dps.hawaii.gov/blog/2020/03/17/coronavirus-covid-19-information-and-resources/,213,,0,,193,,841,,625,,,,36,,20,202,94-560 KAMEHAMEHA HWY,96797,WAIPAHU,HONOLULU,21.44465003,-157.9609092,15003,10001191,
1471,state,Idaho,CENTRAL OFFICE,"December 16, 2020",https://www.idoc.idaho.gov/content/careers/covid-19,,18,,,,15,,,,,,,,,,,,,,,,,,,
1702,state,Idaho,DISTRICT 1,"December 16, 2020",https://www.idoc.idaho.gov/content/careers/covid-19,,3,,,,2,,,,,,,,,,,,,,,,,,,
,state,Idaho,DISTRICT 2,"December 16, 2020",https://www.idoc.idaho.gov/content/careers/covid-19,,1,,,,1,,,,,,,,,,,,,,,,,,,
1805,state,Idaho,DISTRICT 3,"December 16, 2020",https://www.idoc.idaho.gov/content/careers/covid-19,,5,,,,4,,,,,,,,,,,,,,,,,,,
1472,state,Idaho,DISTRICT 4,"December 16, 2020",https://www.idoc.idaho.gov/content/careers/covid-19,,14,,,,11,,,,,,,,,,,,,,,,,,,
1473,state,Idaho,DISTRICT 5,"December 16, 2020",https://www.idoc.idaho.gov/content/careers/covid-19,,6,,,,6,,,,,,,,,,,,,,,,,,,
,state,Idaho,DISTRICT 6,"December 16, 2020",https://www.idoc.idaho.gov/content/careers/covid-19,,5,,,,4,,,,,,,,,,,,,,,,,,,
,state,Idaho,DISTRICT 7,"December 16, 2020",https://www.idoc.idaho.gov/content/careers/covid-19,,5,,,,4,,,,,,,,,,,,,,,,,,,
486,state,Idaho,EBCRC,"December 16, 2020",https://www.idoc.idaho.gov/content/careers/covid-19,,5,,,,5,,,,,,,,,,,2366 OLD PENITENTIARY RD,83712,BOISE,ADA,43.60314093,-116.1638439,16001,10001184,
487,state,Idaho,ICIO,"December 16, 2020",https://www.idoc.idaho.gov/content/careers/covid-19,,41,,,,28,,,,,,,,,,,381 WEST HOSPITAL DRIVE,83544,OROFINO,CLEARWATER,46.49197836,-116.2607095,16035,10001172,
488,state,Idaho,IFCRC,"December 16, 2020",https://www.idoc.idaho.gov/content/careers/covid-19,,5,,,,5,,,,,,,,,,,3955 BOMBARDIER AVE,83402,IDAHO FALLS,BONNEVILLE,43.46230015,-112.0639693,16019,10001186,
489,state,Idaho,IMSI,"December 16, 2020",https://www.idoc.idaho.gov/content/careers/covid-19,,30,,,,29,,,,,,,,,,,13500 S PLEASANT VALLEY RD,83634,KUNA,ADA,43.47938786,-116.2189574,16001,10001181,
490,state,Idaho,ISCC,"December 16, 2020",https://www.idoc.idaho.gov/content/careers/covid-19,,77,,,,67,,,,,,,,,,,14601 S PLEASANT VALLEY RD,83634,KUNA,ADA,43.47119944,-116.2375874,16001,10001183,
491,state,Idaho,ISCI,"December 16, 2020",https://www.idoc.idaho.gov/content/careers/covid-19,,79,,,,70,,,,,,,,,,,13500 S PLEASANT VALLEY RD,83634,KUNA,ADA,43.47938786,-116.2189574,16001,10001181,
,state,Idaho,NAMPA CRC,"December 16, 2020",https://www.idoc.idaho.gov/content/careers/covid-19,,1,,,,1,,,,,,,,,,,,,,,,,,,
493,state,Idaho,NICI,"December 16, 2020",https://www.idoc.idaho.gov/content/careers/covid-19,,13,,,,12,,,,,,,,,,,236 RADAR RD,83522,COTTONWOOD,IDAHO,46.07917307,-116.4280588,16049,10001173,
494,state,Idaho,PWCC,"December 16, 2020",https://www.idoc.idaho.gov/content/careers/covid-19,,6,,,,5,,,,,,,,,,,1451 FORE RD,83204,POCATELLO,BANNOCK,42.84256222,-112.4506302,16005,10001187,
495,state,Idaho,SAWC,"December 16, 2020",https://www.idoc.idaho.gov/content/careers/covid-19,,16,,,,15,,,,,,,,,,,125 N 8TH W,83445,ST ANTHONY,FREMONT,43.96809846,-111.6935417,16043,10001176,
496,state,Idaho,SBWCC,"December 16, 2020",https://www.idoc.idaho.gov/content/careers/covid-19,,19,,,,16,,,,,,,,,,,13200 S PLEASANT VALLEY RD,83634,KUNA,ADA,43.48338,-116.23392,16001,10001185,
497,state,Idaho,SICI,"December 16, 2020",https://www.idoc.idaho.gov/content/careers/covid-19,,29,,,,26,,,,,,,,,,,13500 S PLEASANT VALLEY RD,83634,KUNA,ADA,43.47938786,-116.2189574,16001,10001181,
498,state,Idaho,STATEWIDE,"December 16, 2020",https://www.idoc.idaho.gov/content/careers/covid-19,3381,,5,,,,,,13626,,99,,,,1293,,,,,,,,,,
,state,Idaho,TFCRC,"December 16, 2020",https://www.idoc.idaho.gov/content/careers/covid-19,,1,,,,1,,,,,,,,,,,,,,,,,,,
499,state,Idaho,TVCRC,"December 16, 2020",https://www.idoc.idaho.gov/content/careers/covid-19,,1,,,,1,,,,,,,,,,,14195 S PLEASANT VALLEY RD,83634,KUNA,ADA,43.6574178,-116.6678165,16001,10004339,
1748,federal,Illinois,ALPHA HOUSE OF SPRINGFIELD,"December 16, 2020",https://www.bop.gov/coronavirus/,3,,0,0,3,0,,,,,0,,,,,,,,,,,,,,
1474,state,Illinois,BIG MUDDY RIVER,"December 16, 2020",https://www2.illinois.gov/idoc/facilities/Pages/Covid19Response.aspx,72,61,,,65,58,297,,,,,,,,6,1218,,,,,,,,,
1770,state,Illinois,CENTRALIA,"December 16, 2020",https://www2.illinois.gov/idoc/facilities/Pages/Covid19Response.aspx,76,102,,,67,94,377,,,,,,,,9,1209,,,,,,,,,
188,federal,Illinois,CHICAGO MCC,"December 16, 2020",https://www.bop.gov/coronavirus/,256,,0,0,271,29,,,,,0,,,,,668,71 WEST VAN BUREN STREET,60605,CHICAGO,COOK,41.87658453,-87.63048213,17031,10001470,
,county,Illinois,COOK COUNTY JAIL,"December 16, 2020",https://www.cookcountysheriff.org/covid-19-cases-at-ccdoc/,551,568,7,4,515,520,,,11097,,,,,,,,,,,,,,,,
501,state,Illinois,CROSSROADS ATC,"December 16, 2020",https://www2.illinois.gov/idoc/facilities/Pages/Covid19Response.aspx,5,1,,,5,1,0,,,,,,,,0,325,3210 WEST ARTHINGTON STREET,60624,CHICAGO,COOK,41.87048357,-87.70635938,17031,10000635,
502,state,Illinois,DANVILLE,"December 16, 2020",https://www2.illinois.gov/idoc/facilities/Pages/Covid19Response.aspx,117,87,,,20,49,290,,,,,,,,97,1605,3820 EAST MAIN STREET,61834,DANVILLE,VERMILION,40.12956679,-87.53645593,17183,10000662,
1475,state,Illinois,DECATUR,"December 16, 2020",https://www2.illinois.gov/idoc/facilities/Pages/Covid19Response.aspx,39,39,,,33,34,151,,,,,,,,6,531,,,,,,,,,
503,state,Illinois,DIXON CORRECTIONAL INSTITUTE,"December 16, 2020",https://www2.illinois.gov/idoc/facilities/Pages/Covid19Response.aspx,530,214,,,470,192,2547,,,,,,,,61,1652,2600 NORTH BRINTON AVENUE,61021,DIXON,LEE,41.8737451,-89.47817317,17103,10000642,
504,state,Illinois,EAST MOLINE,"December 16, 2020",https://www2.illinois.gov/idoc/facilities/Pages/Covid19Response.aspx,342,59,,,342,53,717,,,,,,,,0,1175,100 HILLCREST ROAD,61244,EAST MOLINE,ROCK ISLAND,41.53372905,-90.41912151,17161,10000644,
,state,Illinois,ELGIN TC,"December 16, 2020",https://www2.illinois.gov/idoc/facilities/Pages/Covid19Response.aspx,0,14,,,0,10,54,,,,,,,,0,,,,,,,,,,
506,state,Illinois,FOX VALLEY ATC,"December 16, 2020",https://www2.illinois.gov/idoc/facilities/Pages/Covid19Response.aspx,4,8,,,4,8,0,,,,,,,,0,127,1329 N LAKE ST,60506,AURORA,KANE,41.78792125,-88.3202916,17089,10000638,
1476,state,Illinois,GENERAL OFFICE,"December 16, 2020",https://www2.illinois.gov/idoc/facilities/Pages/Covid19Response.aspx,0,23,,,0,13,0,,,,,,,,0,,,,,,,,,,
507,state,Illinois,GRAHAM,"December 16, 2020",https://www2.illinois.gov/idoc/facilities/Pages/Covid19Response.aspx,74,100,,,36,92,1292,,,,,,,,38,1464,12078 ILLINOIS ROUTE 185,62049,HILLSBORO,MONTGOMERY,39.12648969,-89.47493262,17135,10000674,
1424,federal,Illinois,GREENVILLE FCI,"December 16, 2020",https://www.bop.gov/coronavirus/,677,,0,0,607,47,,,,,1,,,,,,,,,,,,,,
508,state,Illinois,HILL,"December 16, 2020",https://www2.illinois.gov/idoc/facilities/Pages/Covid19Response.aspx,100,53,,,82,46,573,,,,,,,,18,1643,600 SOUTH LINWOOD ROAD,61401,GALESBURG,KNOX,40.93974548,-90.40695799,17095,10000653,
1477,state,Illinois,ILLINOIS RIVER,"December 16, 2020",https://www2.illinois.gov/idoc/facilities/Pages/Covid19Response.aspx,131,82,,,59,68,647,,,,,,,,72,1671,,,,,,,,,
,state,Illinois,JACKSONVILLEPWC,"December 16, 2020",https://www2.illinois.gov/idoc/facilities/Pages/Covid19Response.aspx,472,150,,,448,116,724,,,,,,,,24,,,,,,,,,,
,state,Illinois,JOLIET TC,"December 16, 2020",https://www2.illinois.gov/idoc/facilities/Pages/Covid19Response.aspx,6,60,,,3,56,228,,,,,,,,3,,,,,,,,,,
511,state,Illinois,KEWANEE LSRC,"December 16, 2020",https://www2.illinois.gov/idoc/facilities/Pages/Covid19Response.aspx,15,40,,,15,36,110,,,,,,,,0,,2021 KENTVILLE ROAD,61443,KEWANEE,HENRY,41.25333209,-89.89171233,17073,10004677,
1771,state,Illinois,LAWRENCE,"December 16, 2020",https://www2.illinois.gov/idoc/facilities/Pages/Covid19Response.aspx,455,141,,,245,109,1929,,,,,,,,210,2042,,,,,,,,,
1478,state,Illinois,LINCOLN,"December 16, 2020",https://www2.illinois.gov/idoc/facilities/Pages/Covid19Response.aspx,258,71,,,134,56,349,,,,,,,,124,964,,,,,,,,,
512,state,Illinois,LOGAN,"December 16, 2020",https://www2.illinois.gov/idoc/facilities/Pages/Covid19Response.aspx,355,150,,,195,125,2176,,,,,,,,158,1464,1096 1350TH STREET,62656,LINCOLN,LOGAN,40.1140649,-89.3881401,17107,10000665,
281,federal,Illinois,MARION USP,"December 16, 2020",https://www.bop.gov/coronavirus/,764,,2,0,657,37,,,,,0,,,,,1129,4500 PRISON ROAD,62959,MARION,WILLIAMSON,37.66315314,-88.98406132,17199,10000694,
513,state,Illinois,MENARD,"December 16, 2020",https://www2.illinois.gov/idoc/facilities/Pages/Covid19Response.aspx,177,238,,,166,207,956,,,,,,,,11,1765,711 KASKASKIA STREET,62259,MENARD,RANDOLPH,37.912685690000004,-89.84197817,17157,10000687,
1703,state,Illinois,MURPHYSBORO,"December 16, 2020",https://www2.illinois.gov/idoc/facilities/Pages/Covid19Response.aspx,4,19,,,2,10,2,,,,,,,,2,,,,,,,,,,
514,state,Illinois,NORTH LAWNDALE ATC,"December 16, 2020",https://www2.illinois.gov/idoc/facilities/Pages/Covid19Response.aspx,5,5,,,5,4,0,,,,,,,,0,,2839 WEST FILLMORE STREET,60612,CHICAGO,COOK,41.868038,-87.697785,17031,10000636,
1479,state,Illinois,PAROLE,"December 16, 2020",https://www2.illinois.gov/idoc/facilities/Pages/Covid19Response.aspx,0,35,,,0,32,0,,,,,,,,0,,,,,,,,,,
1432,federal,Illinois,PEKIN FCI,"December 16, 2020",https://www.bop.gov/coronavirus/,593,,0,0,302,36,,,,,1,,,,,,,,,,,,,,
1480,state,Illinois,PEORIA ATC,"December 16, 2020",https://www2.illinois.gov/idoc/facilities/Pages/Covid19Response.aspx,11,16,,,11,16,11,,,,,,,,0,244,,,,,,,,,
1481,state,Illinois,PINCKNEYVILLE,"December 16, 2020",https://www2.illinois.gov/idoc/facilities/Pages/Covid19Response.aspx,28,69,,,6,55,540,,,,,,,,22,1901,,,,,,,,,
515,state,Illinois,PONTIAC,"December 16, 2020",https://www2.illinois.gov/idoc/facilities/Pages/Covid19Response.aspx,254,266,,,249,236,383,,,,,,,,5,726,700 WEST LINCOLN STREET,61764,PONTIAC,LIVINGSTON,40.86928355,-88.63603689,17105,10000655,
1482,state,Illinois,ROBINSON,"December 16, 2020",https://www2.illinois.gov/idoc/facilities/Pages/Covid19Response.aspx,378,67,,,376,59,3940,,,,,,,,2,1121,,,,,,,,,
1803,state,Illinois,SHAWNEE,"December 16, 2020",https://www2.illinois.gov/idoc/facilities/Pages/Covid19Response.aspx,148,75,,,120,65,466,,,,,,,,28,1576,,,,,,,,,
516,state,Illinois,SHERIDAN,"December 16, 2020",https://www2.illinois.gov/idoc/facilities/Pages/Covid19Response.aspx,195,96,,,91,81,675,,,,,,,,104,1670,4017 EAST 2603 ROAD,60551,SHERIDAN,LA SALLE,41.51604912,-88.68465975,17099,10000652,
517,state,Illinois,SOUTHWESTERN IL,"December 16, 2020",https://www2.illinois.gov/idoc/facilities/Pages/Covid19Response.aspx,44,75,,,44,73,94,,,,,,,,0,,950 KINGSHIGHWAY ST,62203,EAST ST LOUIS,ST CLAIR,38.61691302,-90.0908182,17163,10000685,
518,state,Illinois,STATEVILLE,"December 16, 2020",https://www2.illinois.gov/idoc/facilities/Pages/Covid19Response.aspx,297,155,,,296,147,2388,,,,,,,,1,1157,16830 SOUTH BROADWAY STREET,60434,JOLIET,WILL,41.57873778,-88.09456267,17197,10000647,
519,state,Illinois,STATEVILLE NRC,"December 16, 2020",https://www2.illinois.gov/idoc/facilities/Pages/Covid19Response.aspx,220,108,,,207,98,4929,,,,,,,,13,,16830 SOUTH BROADWAY STREET,60434,JOLIET,WILL,41.57873778,-88.09456267,17197,10000647,
1483,state,Illinois,TAYLORVILLE,"December 16, 2020",https://www2.illinois.gov/idoc/facilities/Pages/Covid19Response.aspx,441,77,,,362,74,552,,,,,,,,79,1028,,,,,,,,,
339,federal,Illinois,THOMSON USP,"December 16, 2020",https://www.bop.gov/coronavirus/,459,,0,0,426,86,,,,,0,,,,,703,1100 ONE MILE ROAD,61285,THOMSON,CARROLL,41.97296619,-90.10929881,17015,10000633,
1804,state,Illinois,VANDALIA,"December 16, 2020",https://www2.illinois.gov/idoc/facilities/Pages/Covid19Response.aspx,479,84,,,303,61,968,,,,,,,,176,1068,,,,,,,,,
1484,state,Illinois,VIENNA,"December 16, 2020",https://www2.illinois.gov/idoc/facilities/Pages/Covid19Response.aspx,82,83,,,75,69,271,,,,,,,,7,920,,,,,,,,,
520,state,Illinois,WESTERN IL,"December 16, 2020",https://www2.illinois.gov/idoc/facilities/Pages/Covid19Response.aspx,76,83,,,71,76,501,,,,,,,,5,,2500 RT 99 SOUTH,62353,MOUNT STERLING,BROWN,39.96285696,-90.75396657,17009,10000667,
521,state,Indiana,BRANCHVILLE BTC,"December 16, 2020",https://www.in.gov/idoc/3780.htm,217,58,1,0,228,54,413,227,,,,,14,,,,21390 OLD STATE RD 37,47514,BRANCHVILLE,PERRY,38.15137828,-86.59980056,18123,10001075,
1485,state,Indiana,CENTRAL OFFICE,"December 16, 2020",https://www.in.gov/idoc/3780.htm,,22,,0,,18,,93,,,,,,,,,,,,,,,,,
523,state,Indiana,CHAIN OLAKES COL,"December 16, 2020",https://www.in.gov/idoc/3780.htm,44,4,0,0,1,0,72,11,,,,,52,,,,3516 E 75 SOUTH,46701,ALBION,NOBLE,41.33701028,-85.35310253,18113,10004895,
1622,federal,Indiana,COMMUNITY EDUCATION CENTERS IN,"December 16, 2020",https://www.bop.gov/coronavirus/,2,,0,0,1,0,,,,,0,,,,,,,,,,,,,,
524,state,Indiana,CORRECTIONAL INDUSTRIAL CIF,"December 16, 2020",https://www.in.gov/idoc/3780.htm,116,83,1,0,75,58,346,322,,,,,82,,,,5124 W REFORMATORY RD,46064,PENDLETON,MADISON,39.97598494,-85.77135909,18095,10001060,
526,state,Indiana,EDINBURGH JCU,"December 16, 2020",https://www.in.gov/idoc/3780.htm,16,22,0,0,15,18,82,78,,,,,1,,,,PO BOX 470 23RD  SCHOOLHOUSE RD,46124,EDINBURGH,JOHNSON,39.35145302,-86.0386027,18081,10004920,
527,state,Indiana,HERITAGE TRAIL CORRECTIONAL FACILITY,"December 16, 2020",https://www.in.gov/idoc/3780.htm,54,23,0,0,55,19,152,47,,,,,2,,,,,,,,,,18063,,
529,state,Indiana,INDIANA STATE PRISON ISP,"December 16, 2020",https://www.in.gov/idoc/3780.htm,72,100,2,0,72,93,292,372,,,,,0,,,,1 PARK ROW,46360,MICHIGAN CITY,LAPORTE,41.70343089,-86.9173169,18091,10005599,
530,state,Indiana,INDIANA WOMENS PRISON IWP,"December 16, 2020",https://www.in.gov/idoc/3780.htm,86,34,0,1,88,17,467,101,,,,,19,,,,2596 GIRLS SCHOOL ROAD,46214,INDIANAPOLIS,MARION,39.80094018,-86.29189795,18097,10001065,
532,state,Indiana,LAPORTE JUVENILE LPJ,"December 16, 2020",https://www.in.gov/idoc/3780.htm,0,9,0,0,0,8,43,40,,,,,4,,,,809 STATE ST,46350,LA PORTE,LAPORTE,41.61206231,-86.72292259,18091,10001053,
535,state,Indiana,LOGANSPORT LJCF,"December 16, 2020",https://www.in.gov/idoc/3780.htm,12,26,0,0,12,19,168,65,,,,,3,,,,1118 S STATE RD 25,46947,LOGANSPORT,CASS,40.74154606,-86.40152309,18017,10004903,
536,state,Indiana,MADISON MCU,"December 16, 2020",https://www.in.gov/idoc/3780.htm,2,17,0,0,0,13,158,181,,,,,82,,,,1130 MSH 4TH STREET,47250,MADISON,JEFFERSON,38.74778116,-85.40047051,18077,10006545,
537,state,Indiana,MIAMI MCF,"December 16, 2020",https://www.in.gov/idoc/3780.htm,199,78,5,0,192,56,721,161,,,,,22,,,,3038 W 850 S,46914,BUNKER HILL,MIAMI,40.6459301,-86.13530041,18103,10001059,
538,state,Indiana,NEW CASTLE NCCF,"December 16, 2020",https://www.in.gov/idoc/3780.htm,336,84,9,0,343,74,1020,261,,,,,10,,,,1000 VAN NUYS RD,47362,NEW CASTLE,HENRY,39.96237788,-85.37022541,18065,10004913,
539,state,Indiana,PENDLETON ISR,"December 16, 2020",https://www.in.gov/idoc/3780.htm,146,67,4,0,85,52,575,325,,,,,284,,,,4490 W REFORMATORY RD,46064,PENDLETON,MADISON,39.98338112,-85.76085702,18095,10001061,
540,state,Indiana,PENDLETON JUVENILE PNJ,"December 16, 2020",https://www.in.gov/idoc/3780.htm,49,49,0,0,36,40,214,197,,,,,61,,,,9310 S STATE RD 67,46064,PENDLETON,MADISON,39.96907067,-85.77458045,18095,10001062,
542,state,Indiana,PLAINFIELD IYC,"December 16, 2020",https://www.in.gov/idoc/3780.htm,134,86,8,0,136,79,436,345,,,,,46,,,,737 MOON RD,46168,PLAINFIELD,HENDRICKS,39.68899972,-86.41604046,18063,10001067,
543,state,Indiana,PUTNAMVILLE ISF,"December 16, 2020",https://www.in.gov/idoc/3780.htm,255,81,3,1,287,58,1310,469,,,,,8,,,,1946 W US HWY 40,46135,GREENCASTLE,PUTNAM,39.56503726,-86.88666488,18133,10001071,
544,state,Indiana,RECEPTION DIAGNOSTIC RDC,"December 16, 2020",https://www.in.gov/idoc/3780.htm,303,60,0,0,297,52,3396,236,,,,,242,,,,737 MOON RD,46168,PLAINFIELD,HENDRICKS,39.68899972,-86.41604046,18063,10001067,
545,state,Indiana,ROCKVILLE RTC,"December 16, 2020",https://www.in.gov/idoc/3780.htm,300,57,0,0,166,32,1048,239,,,,,182,,,,811 W 50 N,47872,ROCKVILLE,PARKE,39.77431571,-87.25434717,18121,10001063,
1834,state,Indiana,SOUTH BEND SBWC,"December 16, 2020",https://www.in.gov/idoc/3780.htm,27,5,0,0,25,4,212,21,,,,,47,,,,,,,,,,,,
333,federal,Indiana,TERRE HAUTE FCI,"December 16, 2020",https://www.bop.gov/coronavirus/,469,,2,0,299,49,,,,,2,,,,,,,,,,,,,,
1708,federal,Indiana,TERRE HAUTE USP,"December 16, 2020",https://www.bop.gov/coronavirus/,289,,2,0,120,7,,,,,157,,,,,1355,4700 BUREAU RD S,47802,TERRE HAUTE,VIGO,,,18167,10004923,
350,federal,Indiana,VOLUNEERS OF AMERICA INC RRC INDIANAPOLIS,"December 16, 2020",https://www.bop.gov/coronavirus/,24,,0,0,4,0,,,,,0,,,,,,,,,,,,,,
548,state,Indiana,WABASH VALLEY WVCF,"December 16, 2020",https://www.in.gov/idoc/3780.htm,251,160,1,1,244,125,921,580,,,,,85,,,,6908 S OLD US HWY 41,47838,CARLISLE,SULLIVAN,38.97792912,-87.40030287,18153,10001072,
550,state,Indiana,WESTVILLE WCC,"December 16, 2020",https://www.in.gov/idoc/3780.htm,269,152,6,0,274,133,740,531,,,,,28,,,,5501 S 1100 W,46391,WESTVILLE,LAPORTE,41.52575257,-86.90808495,18091,10001051,
551,state,Iowa,ANAMOSA,"December 16, 2020",https://doc.iowa.gov/COVID19,838,148,6,,824,147,,,,,,,,,,969,406 N HIGH ST,52205,ANAMOSA,JONES,42.11129071,-91.29127202,19105,10001082,
552,state,Iowa,CLARINDA,"December 16, 2020",https://doc.iowa.gov/COVID19,597,56,1,,596,56,,,,,,,,,,987,2000 NORTH 16TH STREET,51632,CLARINDA,PAGE,40.76249094,-95.03582563,19145,10001099,
553,state,Iowa,FORT DODGE,"December 16, 2020",https://doc.iowa.gov/COVID19,484,81,3,,458,69,,,,,,,,,,1252,1550 L STREET,50501,FORT DODGE,WEBSTER,42.48489252,-94.19609253,19187,10001077,
554,state,Iowa,ICIW,"December 16, 2020",https://doc.iowa.gov/COVID19,13,33,0,,13,33,,,,,,,,,,,420 MILL STREET SOUTHWEST,50169,MITCHELLVILLE,POLK,41.66299579,-93.3661037,19153,10001087,
555,state,Iowa,IMCC,"December 16, 2020",https://doc.iowa.gov/COVID19,398,75,1,,398,70,,,,,,,,,,,2700 CORAL RIDGE AVE,52241,CORALVILLE,JOHNSON,41.71369597,-91.61182585,19103,10001091,
556,state,Iowa,ISP,"December 16, 2020",https://doc.iowa.gov/COVID19,225,85,1,,199,63,,,,,,,,,,,2111 330TH AVENUE,52627,FORT MADISON,LEE,40.65361883,-91.30326789,19111,10001100,
557,state,Iowa,MT PLEASANT,"December 16, 2020",https://doc.iowa.gov/COVID19,695,40,0,,661,35,,,,,,,,,,,1200 EAST WASHINGTON STREET,52641,MOUNT PLEASANT,HENRY,40.95581384,-91.53617358,19087,10001096,
558,state,Iowa,NEWTON,"December 16, 2020",https://doc.iowa.gov/COVID19,93,28,0,,72,25,,,,,,,,,,,307 SOUTH 60TH AVENUE WEST,50208,NEWTON,JASPER,41.627170219999996,-93.05696851,19099,10001090,
559,state,Iowa,NORTH CENTRAL,"December 16, 2020",https://doc.iowa.gov/COVID19,389,32,0,,388,32,,,,,,,,,,,313 LANEDALE,50579,ROCKWELL CITY,CALHOUN,42.39222762,-94.60437667,19025,10001080,
1772,county,Iowa,POLK COUNTY JAIL,"December 16, 2020",https://www.polkcountyiowa.gov/county-sheriff/news-press-releases/covid-19-quick-stats/,1,2,,,,,2049,299,,,,,,,,,,,,,,,,,
561,state,Kansas,EL DORADO,"December 16, 2020",https://www.doc.ks.gov/kdoc-coronavirus-updates/kdoc-covid-19-status,844,168,,,,,,,,,,,,,,,1737 SOUTHEAST UNITED STATES HIGHWAY 54,67042,EL DORADO,BUTLER,37.80325673,-96.81713261,20015,10001045,
562,state,Kansas,ELLSWORTH,"December 16, 2020",https://www.doc.ks.gov/kdoc-coronavirus-updates/kdoc-covid-19-status,527,81,,,,,,,,,,,,,,,1607 STATE STREET,67439,ELLSWORTH,ELLSWORTH,38.74301147,-98.23215008,20053,10001040,
256,federal,Kansas,GEO REENTRY INC RRC LEAVENWORTH,"December 16, 2020",https://www.bop.gov/coronavirus/,29,,0,0,29,0,,,,,0,,,,,,,,,,,,20103,,
563,state,Kansas,HUTCHINSON,"December 16, 2020",https://www.doc.ks.gov/kdoc-coronavirus-updates/kdoc-covid-19-status,1353,219,,,,,,,,,,,,,,,500 REFORMATORY STREET,67504,HUTCHINSON,RENO,38.04458476,-97.91073579,20155,10001043,
564,state,Kansas,KJCC,"December 16, 2020",https://www.doc.ks.gov/kdoc-coronavirus-updates/kdoc-covid-19-status,19,56,,,,,,,,,,,,,,,1430 NORTHWEST 25TH STREET,66618,TOPEKA,SHAWNEE,39.09678729,-95.68423367,20177,10001034,
565,state,Kansas,LANSING,"December 16, 2020",https://www.doc.ks.gov/kdoc-coronavirus-updates/kdoc-covid-19-status,989,145,,,,,,,,,,,,,,,301 EAST KANSAS AVE,66043,LANSING,LEAVENWORTH,39.25190411,-94.89130455,20103,10001030,
566,state,Kansas,LARNED,"December 16, 2020",https://www.doc.ks.gov/kdoc-coronavirus-updates/kdoc-covid-19-status,352,63,,,,,,,,,,,,,,,1318 STATE HIGHWAY 264,67550,LARNED,PAWNEE,38.17710787,-99.15101294,20145,10001830,
275,federal,Kansas,LEAVENWORTH USP,"December 16, 2020",https://www.bop.gov/coronavirus/,537,,0,0,548,5,,,,,0,,,,,1360,1300 METROPOLITAN AVENUE,66048,LEAVENWORTH,LEAVENWORTH,39.33105504,-94.93580759,20103,10001029,
567,state,Kansas,NORTON,"December 16, 2020",https://www.doc.ks.gov/kdoc-coronavirus-updates/kdoc-covid-19-status,688,109,,,,,,,,,,,,,,,ROAD EAST 4 AND UNITED STATES HIGHWAY 36,67654,NORTON,NORTON,39.84416321,-99.81637284,20137,10001028,
,state,Kansas,OUT OF STATE,"December 16, 2020",https://www.doc.ks.gov/kdoc-coronavirus-updates/kdoc-covid-19-status,85,,,,,,,,,,,,,,,,,,,,,,,,
568,state,Kansas,STATEWIDE,"December 16, 2020",https://www.kansas_statewide.gov/corrections/sites/kansas_statewide.gov.corrections/files/inline-files/MDOC%20COVID19WebDashboard11-9-2020.pdf,,,11,3,,,,,,,,,,,,,,,,,,,,,
569,state,Kansas,TOPEKA,"December 16, 2020",https://www.doc.ks.gov/kdoc-coronavirus-updates/kdoc-covid-19-status,44,58,,,,,,,,,,,,,,,815 SOUTHEAST RICE ROAD,66607,TOPEKA,SHAWNEE,39.04069275,-95.6254707,20177,10001033,
570,state,Kansas,WICHITA WORK RELEASE,"December 16, 2020",https://www.doc.ks.gov/kdoc-coronavirus-updates/kdoc-covid-19-status,81,17,,,,,,,,,,,,,,,401 SOUTH EMPORIA STREET,67202,WICHITA,SEDGWICK,37.68209659,-97.33329523,20173,10001048,
571,state,Kansas,WINFIELD,"December 16, 2020",https://www.doc.ks.gov/kdoc-coronavirus-updates/kdoc-covid-19-status,193,38,,,,,,,,,,,,,,,1806 PINECREST CIRCLE,67156,WINFIELD,COWLEY,37.26426587,-96.97365125,20035,10001050,
1397,federal,Kentucky,ASHLAND FCI,"December 16, 2020",https://www.bop.gov/coronavirus/,334,,4,0,281,19,,,,,0,,,,,,,,,,,,,,
572,state,Kentucky,BELL COUNTY FORESTRY CAMP,"December 16, 2020",https://corrections.ky.gov/Facilities/Pages/covid19.aspx,187,19,0,0,,,,,,,,,,,0,300,560 CORRECTIONAL DR,40977,PINEVILLE,BELL,36.6689938,-83.85169233,21013,10000122,
1403,federal,Kentucky,BIG SANDY USP,"December 16, 2020",https://www.bop.gov/coronavirus/,85,,0,0,56,69,,,,,21,,,,,,,,,,,,,,
573,state,Kentucky,BLACKBURN CORRECTIONAL COMPLEX,"December 16, 2020",https://corrections.ky.gov/Facilities/Pages/covid19.aspx,215,29,0,0,,,,,,,,,,,25,,3111 SPURR RD,40511,LEXINGTON,FAYETTE,38.11315935,-84.53720452,21067,10003650,
212,federal,Kentucky,DISMAS CHARITIES INC RRC LEXINGTON,"December 16, 2020",https://www.bop.gov/coronavirus/,1,,0,0,1,0,,,,,0,,,,,,,,,,,,,,
215,federal,Kentucky,DISMAS OF MANCHESTER RRC,"December 16, 2020",https://www.bop.gov/coronavirus/,1,,0,0,0,0,,,,,0,,,,,,,,,,,,,,
574,state,Kentucky,EASTERN KENTUCKY CORRECTIONAL COMPLEX,"December 16, 2020",https://corrections.ky.gov/Facilities/Pages/covid19.aspx,0,40,0,0,,,,,,,,,,,0,,200 ROAD TO JUSTICE,41472,WEST LIBERTY,MORGAN,37.90388911,-83.26930995,21175,10000110,
