ID,jurisdiction,State,Name,Date,source,Residents.Confirmed,Staff.Confirmed,Residents.Deaths,Staff.Deaths,Residents.Recovered,Staff.Recovered,Residents.Tadmin,Staff.Tested,Residents.Negative,Staff.Negative,Residents.Pending,Staff.Pending,Residents.Quarantine,Staff.Quarantine,Residents.Active,Residents.Population,Address,Zipcode,City,County,Latitude,Longitude,County.FIPS,hifld_id,Notes
1865,state,Alabama,ADOC HEADQUARTERS,2020-12-25,http://www.doc.alabama.gov/covid19news,0,41,0,0,0,28,,,,,0,,,,,,,,,,,,,,
1866,state,Alabama,ALABAMA CORRECTIONS ACADEMY,2020-12-25,http://www.doc.alabama.gov/covid19news,0,18,0,0,0,14,,,,,0,,,,,,,,,,,,,,
1,state,Alabama,ALEX CITY,2020-12-25,http://www.doc.alabama.gov/covid19news,1,7,0,0,1,6,,,,,0,,,,,201,HIGHWAY 22 WEST,35011,ALEX CITY,COOSA,32.90447114,-86.00896897,1037,10003721,
159,federal,Alabama,ALICEVILLE FCI,2020-12-25,https://www.bop.gov/coronavirus/,56,,0,0,47,9,,,,,4,,,,,1267,11070 HIGHWAY 14,35442,ALICEVILLE,PICKENS,33.17626974,-88.19304609,10107,10006173,
2,state,Alabama,ATEF,2020-12-25,http://www.doc.alabama.gov/covid19news,6,2,0,0,4,2,,,,,1,,,,,281,102 INDUSTRIAL PARKWAY,35051,COLUMBIANA,SHELBY,33.18100499,-86.62401724,1117,10006524,
3,state,Alabama,BIBB,2020-12-25,http://www.doc.alabama.gov/covid19news,163,48,3,0,157,18,,,,,0,,,,,1808,565 BIBB LANE,35034,BRENT,BIBB,32.92242,-87.16458,1007,10001954,
4,state,Alabama,BIRMINGHAM,2020-12-25,http://www.doc.alabama.gov/covid19news,17,28,0,0,16,22,,,,,0,,,,,239,1216 25TH ST N,35234,BIRMINGHAM,JEFFERSON,33.53104632,-86.80836181,1073,10001204,
5,state,Alabama,BULLOCK,2020-12-25,http://www.doc.alabama.gov/covid19news,71,50,2,0,66,35,,,,,242,,,,,1343,104 BULLOCK DR,36089,UNION SPRINGS,BULLOCK,32.14940285,-85.67232013,1011,10001223,
6,state,Alabama,CAMDEN,2020-12-25,http://www.doc.alabama.gov/covid19news,0,2,0,0,0,1,,,,,0,,,,,93,1780 ALABAMA HWY 221,36726,CAMDEN,WILCOX,31.99483708,-87.33312321,1131,10000142,
7,state,Alabama,CHILDERSBURG,2020-12-25,http://www.doc.alabama.gov/covid19news,5,14,0,0,5,8,,,,,0,,,,,368,13501 PLANT RD,35014,ALPINE,TALLADEGA,33.36493323,-86.33219762,1121,10001209,
9,state,Alabama,DONALDSON,2020-12-25,http://www.doc.alabama.gov/covid19news,27,26,2,0,11,6,,,,,2,,,,,1386,100 WARRIOR LN,35023,BESSEMER,JEFFERSON,33.51366663,-87.18478369,1073,10000132,
1376,state,Alabama,DRAPER QIF,2020-12-25,http://www.doc.alabama.gov/covid19news,83,0,0,0,82,0,,,,,2,,,,,,,,,,,,,,
10,state,Alabama,EASTERLING,2020-12-25,http://www.doc.alabama.gov/covid19news,56,28,1,0,55,14,,,,,0,,,,,1229,200 WALLACE DR,36017,CLIO,BARBOUR,31.68938149,-85.58555889,1005,10000144,
11,state,Alabama,ELBA,2020-12-25,http://www.doc.alabama.gov/covid19news,1,8,0,0,1,2,,,,,0,,,,,130,1620 BOSWELL ST,36323,ELBA,COFFEE,31.41312386,-86.08373748,1031,10001226,
12,state,Alabama,ELMORE,2020-12-25,http://www.doc.alabama.gov/covid19news,27,18,0,0,27,18,,,,,0,,,,,1161,3520 MARION SPILLWAY ROAD,36025,ELMORE,ELMORE,32.57430479,-86.32080582,1051,10001214,
13,state,Alabama,FOUNTAIN,2020-12-25,http://www.doc.alabama.gov/covid19news,20,35,1,0,19,28,,,,,0,,,,,1136,9677 AL HWY 21 N,36503,ATMORE,ESCAMBIA,31.15658,-87.46372,1053,10001957,
14,state,Alabama,FRANK LEE,2020-12-25,http://www.doc.alabama.gov/covid19news,3,17,0,0,1,9,,,,,0,,,,,285,5305 INGRAM RD,36022,DEATSVILLE,ELMORE,32.58235451,-86.39221844,1051,10003728,
15,state,Alabama,HAMILTON A I,2020-12-25,http://www.doc.alabama.gov/covid19news,44,37,12,0,27,22,,,,,0,,,,,243,223 SASSER DR,35570,HAMILTON,MARION,34.12434611,-87.99171938,1093,10001197,
16,state,Alabama,HAMILTON CBF,2020-12-25,http://www.doc.alabama.gov/covid19news,8,21,2,0,6,2,,,,,0,,,,,220,1826 BEXAR AVE E,35570,HAMILTON,MARION,34.14329559,-87.95895958,1093,10001199,
17,state,Alabama,HOLMAN,2020-12-25,http://www.doc.alabama.gov/covid19news,37,26,1,0,34,23,,,,,4,,,,,700,866 ROSS RD,36503,ATMORE,ESCAMBIA,31.13438612,-87.4498642,1053,10000149,
18,state,Alabama,KILBY,2020-12-25,http://www.doc.alabama.gov/covid19news,10,37,1,0,9,37,,,,,0,,,,,1231,12201 WARES FERRY RD,36117,MONTGOMERY,MONTGOMERY,32.38835654,-86.1009811,1101,10001221,
19,state,Alabama,LIMESTONE,2020-12-25,http://www.doc.alabama.gov/covid19news,132,82,4,0,107,30,,,,,2,,,,,2107,28779 NICK DAVIS RD,35749,HARVEST,LIMESTONE,34.81254392,-86.80413307,1083,10000129,
20,state,Alabama,LOXLEY,2020-12-25,http://www.doc.alabama.gov/covid19news,106,14,0,0,106,14,,,,,0,,,,,356,14880 COUNTY RD 64,36551,LOXLEY,BALDWIN,30.6153358,-87.77030984,1003,10000146,
21,state,Alabama,MOBILE,2020-12-25,http://www.doc.alabama.gov/covid19news,0,7,0,0,0,6,,,,,0,,,,,192,2423 N BELTLINE HWY,36610,PRITCHARD,MOBILE,30.73788106,-88.10905742,1097,10000150,
293,federal,Alabama,MONTGOMERY FPC,2020-12-25,https://www.bop.gov/coronavirus/,75,,0,0,11,2,,,,,1,,,,,858,MAXWELL AIR FORCE BASE,36112,MONTGOMERY,MONTGOMERY,32.39424124,-86.35915818,1101,10000141,
22,state,Alabama,MONTGOMERY WF,2020-12-25,http://www.doc.alabama.gov/covid19news,1,10,0,0,1,5,,,,,0,,,,,274,12085 WARES FERRY RD,36117,MONTGOMERY,MONTGOMERY,,,1101,10001222,
23,state,Alabama,NORTH ALABAMA,2020-12-25,http://www.doc.alabama.gov/covid19news,85,27,0,0,85,25,,,,,0,,,,,555,1401 STATE HIGHWAY 20 WEST,35601,DECATUR,MORGAN,34.61756728,-87.00562813,1103,10003698,
24,state,Alabama,RED EAGLE,2020-12-25,http://www.doc.alabama.gov/covid19news,0,3,0,0,0,1,,,,,0,,,,,333,1290 RED EAGLE RD,36110,MONTGOMERY,MONTGOMERY,32.46559439,-86.23690422,1101,10001218,
1650,federal,Alabama,RRC BIRMINGHAM ALABAMA,2020-12-25,https://www.bop.gov/coronavirus/,2,,0,0,0,0,,,,,0,,,,,,,,,,,,,,
1439,federal,Alabama,RRC SPANISH FORT ALABAMA,2020-12-25,https://www.bop.gov/coronavirus/,0,,,,,,,,,,1,,,,,,,,,,,,,,
25,state,Alabama,ST CLAIR,2020-12-25,http://www.doc.alabama.gov/covid19news,103,51,16,0,85,39,,,,,0,,,,,964,1000 SAINT CLAIR ROAD,35146,SPRINGVILLE,ST CLAIR,33.74558817,-86.38437373,1115,10003710,
27,state,Alabama,STATON,2020-12-25,http://www.doc.alabama.gov/covid19news,43,53,7,0,34,35,,,,,0,,,,,1303,2690 MARION SPILLWAY RD,36025,ELMORE,ELMORE,32.577215700000004,-86.33248852,1051,10000140,
330,federal,Alabama,TALLADEGA FCI,2020-12-25,https://www.bop.gov/coronavirus/,221,,2,0,177,9,,,,,0,,,,,793,565 EAST RENFROE ROAD,35160,TALLADEGA,TALLADEGA,33.42063528,-86.14008892,1121,10000136,
1864,state,Alabama,TUTWILER PRISON FOR WOMEN,2020-12-25,http://www.doc.alabama.gov/covid19news,16,53,1,2,15,42,,,,,0,,,,,,,,,,,,,,
1377,state,Alabama,TUTWILER QIF,2020-12-25,http://www.doc.alabama.gov/covid19news,12,0,0,0,9,0,,,,,0,,,,,,,,,,,,,,
29,state,Alabama,VENTRESS,2020-12-25,http://www.doc.alabama.gov/covid19news,17,32,1,0,16,26,,,,,0,,,,,1245,379 ALABAMA HWY 239 N,36016,CLAYTON,BARBOUR,31.88902864,-85.49299808,1005,10000143,
33,state,Alaska,STATEWIDE,2020-12-25,https://doc.alaska.gov/covid-19,1905,,,,,,15668,,12457,,950,,,,,,,,,,,,,,
169,federal,Arizona,BEHAVIORAL SYSTEMS SOUTHWEST INC RRC PHOENIX,2020-12-25,https://www.bop.gov/coronavirus/,5,,1,0,4,0,,,,,0,,,,,,2846 E ROOSEVELT ST,85008,PHOENIX,,33.4588091,-112.0198483,4013,,
34,state,Arizona,CACF,2020-12-25,https://corrections.az.gov/adcrr-covid-19-dashboard?order=title_field&sort=asc,67,,3,,64,,,,1134,,0,,,,,1273,1401 E DIVERSION DAM RD,85132,FLORENCE,PINAL,33.03731012,-111.3727528,4021,10000618,
1621,federal,Arizona,CENTRAL AZ DETENTION CENTER,2020-12-25,https://www.bop.gov/coronavirus/,1,,0,0,1,0,,,,,0,,,,,,,,,,,,,,
35,state,Arizona,DOUGLAS,2020-12-25,https://corrections.az.gov/adcrr-covid-19-dashboard?order=title_field&sort=asc,853,,0,,805,,,,1252,,0,,,,,2086,6911 N BDI BLVD,85607,DOUGLAS,COCHISE,31.46242829,-109.5912299,4003,10000632,
37,state,Arizona,EYMAN,2020-12-25,https://corrections.az.gov/adcrr-covid-19-dashboard?order=title_field&sort=asc,984,,1,,415,,,,4404,,0,,,,,5693,4374 E BUTTE AVE,85132,FLORENCE,PINAL,33.03691871,-111.3264441,4021,10000615,
38,state,Arizona,FLORENCE,2020-12-25,https://corrections.az.gov/adcrr-covid-19-dashboard?order=title_field&sort=asc,304,,12,,278,,,,2902,,0,,,,,3924,1305 E BUTTE AVE,85132,FLORENCE,PINAL,33.02816949,-111.3707281,4021,10003976,
40,state,Arizona,FLORENCE WEST,2020-12-25,https://corrections.az.gov/adcrr-covid-19-dashboard?order=title_field&sort=asc,0,,0,,0,,,,478,,0,,,,,742,915 EAST DIVERSION DAM ROAD,85132,FLORENCE,PINAL,33.037233,-111.376527,4021,10006312,
41,state,Arizona,KINGMAN,2020-12-25,https://corrections.az.gov/adcrr-covid-19-dashboard?order=title_field&sort=asc,57,,1,,54,,,,2629,,0,,,,,3360,4626 WEST ENGLISH DRIVE,86414,GOLDEN VALLEY,MOHAVE,35.02891497,-114.1796097,4015,10003957,
42,state,Arizona,LEWIS,2020-12-25,https://corrections.az.gov/adcrr-covid-19-dashboard?order=title_field&sort=asc,562,,2,,291,,,,3647,,0,,,,,4623,26700 S HWY 85,85326,BUCKEYE,MARICOPA,33.2085241,-112.6514629,4013,10000605,
43,state,Arizona,MARANA,2020-12-25,https://corrections.az.gov/adcrr-covid-19-dashboard?order=title_field&sort=asc,9,,0,,8,,,,331,,0,,,,,487,12610 W SILVERBELL RD,85653,MARANA,PIMA,32.41791032,-111.2412161,4019,10000626,
1733,county,Arizona,MARICOPA COUNTY JAIL,2020-12-25,https://www.maricopa.gov/5574/COVID-19-in-County-Jails,1830,,0,,637,,22283,,20356,,97,,,,,,,,,,,,,,
45,state,Arizona,MRC,2020-12-25,https://corrections.az.gov/adcrr-covid-19-dashboard?order=title_field&sort=asc,0,,0,,0,,,,0,,0,,,,,62,24601 N 29TH AVE,85027,PHOENIX,MARICOPA,33.70669655,-112.1194385,4013,10002246,
46,state,Arizona,PERRYVILLE,2020-12-25,https://corrections.az.gov/adcrr-covid-19-dashboard?order=title_field&sort=asc,130,,0,,114,,,,4249,,0,,,,,4336,2105 N CITRUS RD,85395,GOODYEAR,MARICOPA,33.47038654,-112.4377658,4013,10000606,
47,state,Arizona,PHOENIX,2020-12-25,https://corrections.az.gov/adcrr-covid-19-dashboard?order=title_field&sort=asc,454,,0,,385,,,,3510,,0,,,,,544,2500 E VAN BUREN ST,85008,PHOENIX,MARICOPA,33.45312989,-112.0250399,4013,10002245,
1435,federal,Arizona,PHOENIX FCI,2020-12-25,https://www.bop.gov/coronavirus/,357,,0,0,92,24,,,,,225,,,,,,,,,,,,,,
48,state,Arizona,PHOENIX WEST,2020-12-25,https://corrections.az.gov/adcrr-covid-19-dashboard?order=title_field&sort=asc,22,,0,,4,,,,345,,0,,,,,498,3402 W COCOPAH ST,85009,PHOENIX,MARICOPA,33.43277711,-112.1326085,4013,10002244,
49,state,Arizona,PRC,2020-12-25,https://corrections.az.gov/adcrr-covid-19-dashboard?order=title_field&sort=asc,0,,0,,0,,,,0,,0,,,,,72,1275 W STARR PASS BLVD,85713,TUCSON,PIMA,32.2037634,-110.9909333,4019,10000630,
50,state,Arizona,RED ROCK,2020-12-25,https://corrections.az.gov/adcrr-covid-19-dashboard?order=title_field&sort=asc,95,,0,,75,,,,1574,,0,,,,,1956,1750 EAST ARICA ROAD,85131,ELOY,PINAL,32.81056,-111.5196,4021,10003974,
51,state,Arizona,SAFFORD,2020-12-25,https://corrections.az.gov/adcrr-covid-19-dashboard?order=title_field&sort=asc,18,,0,,13,,,,1418,,0,,,,,1579,896 S COOK RD,85546,SAFFORD,GRAHAM,32.82810149,-109.5636396,4009,10002248,
1440,federal,Arizona,SAFFORD FCI,2020-12-25,https://www.bop.gov/coronavirus/,232,,0,0,10,2,,,,,136,,,,,,,,,,,,,,
52,state,Arizona,STATEWIDE,2020-12-25,https://corrections.az.gov/adcrr-covid-19-dashboard?order=title_field&sort=asc,,1709,,,,1385,,,,,,,,,,,,,,,,,,,
53,state,Arizona,TUCSON,2020-12-25,https://corrections.az.gov/adcrr-covid-19-dashboard?order=title_field&sort=asc,1516,,11,,1268,,,,3920,,0,,,,,5077,10000 S WILMOT RD,85734,TUCSON,PIMA,32.06640097,-110.8663122,4019,10000628,
341,federal,Arizona,TUCSON FCI,2020-12-25,https://www.bop.gov/coronavirus/,155,,0,0,140,14,,,,,0,,,,,630,8901 S WILMOT RD,85706,TUCSON,PIMA,32.08957049,-110.8562398,4019,10000624,
342,federal,Arizona,TUCSON USP,2020-12-25,https://www.bop.gov/coronavirus/,663,,8,0,624,22,,,,,5,,,,,1385,9300 S WILMOT RD,85756,TUCSON,PIMA,32.08384226,-110.867108,4019,10000627,
54,state,Arizona,WINSLOW,2020-12-25,https://corrections.az.gov/adcrr-covid-19-dashboard?order=title_field&sort=asc,118,,0,,115,,,,1171,,0,,,,,1295,2100 S HWY 87,86047,WINSLOW,NAVAJO,34.98471625,-110.7210891,4017,10000595,
55,state,Arizona,YUMA,2020-12-25,https://corrections.az.gov/adcrr-covid-19-dashboard?order=title_field&sort=asc,1199,,4,,773,,,,3396,,0,,,,,4876,7125 E CESAR CHAVEZ BLVD,85349,SAN LUIS,YUMA,32.48750181,-114.6397153,4027,10000622,
1408,federal,Arkansas,CITY FAITH LITTLE ROCK AR,2020-12-25,https://www.bop.gov/coronavirus/,1,,0,0,1,0,,,,,0,,,,,,,,,,,,,,
248,federal,Arkansas,FORREST CITY LOW FCI,2020-12-25,https://www.bop.gov/coronavirus/,672,,0,0,603,4,,,,,2,,,,,1821,1400 DALE BUMPERS ROAD,72335,FORREST CITY,ST FRANCIS,34.98233926,-90.80306156,5123,10003614,
249,federal,Arkansas,FORREST CITY MEDIUM FCI,2020-12-25,https://www.bop.gov/coronavirus/,321,,0,0,113,5,,,,,3,,,,,1821,1400 DALE BUMPERS ROAD,72335,FORREST CITY,ST FRANCIS,34.98233926,-90.80306156,5123,10003614,
57,state,Arkansas,STATEWIDE,2020-12-25,https://doc.arkansas.gov/covid-19-updates/,9186,,,,8763,,,,,,,,,,423,,,,,,,,,,
58,state,California,ASP AVENAL STATE PRISON,2020-12-25,https://www.cdcr.ca.gov/covid19/cdcr-cchcs-covid-19-status/; https://www.cdcr.ca.gov/covid19/updates/,3075,438,8,,2905,385,,,,,,,,,80,4204,1 KINGS WAY,93204,AVENAL,KINGS,35.97394934,-120.1231018,6031,10000826,
1398,federal,California,ATWATER USP,2020-12-25,https://www.bop.gov/coronavirus/,97,,0,0,17,13,,,,,345,,,,,,,,,,,,,,
171,federal,California,BRAWLEY RRC,2020-12-25,https://www.bop.gov/coronavirus/,11,,1,0,9,0,,,,,0,,,,,,,,,,,,,,
59,state,California,CAC CALIFORNIA CITY CORRECTIONAL FACILITY,2020-12-25,https://www.cdcr.ca.gov/covid19/cdcr-cchcs-covid-19-status/; https://www.cdcr.ca.gov/covid19/updates/,656,177,0,,364,58,,,,,,,,,288,2424,22844 VIRGINIA BLVD,93505,CALIFORNIA CITY,KERN,35.1532512,-117.8588801,6029,10000852,
60,state,California,CAL CALIPATRIA STATE PRISON,2020-12-25,https://www.cdcr.ca.gov/covid19/cdcr-cchcs-covid-19-status/; https://www.cdcr.ca.gov/covid19/updates/,507,266,0,,274,206,,,,,,,,,223,3109,7018 BLAIR ROAD,92233,CALIPATRIA,IMPERIAL,33.16569337,-115.484344,6025,10002347,
,state,California,CALIFORNIA HEALTH CARE FACILITY CHCF STOCKTON,2020-12-25,https://www.cdcr.ca.gov/covid19/cdcr-cchcs-covid-19-status/,,427,,,,182,,,,,,,,,,,,,,,,,,,
,state,California,CALIFORNIA SUBSTANCE ABUSE TREATMENT FACILITY AND STATE PRISON CORCORAN SATF-CSP CORCORAN,2020-12-25,https://www.cdcr.ca.gov/covid19/cdcr-cchcs-covid-19-status/,,469,,,,395,,,,,,,,,,,,,,,,,,,
61,state,California,CCC CALIFORNIA CORRECTIONAL CENTER,2020-12-25,https://www.cdcr.ca.gov/covid19/cdcr-cchcs-covid-19-status/; https://www.cdcr.ca.gov/covid19/updates/,884,199,0,,694,96,,,,,,,,,154,4049,711-045 CENTER ROAD,96127,SUSANVILLE,LASSEN,40.40195801,-120.5167302,6035,10000773,
62,state,California,CCI CALIFORNIA CORRECTIONAL INSTITUTION,2020-12-25,https://www.cdcr.ca.gov/covid19/cdcr-cchcs-covid-19-status/; https://www.cdcr.ca.gov/covid19/updates/,1185,486,0,,880,319,,,,,,,,,236,3696,24900 HWY 202,93561,TEHACHAPI,KERN,35.10991489,-118.5703307,6029,10001530,
63,state,California,CCWF CENTRAL CA WOMENS FACILITY,2020-12-25,https://www.cdcr.ca.gov/covid19/cdcr-cchcs-covid-19-status/; https://www.cdcr.ca.gov/covid19/updates/,110,174,0,,22,114,,,,,,,,,87,2814,23370 ROAD 22,93610,CHOWCHILLA,MADERA,37.09368073,-120.1527098,6039,10000801,
1739,state,California,CDCR CCHCS WORKSITE LOCATION FRESNO COUNTY,2020-12-25,https://www.cdcr.ca.gov/covid19/cdcr-cchcs-covid-19-status/,,10,,,,3,,,,,,,,,,,,,,,,,,,
1738,state,California,CDCR CCHCS WORKSITE LOCATION IMPERIAL COUNTY,2020-12-25,https://www.cdcr.ca.gov/covid19/cdcr-cchcs-covid-19-status/,,7,,,,1,,,,,,,,,,,,,,,,,,,
1644,state,California,CDCR CCHCS WORKSITE LOCATION KERN COUNTY,2020-12-25,https://www.cdcr.ca.gov/covid19/cdcr-cchcs-covid-19-status/,,19,,,,6,,,,,,,,,,,,,,,,,,,
101,state,California,CDCR CCHCS WORKSITE LOCATION LOS ANGELES COUNTY,2020-12-25,https://www.cdcr.ca.gov/covid19/cdcr-cchcs-covid-19-status/,,55,,,,18,,,,,,,,,,,,,,,,,6037,,
1737,state,California,CDCR CCHCS WORKSITE LOCATION MENDOCINO COUNTY,2020-12-25,https://www.cdcr.ca.gov/covid19/cdcr-cchcs-covid-19-status/,,2,,,,2,,,,,,,,,,,,,,,,,,,
1681,state,California,CDCR CCHCS WORKSITE LOCATION MONTEREY COUNTY,2020-12-25,https://www.cdcr.ca.gov/covid19/cdcr-cchcs-covid-19-status/,,3,,,,2,,,,,,,,,,,,,,,,,,,
1736,state,California,CDCR CCHCS WORKSITE LOCATION ORANGE COUNTY,2020-12-25,https://www.cdcr.ca.gov/covid19/cdcr-cchcs-covid-19-status/,,7,,,,4,,,,,,,,,,,,,,,,,,,
1735,state,California,CDCR CCHCS WORKSITE LOCATION SAN LUIS OBISPO COUNTY,2020-12-25,https://www.cdcr.ca.gov/covid19/cdcr-cchcs-covid-19-status/,,0,,,,0,,,,,,,,,,,,,,,,,,,
1682,state,California,CDCR CCHCS WORKSITE LOCATION SANTA BARBARA COUNTY,2020-12-25,https://www.cdcr.ca.gov/covid19/cdcr-cchcs-covid-19-status/,,2,,,,1,,,,,,,,,,,,,,,,,,,
1734,state,California,CDCR CCHCS WORKSITE LOCATION SANTA CLARA COUNTY,2020-12-25,https://www.cdcr.ca.gov/covid19/cdcr-cchcs-covid-19-status/,,3,,,,1,,,,,,,,,,,,,,,,,,,
1683,state,California,CDCR CCHCS WORKSITE LOCATION SOLANO COUNTY,2020-12-25,https://www.cdcr.ca.gov/covid19/cdcr-cchcs-covid-19-status/,,3,,,,2,,,,,,,,,,,,,,,,,,,
1684,state,California,CDCR CCHCS WORKSITE LOCATION STANISLAUS COUNTY,2020-12-25,https://www.cdcr.ca.gov/covid19/cdcr-cchcs-covid-19-status/,,1,,,,1,,,,,,,,,,,,,,,,,,,
1685,state,California,CDCR CCHCS WORKSITE LOCATION TULARE COUNTY,2020-12-25,https://www.cdcr.ca.gov/covid19/cdcr-cchcs-covid-19-status/,,1,,,,1,,,,,,,,,,,,,,,,,,,
1686,state,California,CDCR CCHCS WORKSITE LOCATION VENTURA COUNTY,2020-12-25,https://www.cdcr.ca.gov/covid19/cdcr-cchcs-covid-19-status/,,4,,,,3,,,,,,,,,,,,,,,,,,,
102,state,California,CDCR CCHCS WORKSITE RIVERSIDE COUNTY,2020-12-25,https://www.cdcr.ca.gov/covid19/cdcr-cchcs-covid-19-status/,,11,,,,3,,,,,,,,,,,,,,,,,6065,,
103,state,California,CDCR CCHCS WORKSITE SACRAMENTO COUNTY,2020-12-25,https://www.cdcr.ca.gov/covid19/cdcr-cchcs-covid-19-status/,,146,,,,57,,,,,,,,,,,,,,,,,6067,,
104,state,California,CDCR CCHCS WORKSITE SAN BERNARDINO COUNTY,2020-12-25,https://www.cdcr.ca.gov/covid19/cdcr-cchcs-covid-19-status/,,42,,,,11,,,,,,,,,,,,,,,,,6071,,
1390,state,California,CDCR CCHCS WORKSITE SAN DIEGO COUNTY,2020-12-25,https://www.cdcr.ca.gov/covid19/cdcr-cchcs-covid-19-status/,,2,,,,1,,,,,,,,,,,,,,,,,,,
1389,state,California,CDCR CCHCS WORKSITE SAN JOAQUIN COUNTY,2020-12-25,https://www.cdcr.ca.gov/covid19/cdcr-cchcs-covid-19-status/,,10,,,,5,,,,,,,,,,,,,,,,,,,
,state,California,CDCRCCHCS WORKSITE LOCATION SAN FRANCISCO COUNTY,2020-12-25,https://www.cdcr.ca.gov/covid19/cdcr-cchcs-covid-19-status/,,1,,,,0,,,,,,,,,,,,,,,,,,,
,state,California,CDCRCCHCS WORKSITE LOCATION YOLO COUNTY,2020-12-25,https://www.cdcr.ca.gov/covid19/cdcr-cchcs-covid-19-status/,,2,,,,0,,,,,,,,,,,,,,,,,,,
64,state,California,CEN CALIFORNIA STATE PRISON CENTINELA,2020-12-25,https://www.cdcr.ca.gov/covid19/cdcr-cchcs-covid-19-status/; https://www.cdcr.ca.gov/covid19/updates/,766,344,1,,481,162,,,,,,,,,274,3475,2302 BROWN ROAD,92251,IMPERIAL,IMPERIAL,32.82339731,-115.7890555,6025,10002348,
82,state,California,CHADERJIAN YOUTH CORRECTIONAL FACILITY,2020-12-25,https://www.cdcr.ca.gov/covid19/cdcr-cchcs-covid-19-status/,,30,,,,7,,,,,,,,,,216,7650 SOUTH NEWCASTLE ROAD,95215,STOCKTON,SAN JOAQUIN,37.8911829,-121.1978212,6077,10000796,
65,state,California,CHCF CALIFORNIA HEALTH CARE FACILITY,2020-12-25,https://www.cdcr.ca.gov/covid19/updates/,209,,3,,29,,,,,,,,,,175,2315,7707 AUSTIN ROAD,95215,STOCKTON,SAN JOAQUIN,37.8947278,-121.1848441,6077,10000799,
66,state,California,CIM CALIFORNIA INSTITUTION FOR MEN,2020-12-25,https://www.cdcr.ca.gov/covid19/cdcr-cchcs-covid-19-status/; https://www.cdcr.ca.gov/covid19/updates/,1434,441,27,,1360,360,,,,,,,,,10,3627,14901 CENTRAL AVENUE,91710,CHINO,SAN BERNARDINO,33.98471223,-117.6823919,6071,10000836,
67,state,California,CIW CALIFORNIA INSTITUTION FOR WOMEN,2020-12-25,https://www.cdcr.ca.gov/covid19/cdcr-cchcs-covid-19-status/; https://www.cdcr.ca.gov/covid19/updates/,435,221,1,,379,138,,,,,,,,,45,1619,16756 CHINO-CORONA ROAD,92880,CORONA,SAN BERNARDINO,33.94974531,-117.636365,6071,10002341,
68,state,California,CMC CALIFORNIA MENS COLONY,2020-12-25,https://www.cdcr.ca.gov/covid19/cdcr-cchcs-covid-19-status/; https://www.cdcr.ca.gov/covid19/updates/,739,206,2,,411,128,,,,,,,,,319,3758,COLONY DRIVE,93409,SAN LUIS OBISPO,SAN LUIS OBISPO,35.32457413,-120.6989005,6079,10002345,
69,state,California,CMF CALIFORNIA MEDICAL FACILITY,2020-12-25,https://www.cdcr.ca.gov/covid19/cdcr-cchcs-covid-19-status/; https://www.cdcr.ca.gov/covid19/updates/,256,185,0,,7,117,,,,,,,,,249,2512,1600 CALIFORNIA DRIVE,95696,VACAVILLE,SOLANO,38.32851019,-121.9791645,6095,10000785,
70,state,California,COR CALIFORNIA STATE PRISON CORCORAN,2020-12-25,https://www.cdcr.ca.gov/covid19/cdcr-cchcs-covid-19-status/; https://www.cdcr.ca.gov/covid19/updates/,537,517,2,,469,397,,,,,,,,,63,3043,4001 KING AVENUE,93212,CORCORAN,KINGS,36.06081823,-119.549121,6031,10000824,
193,federal,California,CORRECTIONAL ALTERNATIVES INC RRC SAN DIEGO,2020-12-25,https://www.bop.gov/coronavirus/,13,,0,0,10,0,,,,,0,,,,,,,,,,,,,,
71,state,California,CRC CALIFORNIA REHABILITATION CENTER,2020-12-25,https://www.cdcr.ca.gov/covid19/cdcr-cchcs-covid-19-status/; https://www.cdcr.ca.gov/covid19/updates/,1811,357,0,,1646,218,,,,,,,,,110,3802,3195 WESTERN AVENUE,92860,NORCO,RIVERSIDE,33.92691794,-117.5759442,6065,10000856,
72,state,California,CTF CORRECTIONAL TRAINING FACILITY,2020-12-25,https://www.cdcr.ca.gov/covid19/cdcr-cchcs-covid-19-status/; https://www.cdcr.ca.gov/covid19/updates/,2048,236,7,,1246,146,,,,,,,,,775,5063,SOLEDAD PRISON ROAD,93960,SOLEDAD,MONTEREY,36.46964789,-121.3822324,6053,10000817,
73,state,California,CVSP CHUCKAWALLA VALLEY STATE PRISON,2020-12-25,https://www.cdcr.ca.gov/covid19/cdcr-cchcs-covid-19-status/; https://www.cdcr.ca.gov/covid19/updates/,1779,211,9,,1740,180,,,,,,,,,2,2773,19025 WILEYS WELL ROAD,92225,BLYTHE,RIVERSIDE,33.56257951,-114.9095058,6065,10002346,
219,federal,California,DUBLIN FCI,2020-12-25,https://www.bop.gov/coronavirus/,221,,0,0,30,7,,,,,201,,,,,1019,5701 8TH STREET,94568,DUBLIN,ALAMEDA,,,6001,10005303,
74,state,California,DVI DEUEL VOCATIONAL INSTITUTION,2020-12-25,https://www.cdcr.ca.gov/covid19/cdcr-cchcs-covid-19-status/; https://www.cdcr.ca.gov/covid19/updates/,101,182,0,,27,110,,,,,,,,,74,2052,23500 KASSON ROAD,95304,TRACY,SAN JOAQUIN,37.74805759,-121.3306264,6077,10000794,
75,state,California,FSP FOLSOM STATE PRISON,2020-12-25,https://www.cdcr.ca.gov/covid19/cdcr-cchcs-covid-19-status/; https://www.cdcr.ca.gov/covid19/updates/,1353,148,2,,1337,124,,,,,,,,,2,2507,300 PRISON ROAD,95671,REPRESA,SACRAMENTO,38.69538339,-121.1630324,6067,10000780,
1633,federal,California,GEO CARE EL MONTE,2020-12-25,https://www.bop.gov/coronavirus/,3,,0,0,1,0,,,,,0,,,,,,,,,,,,,,
257,federal,California,GEO REENTRY OF ALASKA INC RRC OAKLAND,2020-12-25,https://www.bop.gov/coronavirus/,4,,0,0,4,0,,,,,0,,,,,,,,,,,,2020,,
76,state,California,HDSP HIGH DESERT STATE PRISON,2020-12-25,https://www.cdcr.ca.gov/covid19/cdcr-cchcs-covid-19-status/; https://www.cdcr.ca.gov/covid19/updates/,1875,435,2,,1582,339,,,,,,,,,289,3161,475-750 RICE CANYON ROAD,96127,SUSANVILLE,LASSEN,40.4034569,-120.5258579,6035,10002310,
1380,federal,California,HERLONG FCI,2020-12-25,https://www.bop.gov/coronavirus/,265,,0,0,237,7,,,,,35,,,,,,,,,,,,,,
77,state,California,ISP IRONWOOD STATE PRISON,2020-12-25,https://www.cdcr.ca.gov/covid19/cdcr-cchcs-covid-19-status/; https://www.cdcr.ca.gov/covid19/updates/,579,245,1,,112,169,,,,,,,,,460,2896,19005 WILEYS WELL ROAD,92225,BLYTHE,RIVERSIDE,33.56098104,-114.9260354,6065,10000861,
78,state,California,KVSP KERN VALLEY STATE PRISON,2020-12-25,https://www.cdcr.ca.gov/covid19/cdcr-cchcs-covid-19-status/; https://www.cdcr.ca.gov/covid19/updates/,765,402,2,,245,201,,,,,,,,,513,3551,3000 WEST CECIL AVENUE,93216,DELANO,KERN,35.76647437,-119.3253627,6029,10000844,
79,state,California,LAC CALIFORNIA STATE PRISON LOS ANGELES COUNTY,2020-12-25,https://www.cdcr.ca.gov/covid19/cdcr-cchcs-covid-19-status/; https://www.cdcr.ca.gov/covid19/updates/,1371,453,4,,967,194,,,,,,,,,396,3218,44750 60TH STREET WEST,93536,LANCASTER,LOS ANGELES,34.69359649,-118.2276136,6037,10002353,
278,federal,California,LOMPOC FCI,2020-12-25,https://www.bop.gov/coronavirus/,684,,3,0,673,19,,,,,0,,,,,1257,3600 GUARD RD,93436,LOMPOC,SANTA BARBARA,34.67675537,-120.4994621,6083,10000863,
279,federal,California,LOMPOC USP,2020-12-25,https://www.bop.gov/coronavirus/,177,,2,0,157,28,,,,,6,,,,,947,3901 KLEIN BLVD,93436,LOMPOC,SANTA BARBARA,34.67918746,-120.5054801,6083,10000864,
80,county,California,LOS ANGELES JAILS,2020-12-25,https://lasd.org/covid19updates/,3873,2032,9,,3387,,39480,,38994,,,,3702,2011,145,,,,,,34.0591,-118.2321,6037,,
280,federal,California,LOS ANGELES MDC,2020-12-25,https://www.bop.gov/coronavirus/,349,,1,0,272,46,,,,,17,,,,,713,535 NORTH ALAMEDA STREET,90012,LOS ANGELES,LOS ANGELES,34.0536306,-118.238468,6037,10000892,
81,state,California,MCSP MULE CREEK STATE PRISON,2020-12-25,https://www.cdcr.ca.gov/covid19/cdcr-cchcs-covid-19-status/; https://www.cdcr.ca.gov/covid19/updates/,1234,292,2,,859,189,,,,,,,,,370,4007,4001 STATE HIGHWAY 104,95640,IONE,AMADOR,38.37074335,-120.9534458,6005,10000782,
1722,federal,California,MENDOTA FCI,2020-12-25,https://www.bop.gov/coronavirus/,68,,0,0,16,16,,,,,1,,,,,,,,,,,,,,
83,state,California,NCYCC NORTHERN CALIFORNIA YOUTH CORRECTIONAL CENTER,2020-12-25,https://www.cdcr.ca.gov/covid19/cdcr-cchcs-covid-19-status/,,23,,,,12,,,,,,,,,,216,7650 SOUTH NEWCASTLE ROAD,95215,STOCKTON,SAN JOAQUIN,37.8911829,-121.1978213,6077,10000796,
84,state,California,NKSP NORTH KERN STATE PRISON,2020-12-25,https://www.cdcr.ca.gov/covid19/cdcr-cchcs-covid-19-status/; https://www.cdcr.ca.gov/covid19/updates/,499,458,0,,165,376,,,,,,,,,330,4355,2737 WEST CECIL AVENUE,93215,DELANO,KERN,35.78188512,-119.3098757,6029,10000841,
86,state,California,OH CLOSE YOUTH CORRECTIONAL FACILITY,2020-12-25,https://www.cdcr.ca.gov/covid19/cdcr-cchcs-covid-19-status/,,22,,,,8,,,,,,,,,,169,7650 SOUTH NEWCASTLE ROAD,95213,STOCKTON,SAN JOAQUIN,37.89852126,-121.1976947,6077,10000793,
87,county,California,ORANGE COUNTY JAILS,2020-12-25,https://ocsheriff.gov/about-ocsd/covid-19/covid-19-oc-jails,1791,,,,716,,,,5093,,446,,,,1075,,,,,,,,,,
88,state,California,PBSP PELICAN BAY STATE PRISON,2020-12-25,https://www.cdcr.ca.gov/covid19/cdcr-cchcs-covid-19-status/; https://www.cdcr.ca.gov/covid19/updates/,180,119,0,,113,104,,,,,,,,,62,2648,5905 LAKE EARL DRIVE,95531,CRESCENT CITY,DEL NORTE,41.85480851,-124.1490751,6015,10002309,
1831,state,California,PINE GROVE JUVENILE PRISON CAMP,2020-12-25,https://www.cdcr.ca.gov/covid19/cdcr-cchcs-covid-19-status/,,4,,,,0,,,,,,,,,,,,,,,,,,,
90,state,California,PVSP PLEASANT VALLEY STATE PRISON,2020-12-25,https://www.cdcr.ca.gov/covid19/cdcr-cchcs-covid-19-status/; https://www.cdcr.ca.gov/covid19/updates/,1929,338,3,,1674,258,,,,,,,,,242,3131,24863 WEST JAYNE AVENUE,93210,COALINGA,FRESNO,36.13147309,-120.2488996,6019,10000810,
91,state,California,RICHARD A MCGEE CORRECTIONAL TRAINING CENTER GALT,2020-12-25,https://www.cdcr.ca.gov/covid19/cdcr-cchcs-covid-19-status/,,77,,,,33,,,,,,,,,,,9850 TWIN CITIES RD,95632,GALT,,38.2890255,-121.3279067,6067,,
92,state,California,RJD RICHARD J DONOVAN CORRECTIONAL FACILITY,2020-12-25,https://www.cdcr.ca.gov/covid19/cdcr-cchcs-covid-19-status/; https://www.cdcr.ca.gov/covid19/updates/,810,340,1,,208,127,,,,,,,,,600,3915,480 ALTA ROAD,92179,SAN DIEGO,SAN DIEGO,32.58456487,-116.9335763,6073,10000869,
93,state,California,SAC CALIFORNIA STATE PRISON SACRAMENTO,2020-12-25,https://www.cdcr.ca.gov/covid19/cdcr-cchcs-covid-19-status/; https://www.cdcr.ca.gov/covid19/updates/,200,224,0,,136,163,,,,,,,,,60,2354,100 PRISON ROAD,95671,REPRESA,SACRAMENTO,38.69444411,-121.1539037,6067,10002322,
1381,federal,California,SAN DIEGO MCC,2020-12-25,https://www.bop.gov/coronavirus/,183,,1,0,247,26,,,,,9,,,,,,,,,,,,,,
98,state,California,SATF SUBSTANCE ABUSE TREATMENT FACILITY,2020-12-25,https://www.cdcr.ca.gov/covid19/updates/,2964,,6,,2790,,,,,,,,,,152,,,,,,,,,,
95,state,California,SCC SIERRA CONSERVATION CENTER,2020-12-25,https://www.cdcr.ca.gov/covid19/cdcr-cchcs-covid-19-status/; https://www.cdcr.ca.gov/covid19/updates/,979,135,0,,189,94,,,,,,,,,783,4393,5100 OBYRNES FERRY ROAD,95327,JAMESTOWN,TUOLUMNE,37.89168856,-120.5365401,6109,10001522,
96,state,California,SOL CALIFORNIA STATE PRISON SOLANO,2020-12-25,https://www.cdcr.ca.gov/covid19/cdcr-cchcs-covid-19-status/; https://www.cdcr.ca.gov/covid19/updates/,394,146,1,,86,81,,,,,,,,,304,4306,2100 PEABODY ROAD,95687,VACAVILLE,SOLANO,38.32077652,-121.9752369,6095,10002323,
97,state,California,SQ CA STATE PRISON SAN QUENTIN,2020-12-25,https://www.cdcr.ca.gov/covid19/cdcr-cchcs-covid-19-status/; https://www.cdcr.ca.gov/covid19/updates/,2241,398,28,,2152,383,,,,,,,,,4,4032,MAIN STREET,94964,SAN QUENTIN,MARIN,37.94003982,-122.4903665,6041,10000790,
,state,California,STATEWIDE,2020-12-25,https://www.cdcr.ca.gov/covid19/updates/,,,,,,,115617,,,,,,,,,,,,,,,,,,
99,state,California,SVSP SALINAS VALLEY STATE PRISON,2020-12-25,https://www.cdcr.ca.gov/covid19/cdcr-cchcs-covid-19-status/; https://www.cdcr.ca.gov/covid19/updates/,298,377,1,,184,219,,,,,,,,,111,2917,31625 HIGHWAY 101,93960,SOLEDAD,MONTEREY,36.47885699,-121.3743944,6053,10000821,
332,federal,California,TERMINAL ISLAND FCI,2020-12-25,https://www.bop.gov/coronavirus/,486,,10,0,549,26,,,,,0,,,,,1185,1299 SEASIDE AVENUE,90731,SAN PEDRO,LOS ANGELES,33.726491,-118.2670631,6037,10000887,
1687,state,California,VENTURA,2020-12-25,https://www.cdcr.ca.gov/covid19/cdcr-cchcs-covid-19-status/,,35,,,,21,,,,,,,,,,,,,,,,,,,
1449,federal,California,VICTORVILLE MEDIUM I FCI,2020-12-25,https://www.bop.gov/coronavirus/,534,,2,0,433,21,,,,,0,,,,,,,,,,,,,,
349,federal,California,VICTORVILLE MEDIUM II FCI,2020-12-25,https://www.bop.gov/coronavirus/,408,,0,0,221,31,,,,,3,,,,,1216,13777 AIR EXPRESSWAY BOULEVARD,92394,VICTORVILLE,SAN BERNARDINO,34.56848411,-117.3583145,6071,10000831,
1450,federal,California,VICTORVILLE USP,2020-12-25,https://www.bop.gov/coronavirus/,334,,0,0,151,26,,,,,17,,,,,,,,,,,,,,
100,state,California,VSP VALLEY STATE PRISON,2020-12-25,https://www.cdcr.ca.gov/covid19/cdcr-cchcs-covid-19-status/; https://www.cdcr.ca.gov/covid19/updates/,1401,175,1,,1042,124,,,,,,,,,346,2999,21633 AVENUE 24,93610,CHOWCHILLA,MADERA,37.10547736,-120.1554719,6039,10000802,
1455,federal,California,WESTERN RO,2020-12-25,https://www.bop.gov/coronavirus/,,,0,0,0,1,,,,,,,,,,,,,,,,,,,
106,state,California,WSP WASCO STATE PRISON,2020-12-25,https://www.cdcr.ca.gov/covid19/cdcr-cchcs-covid-19-status/; https://www.cdcr.ca.gov/covid19/updates/,1075,362,0,,469,210,,,,,,,,,564,4588,701 SCOFIELD AVENUE,93280,WASCO,KERN,35.59431189,-119.4083319,6029,10000847,
107,state,Colorado,ARKANSAS VALLEY CORRECTIONAL FACILITY,2020-12-25,https://www.colorado.gov/pacific/cdoc/covid-19-faq-and-updates,921,,3,,886,,3591,,,,,,,,32,1047,12750 HIGHWAY 96 AT LANE 13,81034,ORDWAY,CROWLEY,38.19146827,-103.8421854,8025,10002228,
108,state,Colorado,ARROWHEAD CORRECTIONAL FACILITY,2020-12-25,https://www.colorado.gov/pacific/cdoc/covid-19-faq-and-updates,346,,0,,314,,3915,,,,,,,,32,521,E US HIGHWAY 50 AND EVANS BLVD,81212,CANON CITY,FREMONT,38.43610328,-105.1590956,8043,10002225,
109,state,Colorado,BENT COUNTY CORRECTIONAL FACILITY,2020-12-25,https://www.colorado.gov/pacific/cdoc/covid-19-faq-and-updates,645,,1,,520,,5832,,,,,,,,124,1416,11560 ROAD FF75,81054,LAS ANIMAS,BENT,38.06456309,-103.2047922,8011,10002233,
110,state,Colorado,BUENA VISTA CORRECTIONAL COMPLEX,2020-12-25,https://www.colorado.gov/pacific/cdoc/covid-19-faq-and-updates,414,,1,,344,,15737,,,,,,,,69,1212,5125 HWY 24  285,81211,BUENA VISTA,CHAFFEE,38.82210118,-106.1147135,8015,10000573,
111,state,Colorado,CENTENNIAL CORRECTIONAL FACILITY,2020-12-25,https://www.colorado.gov/pacific/cdoc/covid-19-faq-and-updates,96,,0,,76,,9733,,,,,,,,20,306,E US HIGHWAY 50 EVANS BLVD,81215,CANON CITY,FREMONT,,,8043,10002226,
112,state,Colorado,COLORADO CORRECTIONAL CENTER,2020-12-25,https://www.colorado.gov/pacific/cdoc/covid-19-faq-and-updates,1,,0,,1,,1181,,,,,,,,0,149,15445 SOUTH GOLDEN ROAD,80401,GOLDEN,JEFFERSON,39.734937360000004,-105.171343,8059,10000563,
113,state,Colorado,COLORADO STATE PENITENTIARY,2020-12-25,https://www.colorado.gov/pacific/cdoc/covid-19-faq-and-updates,75,,0,,32,,3659,,,,,,,,43,700,E US HIGHWAY 50 EVANS BLVD,81215,CANON CITY,FREMONT,,,8043,10002227,
114,state,Colorado,COLORADO TERRITORIAL CORRECTIONAL FACILITY,2020-12-25,https://www.colorado.gov/pacific/cdoc/covid-19-faq-and-updates,552,,3,,517,,5879,,,,,,,,32,920,275 WEST UNITED STATES HIGHWAY 50,81215,CANON CITY,FREMONT,38.43802317,-105.2486951,8043,10000578,
115,state,Colorado,CROWLEY COUNTY CORRECTIONAL FACILITY,2020-12-25,https://www.colorado.gov/pacific/cdoc/covid-19-faq-and-updates,480,,1,,400,,12879,,,,,,,,79,1745,6564 HIGHWAY 96,81062,OLNEY SPRINGS,CROWLEY,38.15673868,-103.9573023,8025,10000585,
116,state,Colorado,DELTA CORRECTIONAL FACILITY,2020-12-25,https://www.colorado.gov/pacific/cdoc/covid-19-faq-and-updates,93,,0,,48,,1310,,,,,,,,45,480,11363 LOCKHART ROAD,81416,DELTA,DELTA,38.70911617,-108.1486112,8029,10000569,
117,state,Colorado,DENVER RECEPTION DIAGNOSTIC CENTER,2020-12-25,https://www.colorado.gov/pacific/cdoc/covid-19-faq-and-updates,9,,0,,9,,5406,,,,,,,,0,560,10900 SMITH ROAD,80239,DENVER,DENVER,,,8031,10000560,
118,state,Colorado,DENVER WOMENS CORRECTIONAL FACILITY,2020-12-25,https://www.colorado.gov/pacific/cdoc/covid-19-faq-and-updates,65,,0,,59,,7777,,,,,,,,6,970,3600 HAVANA STREET,80239,DENVER,DENVER,39.76510225,-104.860784,8031,10000561,
222,federal,Colorado,ENGLEWOOD FCI,2020-12-25,https://www.bop.gov/coronavirus/,701,,0,0,661,55,,,,,15,,,,,637,9595 WEST QUINCY AVE,80123,LITTLETON,JEFFERSON,39.64192027,-105.1055266,8059,10004659,
1417,federal,Colorado,FLORENCE ADMAX USP,2020-12-25,https://www.bop.gov/coronavirus/,4,,0,0,3,0,,,,,0,,,,,,,,,,,,,,
1715,federal,Colorado,FLORENCE FCI,2020-12-25,https://www.bop.gov/coronavirus/,519,,1,0,374,5,,,,,70,,,,,,,,,,,,,,
1418,federal,Colorado,FLORENCE HIGH USP,2020-12-25,https://www.bop.gov/coronavirus/,68,,0,0,40,2,,,,,3,,,,,,,,,,,,,,
119,state,Colorado,FOUR MILE CORRECTIONAL FACILITY,2020-12-25,https://www.colorado.gov/pacific/cdoc/covid-19-faq-and-updates,401,,0,,394,,2105,,,,,,,,7,528,E US HIGHWAY 50  EVANS BLVD,81212,CANON CITY,FREMONT,38.42976983,-105.1478509,8043,10000577,
1707,state,Colorado,FREMONT CORRECTIONAL FACILITY,2020-12-25,https://www.colorado.gov/pacific/cdoc/covid-19-faq-and-updates,764,,4,,741,,13478,,,,,,,,19,1606,E US HIGHWAY 50 EVANS BLVD,81215,CANON CITY,FREMONT,,,8043,10000576,
121,state,Colorado,LA VISTA CORRECTIONAL FACILITY,2020-12-25,https://www.colorado.gov/pacific/cdoc/covid-19-faq-and-updates,10,,0,,10,,2295,,,,,,,,0,685,1401 WEST 17TH STREET,81003,PUEBLO,PUEBLO,38.28484966,-104.6281974,8101,10000586,
1706,state,Colorado,LIMON CORRECTIONAL FACILITY,2020-12-25,https://www.colorado.gov/pacific/cdoc/covid-19-faq-and-updates,545,,0,,499,,2544,,,,,,,,46,,,,,,,,,,
123,state,Colorado,RIFLE CORRECTIONAL CENTER,2020-12-25,https://www.colorado.gov/pacific/cdoc/covid-19-faq-and-updates,4,,0,,1,,628,,,,,,,,3,192,200 COUNTY ROAD 219,81650,RIFLE,GARFIELD,39.65016626,-107.7790488,8045,10000557,
124,state,Colorado,SAN CARLOS CORRECTIONAL FACILITY,2020-12-25,https://www.colorado.gov/pacific/cdoc/covid-19-faq-and-updates,9,,0,,9,,1943,,,,,,,,0,219,1410 WEST 13TH STREET,81003,PUEBLO,PUEBLO,,,8101,10000587,
120,state,Colorado,SKYLINE CORRECTIONAL CENTER,2020-12-25,https://www.colorado.gov/pacific/cdoc/covid-19-faq-and-updates,0,,0,,0,,91,,,,,,,,0,,,,,,,,,,
127,state,Colorado,STERLING CORRECTIONAL FACILITY,2020-12-25,https://www.colorado.gov/pacific/cdoc/covid-19-faq-and-updates,1314,,9,,1121,,19109,,,,,,,,184,2486,12101 HIGHWAY 61,80751,STERLING,LOGAN,40.61123458,-103.1621015,8075,10000554,
128,state,Colorado,TRINIDAD CORRECTIONAL FACILITY,2020-12-25,https://www.colorado.gov/pacific/cdoc/covid-19-faq-and-updates,5,,0,,4,,2353,,,,,,,,1,503,21000 HIGHWAY 350 EAST,81059,MODEL,LAS ANIMAS,37.30034613,-104.2866571,8071,10000593,
129,state,Colorado,YOUTHFUL OFFENDER SYSTEM,2020-12-25,https://www.colorado.gov/pacific/cdoc/covid-19-faq-and-updates,141,,0,,141,,549,,,,,,,,0,15,1300 WEST 13TH ST,81003,PUEBLO,PUEBLO,,,8101,10000588,
130,state,Connecticut,BRIDGEPORT CC,2020-12-25,https://portal.ct.gov/DOC/Common-Elements/Common-Elements/Health-Information-and-Advisories,175,,,,,,,,,,,,,,,689,1106 NORTH AVE,6604,BRIDGEPORT,FAIRFIELD,41.1906143,-73.20106036,9001,10002400,
131,state,Connecticut,BROOKLYN CI,2020-12-25,https://portal.ct.gov/DOC/Common-Elements/Common-Elements/Health-Information-and-Advisories,157,,,,,,,,,,,,,,,428,59 HARTFORD RD,6234,BROOKLYN,WINDHAM,41.78416388,-71.95426216,9015,10002399,
132,state,Connecticut,CARL ROBINSON CI,2020-12-25,https://portal.ct.gov/DOC/Common-Elements/Common-Elements/Health-Information-and-Advisories,290,,,,,,,,,,,,,,,1415,285 SHAKER RD,6082,ENFIELD,HARTFORD,42.0156533,-72.515607,9003,10001605,
133,state,Connecticut,CHESHIRE CI,2020-12-25,https://portal.ct.gov/DOC/Common-Elements/Common-Elements/Health-Information-and-Advisories,272,,,,,,,,,,,,,,,1147,900 HIGHLAND AVE,6410,CHESHIRE,NEW HAVEN,41.52149124,-72.9017651,9009,10000937,
134,state,Connecticut,CORRIGAN RADGOWSKI CC,2020-12-25,https://portal.ct.gov/DOC/Common-Elements/Common-Elements/Health-Information-and-Advisories,265,,,,,,,,,,,,,,,1196,986 NORWICH-NEW LONDON TURNPIKE,6382,UNCASVILLE,NEW LONDON,41.45418432,-72.11217243,9011,10000931,
206,federal,Connecticut,DANBURY FCI,2020-12-25,https://www.bop.gov/coronavirus/,181,,1,0,161,71,,,,,0,,,,,815,ROUTE 37,6811,DANBURY,FAIRFIELD,41.4367642,-73.4675543,9001,10000935,
136,state,Connecticut,GARNER CI,2020-12-25,https://portal.ct.gov/DOC/Common-Elements/Common-Elements/Health-Information-and-Advisories,73,,,,,,,,,,,,,,,543,50 NUNNAWAUK RD,6470,NEWTOWN,FAIRFIELD,41.40035888,-73.2721123,9001,10000934,
137,state,Connecticut,HARTFORD CC,2020-12-25,https://portal.ct.gov/DOC/Common-Elements/Common-Elements/Health-Information-and-Advisories,233,,,,,,,,,,,,,,,888,177 WESTON ST,6120,HARTFORD,HARTFORD,41.79362408,-72.66139948,9003,10000926,
3529,state,Connecticut,MACDOUGALL WALKER CI,2020-12-25,https://portal.ct.gov/DOC/Common-Elements/Common-Elements/Health-Information-and-Advisories,584,,,,,,,,,,,,,,,,,,,,,,,,
140,state,Connecticut,MANSON YOUTH,2020-12-25,https://portal.ct.gov/DOC/Common-Elements/Common-Elements/Health-Information-and-Advisories,11,,,,,,,,,,,,,,,545,42 JARVIS ST,6410,CHESHIRE,NEW HAVEN,41.53050021,-72.89979775,9009,10000939,
142,state,Connecticut,NEW HAVEN CC,2020-12-25,https://portal.ct.gov/DOC/Common-Elements/Common-Elements/Health-Information-and-Advisories,143,,,,,,,,,,,,,,,683,245 WHALLEY AVE,6511,NEW HAVEN,NEW HAVEN,41.31748057,-72.93997131,9009,10005380,
143,state,Connecticut,NORTHERN CI,2020-12-25,https://portal.ct.gov/DOC/Common-Elements/Common-Elements/Health-Information-and-Advisories,2,,,,,,,,,,,,,,,78,287 BILTON RD,6071,SOMERS,TOLLAND,42.0188064,-72.4948806,9013,10000929,
144,state,Connecticut,OSBORN CI,2020-12-25,https://portal.ct.gov/DOC/Common-Elements/Common-Elements/Health-Information-and-Advisories,528,,,,,,,,,,,,,,,1253,335 BILTON RD,6071,SOMERS,TOLLAND,42.01640023,-72.49693453,9013,10000928,
145,state,Connecticut,STATEWIDE,2020-12-25,https://portal.ct.gov/DOC/Common-Elements/Common-Elements/Health-Information-and-Advisories,,,13,,2369,,,,,,,,,,,,,,,,,,,,
358,federal,Connecticut,WATKINSON HOUSE RRC HARTFORD,2020-12-25,https://www.bop.gov/coronavirus/,1,,0,0,1,0,,,,,0,,,,,,,,,,,,9003,,
146,state,Connecticut,WILLARD CYBULSKI CI,2020-12-25,https://portal.ct.gov/DOC/Common-Elements/Common-Elements/Health-Information-and-Advisories,105,,,,,,,,,,,,,,,1140,391 SHAKER RD,6082,ENFIELD,TOLLAND,42.0167978,-72.5062987,9003,10006149,
147,state,Connecticut,YORK CI,2020-12-25,https://portal.ct.gov/DOC/Common-Elements/Common-Elements/Health-Information-and-Advisories,180,,,,,,,,,,,,,,,883,201 W MAIN ST,6357,NIANTIC,NEW LONDON,41.32308179,-72.23754189,9011,10000933,
181,federal,DC,CENTRAL OFFICE HQ,2020-12-25,https://www.bop.gov/coronavirus/,,,0,0,0,3,,,,,,,,,,,,,,,,,,,
1867,state,DC,COUNTY-WIDE,2020-12-25,https://opendata.dc.gov/datasets/dc-covid-19-department-of-corrections/data?orderBy=DATE_REPORTED&orderByAsc=false,224,139,1,1,209,120,,,,,,,58,,,,,,,,,,,,
148,state,Delaware,DELORES J BAYLOR WOMANS CORRECTIONAL INSTITUTION,2020-12-25,https://doc.delaware.gov/assets/documents/Confirmed_COVID_Cases.pdf,,,0,,,,,,,,,,,,,394,660 BAYLOR BLVD,19720,NEW CASTLE,NEW CASTLE,39.7039322,-75.58125772,10003,10002260,
149,state,Delaware,HAZEL D PLANT WOMANS TREATMENT FACILITY,2020-12-25,https://doc.delaware.gov/assets/documents/Confirmed_COVID_Cases.pdf,,,0,,,,,,,,,,,,,394,660 BAYLOR BLVD,19720,NEW CASTLE,NEW CASTLE,39.7039322,-75.58125772,10003,10002260,
150,state,Delaware,HOWARD R YOUNG CORRECTIONAL INSTITUTION,2020-12-25,https://doc.delaware.gov/assets/documents/Confirmed_COVID_Cases.pdf,,,0,,,,,,,,,,,,,1658,1301 E 12TH ST,19802,WILMINGTON,NEW CASTLE,39.7412423,-75.5294058,10003,10000699,
151,state,Delaware,JAMES T VAUGHN CORRECTIONAL CENTER,2020-12-25,https://doc.delaware.gov/assets/documents/Confirmed_COVID_Cases.pdf,,,7,,,,,,,,,,,,,2385,1181 PADDOCK RD,19977,SMYRNA,NEW CASTLE,39.33295451,-75.59958958,10003,10002262,
152,state,Delaware,MORRIS COMMUNITY CORRECTIONS CENTER,2020-12-25,https://doc.delaware.gov/assets/documents/Confirmed_COVID_Cases.pdf,,,0,,,,,,,,,,,,,135,300 WATER ST,19904,DOVER,KENT,39.15328515,-75.52726906,10001,10000704,
153,state,Delaware,PLUMMER COMMUNITY CORRECTIONS CENTER,2020-12-25,https://doc.delaware.gov/assets/documents/Confirmed_COVID_Cases.pdf,,,0,,,,,,,,,,,,,130,38 TODDS LN,19802,WILMINGTON,NEW CASTLE,39.75664471,-75.52904371,10003,10000701,
154,state,Delaware,STATEWIDE,2020-12-25,https://doc.delaware.gov/assets/documents/Confirmed_COVID_Cases.pdf,1564,536,,,1302,417,,,,,,,,,,,,,,,,,,,
155,state,Delaware,SUSSEX COMMUNITY CORRECTIONS CENTER,2020-12-25,https://doc.delaware.gov/assets/documents/Confirmed_COVID_Cases.pdf,,,0,,,,,,,,,,,,,308,23207 DUPONT BLVD,19947,GEORGETOWN,SUSSEX,38.65848406,-75.37196789,10005,10000706,
156,state,Delaware,SUSSEX CORRECTIONAL INSTITUTION,2020-12-25,https://doc.delaware.gov/assets/documents/Confirmed_COVID_Cases.pdf,,,4,,,,,,,,,,,,,1130,23203 DUPONT BLVD,19947,GEORGETOWN,SUSSEX,38.665915,-75.3801231,10005,10000707,
189,federal,Florida,COLEMAN I USP,2020-12-25,https://www.bop.gov/coronavirus/,60,,0,0,97,14,,,,,62,,,,,1245,846 NORTHEAST 54TH TERRACE,33521,SUMTERVILLE,SUMTER,28.7737905,-82.00445251,12119,10004592,
190,federal,Florida,COLEMAN II USP,2020-12-25,https://www.bop.gov/coronavirus/,219,,1,0,216,22,,,,,45,,,,,1374,846 NORTHEAST 54TH TERRACE,33521,SUMTERVILLE,SUMTER,28.7628994,-82.0011646,12119,10004595,
191,federal,Florida,COLEMAN LOW FCI,2020-12-25,https://www.bop.gov/coronavirus/,266,,1,1,217,11,,,,,650,,,,,2415,846 NORTHEAST 54TH TERRACE,33521,SUMTERVILLE,SUMTER,28.7692474,-82.010479,12119,10004593,
192,federal,Florida,COLEMAN MEDIUM FCI,2020-12-25,https://www.bop.gov/coronavirus/,276,,3,0,277,7,,,,,37,,,,,1486,846 NORTHEAST 54TH TERRACE,33521,SUMTERVILLE,SUMTER,28.7662507,-82.00753865,12119,10004594,
1630,federal,Florida,DISMAS CHARITIES OF ORLANDO,2020-12-25,https://www.bop.gov/coronavirus/,2,,0,0,2,0,,,,,0,,,,,,,,,,,,,,
266,federal,Florida,HILLSBOROUGH COUNTY RRC TAMPA,2020-12-25,https://www.bop.gov/coronavirus/,4,,0,0,4,0,,,,,0,,,,,,,,,,,,,,
1725,federal,Florida,JACKSONVILLE RESID REENTRY CTR,2020-12-25,https://www.bop.gov/coronavirus/,10,,0,0,10,0,,,,,0,,,,,,,,,,,,,,
1720,federal,Florida,MARIANNA FCI,2020-12-25,https://www.bop.gov/coronavirus/,84,,0,0,12,19,,,,,0,,,,,,,,,,,,,,
288,federal,Florida,MIAMI FCI,2020-12-25,https://www.bop.gov/coronavirus/,147,,1,0,137,16,,,,,8,,,,,931,15801 SW 137TH AVE,33177,MIAMI,MIAMI-DADE,25.61832698,-80.41039062,12086,10000542,
289,federal,Florida,MIAMI FDC,2020-12-25,https://www.bop.gov/coronavirus/,158,,2,0,159,21,,,,,26,,,,,1389,33 NORTHEAST 4TH STREET,33132,MIAMI,MIAMI-DADE,25.7784897,-80.19323747,12086,10004647,
1433,federal,Florida,PENSACOLA FPC,2020-12-25,https://www.bop.gov/coronavirus/,20,,0,0,4,6,,,,,0,,,,,,,,,,,,,,
1759,county,Florida,ST LUCE COUNTY JAIL,2020-12-25,https://www.stluciesheriff.com/288/COVID-19-Information,,,,,,,,,,,,,,,,,,,,,,,,,
419,state,Florida,STATEWIDE,2020-12-25,http://www.dc.state.fl.us/comm/covid-19.html,17497,4232,189,,16998,3764,,,,,,,,,,,,,,,,,,,
331,federal,Florida,TALLAHASSEE FCI,2020-12-25,https://www.bop.gov/coronavirus/,113,,0,0,139,12,,,,,3,,,,,925,501 CAPITAL CIRCLE NE,32301,TALLAHASSEE,LEON,30.44364798,-84.22253719,12073,10000375,
1760,state,Georgia,APPLING ITF,2020-12-25,http://www.dcor.state.ga.us/content/CVD_Dashboard,15,3,0,0,15,3,,,,,,,,,,,,,,,,,,,
428,state,Georgia,ASMP,2020-12-25,http://www.dcor.state.ga.us/content/CVD_Dashboard,215,104,6,0,194,96,,,,,,,,,,1160,3001 GORDON HWY,30813,GROVETOWN,COLUMBIA,33.43287905,-82.18852112,13073,10006153,
429,state,Georgia,ATLANTA TC,2020-12-25,http://www.dcor.state.ga.us/content/CVD_Dashboard,9,2,0,0,9,2,,,,,,,,,,281,332 PONCE DE LEON AVE NE,30308,ATLANTA,FULTON,33.77270217,-84.3762642,13121,10001411,
162,federal,Georgia,ATLANTA USP,2020-12-25,https://www.bop.gov/coronavirus/,114,,1,0,74,8,,,,,0,,,,,2093,601 MCDONOUGH BLVD SE,30315,ATLANTA,FULTON,33.71070018,-84.36897923,13121,10000285,
1761,state,Georgia,AUGUSTA TC,2020-12-25,http://www.dcor.state.ga.us/content/CVD_Dashboard,9,10,0,0,5,3,,,,,,,,,,,,,,,,,,,
430,state,Georgia,AUTRY STATE PRISON,2020-12-25,http://www.dcor.state.ga.us/content/CVD_Dashboard,77,16,3,0,74,15,,,,,,,,,,1715,3178 MOUNT ZION CHURCH RD,31779,PELHAM,MITCHELL,31.18946471,-84.14510952,13205,10000325,
431,state,Georgia,BACON PDC,2020-12-25,http://www.dcor.state.ga.us/content/CVD_Dashboard,3,13,0,0,3,13,,,,,,,,,,232,165 EAST EASTSIDE INDUSTRIAL BOULEVARD,31510,ALMA,BACON,31.53308262,-82.44987705,13005,10004534,
432,state,Georgia,BAINBRIDGE PSAT,2020-12-25,http://www.dcor.state.ga.us/content/CVD_Dashboard,48,21,0,0,48,19,,,,,,,,,,,235 STATE HOSPITAL ROAD,39817,BAINBRIDGE,DECATUR,30.98252995,-84.63677462,13087,10006339,
433,state,Georgia,BALDWIN STATE PRISON,2020-12-25,http://www.dcor.state.ga.us/content/CVD_Dashboard,31,39,2,0,26,35,,,,,,,,,,953,140 LAYING FARM RD,31034,HARDWICK,BALDWIN,33.0250608,-83.2213613,13009,10002129,
1762,state,Georgia,BLECKLEY PSATC,2020-12-25,http://www.dcor.state.ga.us/content/CVD_Dashboard,35,13,0,0,35,13,,,,,,,,,,,,,,,,,,,
1847,state,Georgia,BULLOCH COUNTY CORRECTIONAL INSTITUTION,2020-12-25,http://www.dcor.state.ga.us/content/CVD_Dashboard,0,0,0,0,0,0,,,,,,,,,,,,,,,,,,,
434,state,Georgia,BURRUSS CTC,2020-12-25,http://www.dcor.state.ga.us/content/CVD_Dashboard,18,17,1,0,13,17,,,,,,,,,,444,1000 INDIAN SPRINGS DR,31029,FORSYTH,MONROE,33.05554556,-83.97538536,13207,10001421,
435,state,Georgia,CALHOUN STATE PRISON,2020-12-25,http://www.dcor.state.ga.us/content/CVD_Dashboard,58,30,1,1,56,26,,,,,,,,,,1638,27823 MAIN ST,39866,MORGAN,CALHOUN,31.53975718,-84.6166883,13037,10002146,
1849,state,Georgia,CARROLL COUNTY CORRECTIONAL INSTITUTION,2020-12-25,http://www.dcor.state.ga.us/content/CVD_Dashboard,3,0,0,0,0,0,,,,,,,,,,,,,,,,,,,
436,state,Georgia,CENTRAL STATE PRISON,2020-12-25,http://www.dcor.state.ga.us/content/CVD_Dashboard,34,34,0,0,32,25,,,,,,,,,,1136,4600 FULTON MILL RD,31208,MACON,BIBB,32.77682714,-83.75181934,13021,10002134,
1460,state,Georgia,CLARKE COUNTY CI,2020-12-25,http://www.dcor.state.ga.us/content/CVD_Dashboard,15,0,0,0,15,0,,,,,,,,,,,,,,,,,,,
1850,state,Georgia,CLAYTON COUNTY CORRECTIONAL INSTITUTION,2020-12-25,http://www.dcor.state.ga.us/content/CVD_Dashboard,0,0,0,0,0,0,,,,,,,,,,,,,,,,,,,
437,state,Georgia,CLAYTON TC,2020-12-25,http://www.dcor.state.ga.us/content/CVD_Dashboard,7,9,0,0,7,7,,,,,,,,,,379,242 FALCON DR,30297,FOREST PARK,CLAYTON,33.62430193,-84.3976813,13063,10002121,
438,state,Georgia,COASTAL STATE PRISON,2020-12-25,http://www.dcor.state.ga.us/content/CVD_Dashboard,70,17,6,0,64,12,,,,,,,,,,1638,200 GULF STREAM RD,31418,GARDEN CITY,CHATHAM,32.13759217,-81.18656693,13051,10000314,
439,state,Georgia,COFFEE CORRECTIONAL FACILITY,2020-12-25,http://www.dcor.state.ga.us/content/CVD_Dashboard,235,0,5,0,229,0,,,,,,,,,,2657,1153 NORTH LIBERTY STREET,31554,NICHOLLS,COFFEE,31.53063543,-82.63791259,13069,10002144,
440,state,Georgia,COLQUITT COUNTY CI,2020-12-25,http://www.dcor.state.ga.us/content/CVD_Dashboard,11,0,0,0,11,0,,,,,,,,,,191,200 SOUTH VANDENBERG DRIVE,31768,MOULTRIE,COLQUITT,31.12973082,-83.70786594,13071,10004548,
441,state,Georgia,COLUMBUS TC,2020-12-25,http://www.dcor.state.ga.us/content/CVD_Dashboard,4,3,0,0,4,3,,,,,,,,,,139,3900 SCHATULGA ROAD,31907,COLUMBUS,MUSCOGEE,32.49407873,-84.86892761,13215,10001426,
1848,state,Georgia,COLWELL PROBATION DETENTION CENTER,2020-12-25,http://www.dcor.state.ga.us/content/CVD_Dashboard,0,1,0,0,0,0,,,,,,,,,,,,,,,,,,,
1851,state,Georgia,COWETA COUNTY CORRECTIONAL INSTITUTION,2020-12-25,http://www.dcor.state.ga.us/content/CVD_Dashboard,84,0,0,0,84,0,,,,,,,,,,,,,,,,,,,
1624,federal,Georgia,CSC DISMAS CHARITIES RRC ATLANTA,2020-12-25,https://www.bop.gov/coronavirus/,4,,0,0,3,0,,,,,0,,,,,,,,,,,,,,
205,federal,Georgia,D RAY JAMES CI,2020-12-25,https://www.bop.gov/coronavirus/,,,3,0,194,0,,,,,,,,,,1826,3262 HIGHWAY 252,31537,FOLKSTON,CHARLTON,30.87400142,-81.97896384,13049,10000327,
1763,state,Georgia,DECATUR COUNTY CI,2020-12-25,http://www.dcor.state.ga.us/content/CVD_Dashboard,2,0,0,0,2,0,,,,,,,,,,,,,,,,,,,
442,state,Georgia,DODGE STATE PRISON,2020-12-25,http://www.dcor.state.ga.us/content/CVD_Dashboard,36,25,3,1,32,21,,,,,,,,,,1228,2971 OLD BETHEL CHURCH ROAD,31012,CHESTER,DODGE,32.3942334,-83.16745955,13091,10002138,
443,state,Georgia,DOOLY STATE PRISON,2020-12-25,http://www.dcor.state.ga.us/content/CVD_Dashboard,18,20,2,0,16,19,,,,,,,,,,1661,1412 PLUNKETT ROAD,31091,UNADILLA,HOUSTON,32.28092423,-83.71567596,13093,10006154,
1461,state,Georgia,EFFINGHAM COUNTY CI,2020-12-25,http://www.dcor.state.ga.us/content/CVD_Dashboard,47,0,0,0,47,0,,,,,,,,,,,,,,,,,,,
1852,state,Georgia,EMANUEL PROBATION DETENTION CENTER,2020-12-25,http://www.dcor.state.ga.us/content/CVD_Dashboard,0,0,0,0,0,0,,,,,,,,,,,,,,,,,,,
444,state,Georgia,EMANUEL WOMENS FACILITY,2020-12-25,http://www.dcor.state.ga.us/content/CVD_Dashboard,27,16,0,0,26,12,,,,,,,,,,395,714 GUMLOG ROAD,30401,SWAINSBORO,EMANUEL,32.61303825,-82.3564078,13107,10004496,
1853,state,Georgia,FLOYD COUNTY CORRECTIONAL INSTITUTION,2020-12-25,http://www.dcor.state.ga.us/content/CVD_Dashboard,0,0,0,0,0,0,,,,,,,,,,,,,,,,,,,
445,state,Georgia,GDCP,2020-12-25,http://www.dcor.state.ga.us/content/CVD_Dashboard,152,53,5,0,125,45,,,,,,,,,,3371,2978 STATE HWYY 36 W PRISON BLVD,30233,JACKSON,BUTTS,33.22107373,-84.06161828,13035,10000298,
446,state,Georgia,GDCP SMU,2020-12-25,http://www.dcor.state.ga.us/content/CVD_Dashboard,0,12,0,0,0,10,,,,,,,,,,3371,2978 STATE HWYY 36 W PRISON BLVD,30233,JACKSON,BUTTS,33.22107373,-84.06161828,13035,10000298,
447,state,Georgia,GEORGIA STATE PRISON,2020-12-25,http://www.dcor.state.ga.us/content/CVD_Dashboard,30,34,3,0,27,27,,,,,,,,,,1454,300 1ST AVENUE SOUTH,30453,REIDSVILLE,TATTNALL,32.00512895,-82.16473427,13267,10002141,
1462,state,Georgia,GWINNETT COUNTY CI,2020-12-25,http://www.dcor.state.ga.us/content/CVD_Dashboard,18,0,0,0,18,0,,,,,,,,,,,,,,,,,,,
1826,state,Georgia,HALL COUNTY CI,2020-12-25,http://www.dcor.state.ga.us/content/CVD_Dashboard,3,0,0,0,3,0,,,,,,,,,,,,,,,,,,,
448,state,Georgia,HANCOCK STATE PRISON,2020-12-25,http://www.dcor.state.ga.us/content/CVD_Dashboard,90,15,0,0,26,14,,,,,,,,,,1143,701 PRISON BLVD,31087,SPARTA,HANCOCK,33.24549405,-82.95092313,13141,10000297,
1825,state,Georgia,HARRIS COUNTY CI,2020-12-25,http://www.dcor.state.ga.us/content/CVD_Dashboard,3,0,0,0,3,0,,,,,,,,,,,,,,,,,,,
1463,state,Georgia,HAYS STATE PRISON,2020-12-25,http://www.dcor.state.ga.us/content/CVD_Dashboard,43,31,0,0,43,28,,,,,,,,,,,,,,,,,,,
1464,state,Georgia,HELMS FACILITY,2020-12-25,http://www.dcor.state.ga.us/content/CVD_Dashboard,0,4,0,0,0,3,,,,,,,,,,,,,,,,,,,
1465,state,Georgia,HUDSON TC,2020-12-25,http://www.dcor.state.ga.us/content/CVD_Dashboard,2,1,0,0,2,1,,,,,,,,,,,,,,,,,,,
1854,state,Georgia,JACKSON COUNTY CORRECTIONAL INSTITUTION,2020-12-25,http://www.dcor.state.ga.us/content/CVD_Dashboard,0,0,0,0,0,0,,,,,,,,,,,,,,,,,,,
1764,state,Georgia,JEFFERSON COUNTY CI,2020-12-25,http://www.dcor.state.ga.us/content/CVD_Dashboard,4,0,0,0,4,0,,,,,,,,,,,,,,,,,,,
1765,state,Georgia,JENKINS CORRECTIONAL CENTER,2020-12-25,http://www.dcor.state.ga.us/content/CVD_Dashboard,31,0,4,0,27,0,,,,,,,,,,,,,,,,,,,
449,state,Georgia,JOHNSON STATE PRISON,2020-12-25,http://www.dcor.state.ga.us/content/CVD_Dashboard,47,15,1,0,46,11,,,,,,,,,,1583,290 DONOVAN-HARRISON ROAD,31096,WRIGHTSVILLE,JOHNSON,32.74353362,-82.70234985,13167,10000303,
450,state,Georgia,LEE ARRENDALE STATE PRISON,2020-12-25,http://www.dcor.state.ga.us/content/CVD_Dashboard,65,35,0,0,61,30,,,,,,,,,,1596,2023 GAINESVILLE HWY,30510,ALTO,HABERSHAM,34.45106681,-83.59596645,13137,10002102,
1769,state,Georgia,LEE ARRENDALE TC,2020-12-25,http://www.dcor.state.ga.us/content/CVD_Dashboard,0,3,0,0,0,2,,,,,,,,,,,,,,,,,,,
451,state,Georgia,LEE STATE PRISON,2020-12-25,http://www.dcor.state.ga.us/content/CVD_Dashboard,24,38,2,0,22,32,,,,,,,,,,740,153 PINEWOOD DRIVE,31763,LEESBURG,LEE,31.76369451,-84.19354919,13177,10000323,
1801,state,Georgia,LONG UNIT,2020-12-25,http://www.dcor.state.ga.us/content/CVD_Dashboard,9,17,1,0,8,17,,,,,,,,,,,,,,,,,,,
1710,state,Georgia,MACON STATE PRISON,2020-12-25,http://www.dcor.state.ga.us/content/CVD_Dashboard,34,46,2,0,30,39,,,,,,,,,,1703,2728 SOUTH 49 HWY,31068,OGLETHORPE,MACON,32.25930659,-84.09144003,13193,10002137,
452,state,Georgia,MACON TC,2020-12-25,http://www.dcor.state.ga.us/content/CVD_Dashboard,9,4,1,0,8,4,,,,,,,,,,,,,,,,,,,
453,state,Georgia,MCEVER PDC,2020-12-25,http://www.dcor.state.ga.us/content/CVD_Dashboard,26,13,0,0,6,9,,,,,,,,,,,2100 KINGS CHAPEL ROAD,31069,PERRY,HOUSTON,32.46494728,-83.69501268,13153,10004500,
285,federal,Georgia,MCRAE CI,2020-12-25,https://www.bop.gov/coronavirus/,,,1,0,20,0,,,,,,,,,,1601,112 JIM HAMMOCK DRIVE,31055,MCRAE,TELFAIR,32.05007042,-82.8715772,13271,10000315,
454,state,Georgia,METRO REENTRY FACILITY,2020-12-25,http://www.dcor.state.ga.us/content/CVD_Dashboard,3,18,0,0,3,16,,,,,,,,,,229,1303 CONSTITUTION ROAD,30316,ATLANTA,DEKALB,33.687261,-84.336355,13089,10001414,
455,state,Georgia,METRO TC,2020-12-25,http://www.dcor.state.ga.us/content/CVD_Dashboard,9,11,0,0,9,11,,,,,,,,,,229,1303 CONSTITUTION ROAD,30316,ATLANTA,DEKALB,33.6885252,-84.336397,13089,10001414,
457,state,Georgia,MITCHELL COUNTY CI,2020-12-25,http://www.dcor.state.ga.us/content/CVD_Dashboard,3,0,0,0,3,0,,,,,,,,,,144,4838 STATE HWY 37 E,31730,CAMILLA,MITCHELL,31.2324018,-84.180085,13205,10002149,
1466,state,Georgia,MONTGOMERY STATE PRISON,2020-12-25,http://www.dcor.state.ga.us/content/CVD_Dashboard,22,23,1,0,21,22,,,,,,,,,,,,,,,,,,,
1766,state,Georgia,MUSCOGEE COUNTY CI,2020-12-25,http://www.dcor.state.ga.us/content/CVD_Dashboard,3,0,0,0,2,0,,,,,,,,,,,,,,,,,,,
1767,state,Georgia,NORTHWEST RSAT,2020-12-25,http://www.dcor.state.ga.us/content/CVD_Dashboard,18,0,0,0,18,0,,,,,,,,,,,,,,,,,,,
458,state,Georgia,PATTEN PDC,2020-12-25,http://www.dcor.state.ga.us/content/CVD_Dashboard,4,12,0,0,4,11,,,,,,,,,,,1009 NORTH 10TH AVENUE,31635,LAKELAND,LANIER,31.03988304,-83.0617537,13173,10004551,
459,state,Georgia,PAULDING RSAT,2020-12-25,http://www.dcor.state.ga.us/content/CVD_Dashboard,17,16,0,0,17,15,,,,,,,,,,150,1295 N INDUSTRIAL BLVD,30132,DALLAS,PAULDING,33.94976674,-84.81466644,13223,10002108,
460,state,Georgia,PHILLIPS STATE PRISON,2020-12-25,http://www.dcor.state.ga.us/content/CVD_Dashboard,17,33,0,0,16,28,,,,,,,,,,1048,2989 WEST ROCK QUARRY ROAD,30519,BUFORD,GWINNETT,34.0942918,-83.9105205,13135,10002106,
461,state,Georgia,PHILLIPS TC,2020-12-25,http://www.dcor.state.ga.us/content/CVD_Dashboard,9,3,0,0,6,3,,,,,,,,,,194,2989 W ROCK QUARRY ROAD,30519,BUFORD,GWINNETT,34.09554623,-83.90946974,13135,10002105,
462,state,Georgia,PULASKI STATE PRISON,2020-12-25,http://www.dcor.state.ga.us/content/CVD_Dashboard,91,44,1,0,90,43,,,,,,,,,,1162,373 UPPER RIVER ROAD,31036,HAWKINSVILLE,PULASKI,32.3115199,-83.45723464,13235,10000307,
1855,state,Georgia,RICHMOND COUNTY CORRECTIONAL INSTITUTION,2020-12-25,http://www.dcor.state.ga.us/content/CVD_Dashboard,12,0,0,0,12,0,,,,,,,,,,,,,,,,,,,
463,state,Georgia,RIVERBEND CORRECTIONAL FACILITY,2020-12-25,http://www.dcor.state.ga.us/content/CVD_Dashboard,18,0,3,0,15,0,,,,,,,,,,1497,196 LAYING FARM ROAD,31061,MILLEDGEVILLE,BALDWIN,,,13009,10006322,
1467,state,Georgia,ROGERS STATE PRISON,2020-12-25,http://www.dcor.state.ga.us/content/CVD_Dashboard,17,22,0,0,16,20,,,,,,,,,,,,,,,,,,,
464,state,Georgia,RUTLEDGE STATE PRISON,2020-12-25,http://www.dcor.state.ga.us/content/CVD_Dashboard,26,22,2,0,24,21,,,,,,,,,,601,7175 MANOR ROAD,31907,COLUMBUS,MUSCOGEE,32.49582796,-84.86617971,13215,10000304,
1856,state,Georgia,SCREVEN COUNTY CORRECTIONAL INSTITUTION,2020-12-25,http://www.dcor.state.ga.us/content/CVD_Dashboard,0,0,0,0,0,0,,,,,,,,,,,,,,,,,,,
465,state,Georgia,SMITH STATE PRISON,2020-12-25,http://www.dcor.state.ga.us/content/CVD_Dashboard,21,19,1,0,20,19,,,,,,,,,,1514,9676 UNITED STATES HIGHWAY 301 NORTH,30427,GLENNVILLE,TATTNALL,31.97310836,-81.91578361,13267,10000309,
1711,state,Georgia,SMITH TC,2020-12-25,http://www.dcor.state.ga.us/content/CVD_Dashboard,10,2,0,0,10,2,,,,,,,,,,,,,,,,,,,
327,federal,Georgia,SOUTHEAST RO,2020-12-25,https://www.bop.gov/coronavirus/,,,0,0,0,1,,,,,,,,,,,,,,,,,13121,,
1857,state,Georgia,SPALDING COUNTY CORRECTIONAL INSTITUTION,2020-12-25,http://www.dcor.state.ga.us/content/CVD_Dashboard,0,0,0,0,0,0,,,,,,,,,,,,,,,,,,,
1858,state,Georgia,SUMTER COUNTY CORRECTIONAL INSTITUTION,2020-12-25,http://www.dcor.state.ga.us/content/CVD_Dashboard,0,0,0,0,0,0,,,,,,,,,,,,,,,,,,,
1802,state,Georgia,TELFAIR STATE PRISON,2020-12-25,http://www.dcor.state.ga.us/content/CVD_Dashboard,77,19,6,0,71,18,,,,,,,,,,,,,,,,,,,
1859,state,Georgia,TERRELL COUNTY CORRECTIONAL INSTITUTION,2020-12-25,http://www.dcor.state.ga.us/content/CVD_Dashboard,0,0,0,0,0,0,,,,,,,,,,,,,,,,,,,
466,state,Georgia,TREUTLEN PDC,2020-12-25,http://www.dcor.state.ga.us/content/CVD_Dashboard,13,22,0,0,13,20,,,,,,,,,,,1 SESSIONS STREET,30457,SOPERTON,TREUTLEN,32.3624615,-82.60238104,13283,10005191,
467,state,Georgia,TURNER RSAT,2020-12-25,http://www.dcor.state.ga.us/content/CVD_Dashboard,34,9,0,0,33,8,,,,,,,,,,1,514 SOUTH RAILROAD AVE,31790,SYCAMORE,TURNER,31.6621587,-83.63393731,13287,10005201,
469,state,Georgia,VALDOSTA STATE PRISON,2020-12-25,http://www.dcor.state.ga.us/content/CVD_Dashboard,19,68,0,0,19,62,,,,,,,,,,1000,3259 VALTECH RD,31601,VALDOSTA,LOWNDES,30.85995723,-83.34575403,13185,10000328,
470,state,Georgia,VALDOSTA TC,2020-12-25,http://www.dcor.state.ga.us/content/CVD_Dashboard,2,13,0,0,1,3,,,,,,,,,,164,263 GILL HARBIN INDUSTRIAL BLVD,31601,VALDOSTA,LOWNDES,30.80565871,-83.2675069,13185,10001432,
1699,state,Georgia,WALKER STATE PRISON,2020-12-25,http://www.dcor.state.ga.us/content/CVD_Dashboard,64,27,1,0,63,24,,,,,,,,,,,,,,,,,,,
471,state,Georgia,WARE STATE PRISON,2020-12-25,http://www.dcor.state.ga.us/content/CVD_Dashboard,31,60,4,0,26,58,,,,,,,,,,1485,3620 NORTH HARRIS ROAD,31501,WAYCROSS,WARE,31.25673084,-82.39335661,13299,10002147,
472,state,Georgia,WASHINGTON STATE PRISON,2020-12-25,http://www.dcor.state.ga.us/content/CVD_Dashboard,26,7,0,0,26,7,,,,,,,,,,1334,13262 HWY 24 E,31018,DAVISBORO,WASHINGTON,32.98872379,-82.59490798,13303,10002126,
473,state,Georgia,WEST CENTRAL ITF,2020-12-25,http://www.dcor.state.ga.us/content/CVD_Dashboard,36,23,0,0,1,14,,,,,,,,,,,1070 COUNTY FARM ROAD,30295,ZEBULON,PIKE,33.11609815,-84.3610402,13231,10004487,
474,state,Georgia,WHEELER CORRECTIONAL FACILITY,2020-12-25,http://www.dcor.state.ga.us/content/CVD_Dashboard,171,0,12,0,159,0,,,,,,,,,,2636,195 NORTH BROAD STREET,30411,ALAMO,WHEELER,32.1504927,-82.79500753,13309,10002142,
1468,state,Georgia,WHITWORTH WOMENS FACILITY,2020-12-25,http://www.dcor.state.ga.us/content/CVD_Dashboard,18,18,1,0,17,16,,,,,,,,,,,,,,,,,,,
1469,state,Georgia,WILCOX STATE PRISON,2020-12-25,http://www.dcor.state.ga.us/content/CVD_Dashboard,46,26,3,0,41,23,,,,,,,,,,,,,,,,,,,
1768,state,Georgia,WOMENS PDC,2020-12-25,http://www.dcor.state.ga.us/content/CVD_Dashboard,6,7,0,0,6,7,,,,,,,,,,,,,,,,,,,
475,state,Hawaii,HCCC,2020-12-25,https://dps.hawaii.gov/blog/2020/03/17/coronavirus-covid-19-information-and-resources/,1,,0,,1,,257,,256,,0,,0,,0,515,60 PUNAHELE STREET,96720,HILO,HAWAII,19.71830866,-155.0989632,15001,10003694,
476,state,Hawaii,HCF,2020-12-25,https://dps.hawaii.gov/blog/2020/03/17/coronavirus-covid-19-information-and-resources/,383,,0,,82,,2339,,1952,,,,,,304,752,99-902 MOANALUA RD,96701,AIEA,HONOLULU,21.37379134,-157.8989822,15003,10000124,
1427,federal,Hawaii,HONOLULU FDC,2020-12-25,https://www.bop.gov/coronavirus/,5,,0,0,4,3,,,,,4,,,,,,,,,,,,,,
477,state,Hawaii,KCCC,2020-12-25,https://dps.hawaii.gov/blog/2020/03/17/coronavirus-covid-19-information-and-resources/,0,,0,,0,,60,,60,,0,,0,,0,159,3-5351 KUHIO HIGHWAY,96766,LIHUE,KAUAI,22.02515252,-159.3428192,15007,10003692,
478,state,Hawaii,KCF,2020-12-25,https://dps.hawaii.gov/blog/2020/03/17/coronavirus-covid-19-information-and-resources/,0,,0,,0,,231,,231,,0,,0,,0,184,HC 01 STAINBACK HWY,96720,HILO,HAWAII,19.54917893,-155.3011053,15001,10000128,
479,state,Hawaii,MCCC,2020-12-25,https://dps.hawaii.gov/blog/2020/03/17/coronavirus-covid-19-information-and-resources/,0,,0,,0,,263,,263,,0,,0,,0,452,600 WAIALE DR,96793,WAILUKU,MAUI,20.87701605,-156.4983753,15009,10000127,
480,state,Hawaii,OCCC,2020-12-25,https://dps.hawaii.gov/blog/2020/03/17/coronavirus-covid-19-information-and-resources/,450,,0,,448,,5429,,4959,,0,,0,,0,1268,2199 KAMEHAMEHA HIGHWAY,96819,HONOLULU,HONOLULU,21.32989382,-157.884874,15003,10003691,
1470,state,Hawaii,SAGUARO,2020-12-25,https://dps.hawaii.gov/blog/2020/03/17/coronavirus-covid-19-information-and-resources/,633,,1,,653,,3012,,2354,,,,11,,3,,,,,,,,,,
482,state,Hawaii,WCCC,2020-12-25,https://dps.hawaii.gov/blog/2020/03/17/coronavirus-covid-19-information-and-resources/,0,,0,,0,,244,,244,,0,,0,,0,278,42-477 KALANIANAOLE HWY,96734,KAILUA,HONOLULU,21.37802504,-157.7484499,15003,10000126,
483,state,Hawaii,WCF,2020-12-25,https://dps.hawaii.gov/blog/2020/03/17/coronavirus-covid-19-information-and-resources/,213,,0,,210,,859,,643,,,,20,,3,202,94-560 KAMEHAMEHA HWY,96797,WAIPAHU,HONOLULU,21.44465003,-157.9609092,15003,10001191,
1471,state,Idaho,CENTRAL OFFICE,2020-12-25,https://www.idoc.idaho.gov/content/careers/covid-19,,18,,,,16,,,,,,,,,,,,,,,,,,,
1702,state,Idaho,DISTRICT 1,2020-12-25,https://www.idoc.idaho.gov/content/careers/covid-19,,3,,,,3,,,,,,,,,,,,,,,,,,,
,state,Idaho,DISTRICT 2,2020-12-25,https://www.idoc.idaho.gov/content/careers/covid-19,,1,,,,1,,,,,,,,,,,,,,,,,,,
1805,state,Idaho,DISTRICT 3,2020-12-25,https://www.idoc.idaho.gov/content/careers/covid-19,,5,,,,4,,,,,,,,,,,,,,,,,,,
1472,state,Idaho,DISTRICT 4,2020-12-25,https://www.idoc.idaho.gov/content/careers/covid-19,,14,,,,13,,,,,,,,,,,,,,,,,,,
1473,state,Idaho,DISTRICT 5,2020-12-25,https://www.idoc.idaho.gov/content/careers/covid-19,,6,,,,6,,,,,,,,,,,,,,,,,,,
,state,Idaho,DISTRICT 6,2020-12-25,https://www.idoc.idaho.gov/content/careers/covid-19,,5,,,,5,,,,,,,,,,,,,,,,,,,
,state,Idaho,DISTRICT 7,2020-12-25,https://www.idoc.idaho.gov/content/careers/covid-19,,7,,,,5,,,,,,,,,,,,,,,,,,,
486,state,Idaho,EBCRC,2020-12-25,https://www.idoc.idaho.gov/content/careers/covid-19,,5,,,,5,,,,,,,,,,109,2366 OLD PENITENTIARY RD,83712,BOISE,ADA,43.60314093,-116.1638439,16001,10001184,
487,state,Idaho,ICIO,2020-12-25,https://www.idoc.idaho.gov/content/careers/covid-19,,41,,,,36,,,,,,,,,,576,381 WEST HOSPITAL DRIVE,83544,OROFINO,CLEARWATER,46.49197836,-116.2607095,16035,10001172,
488,state,Idaho,IFCRC,2020-12-25,https://www.idoc.idaho.gov/content/careers/covid-19,,5,,,,5,,,,,,,,,,95,3955 BOMBARDIER AVE,83402,IDAHO FALLS,BONNEVILLE,43.46230015,-112.0639693,16019,10001186,
489,state,Idaho,IMSI,2020-12-25,https://www.idoc.idaho.gov/content/careers/covid-19,,31,,,,30,,,,,,,,,,1473,13500 S PLEASANT VALLEY RD,83634,KUNA,ADA,43.47938786,-116.2189574,16001,10001181,
490,state,Idaho,ISCC,2020-12-25,https://www.idoc.idaho.gov/content/careers/covid-19,,80,,,,71,,,,,,,,,,2181,14601 S PLEASANT VALLEY RD,83634,KUNA,ADA,43.47119944,-116.2375874,16001,10001183,
491,state,Idaho,ISCI,2020-12-25,https://www.idoc.idaho.gov/content/careers/covid-19,,81,,,,77,,,,,,,,,,1473,13500 S PLEASANT VALLEY RD,83634,KUNA,ADA,43.47938786,-116.2189574,16001,10001181,
,state,Idaho,NAMPA CRC,2020-12-25,https://www.idoc.idaho.gov/content/careers/covid-19,,1,,,,1,,,,,,,,,,,,,,,,,,,
493,state,Idaho,NICI,2020-12-25,https://www.idoc.idaho.gov/content/careers/covid-19,,13,,,,13,,,,,,,,,,409,236 RADAR RD,83522,COTTONWOOD,IDAHO,46.07917307,-116.4280588,16049,10001173,
494,state,Idaho,PWCC,2020-12-25,https://www.idoc.idaho.gov/content/careers/covid-19,,6,,,,6,,,,,,,,,,323,1451 FORE RD,83204,POCATELLO,BANNOCK,42.84256222,-112.4506302,16005,10001187,
495,state,Idaho,SAWC,2020-12-25,https://www.idoc.idaho.gov/content/careers/covid-19,,16,,,,15,,,,,,,,,,253,125 N 8TH W,83445,ST ANTHONY,FREMONT,43.96809846,-111.6935417,16043,10001176,
496,state,Idaho,SBWCC,2020-12-25,https://www.idoc.idaho.gov/content/careers/covid-19,,19,,,,19,,,,,,,,,,293,13200 S PLEASANT VALLEY RD,83634,KUNA,ADA,43.48338,-116.23392,16001,10001185,
497,state,Idaho,SICI,2020-12-25,https://www.idoc.idaho.gov/content/careers/covid-19,,29,,,,26,,,,,,,,,,1473,13500 S PLEASANT VALLEY RD,83634,KUNA,ADA,43.47938786,-116.2189574,16001,10001181,
498,state,Idaho,STATEWIDE,2020-12-25,https://www.idoc.idaho.gov/content/careers/covid-19,3388,,5,,,,,,13620,,99,,,,1298,,,,,,,,,,
,state,Idaho,TFCRC,2020-12-25,https://www.idoc.idaho.gov/content/careers/covid-19,,1,,,,1,,,,,,,,,,,,,,,,,,,
499,state,Idaho,TVCRC,2020-12-25,https://www.idoc.idaho.gov/content/careers/covid-19,,1,,,,1,,,,,,,,,,102,14195 S PLEASANT VALLEY RD,83634,KUNA,ADA,43.6574178,-116.6678165,16001,10004339,
1748,federal,Illinois,ALPHA HOUSE OF SPRINGFIELD,2020-12-25,https://www.bop.gov/coronavirus/,3,,0,0,3,0,,,,,0,,,,,,,,,,,,,,
1474,state,Illinois,BIG MUDDY RIVER,2020-12-25,https://www2.illinois.gov/idoc/facilities/Pages/Covid19Response.aspx,95,72,,,72,62,341,,,,,,,,23,1218,,,,,,,,,
1770,state,Illinois,CENTRALIA,2020-12-25,https://www2.illinois.gov/idoc/facilities/Pages/Covid19Response.aspx,81,105,,,77,101,407,,,,,,,,4,1209,,,,,,,,,
188,federal,Illinois,CHICAGO MCC,2020-12-25,https://www.bop.gov/coronavirus/,252,,0,0,296,29,,,,,0,,,,,668,71 WEST VAN BUREN STREET,60605,CHICAGO,COOK,41.87658453,-87.63048213,17031,10001470,
,county,Illinois,COOK COUNTY JAIL,2020-12-25,https://www.cookcountysheriff.org/covid-19-cases-at-ccdoc/,551,568,7,4,515,520,,,11097,,,,,,,,,,,,,,,,
501,state,Illinois,CROSSROADS ATC,2020-12-25,https://www2.illinois.gov/idoc/facilities/Pages/Covid19Response.aspx,5,1,,,5,1,0,,,,,,,,0,325,3210 WEST ARTHINGTON STREET,60624,CHICAGO,COOK,41.87048357,-87.70635938,17031,10000635,
502,state,Illinois,DANVILLE,2020-12-25,https://www2.illinois.gov/idoc/facilities/Pages/Covid19Response.aspx,535,119,,,72,68,2553,,,,,,,,463,1605,3820 EAST MAIN STREET,61834,DANVILLE,VERMILION,40.12956679,-87.53645593,17183,10000662,
1475,state,Illinois,DECATUR,2020-12-25,https://www2.illinois.gov/idoc/facilities/Pages/Covid19Response.aspx,68,45,,,42,40,221,,,,,,,,26,531,,,,,,,,,
503,state,Illinois,DIXON CORRECTIONAL INSTITUTE,2020-12-25,https://www2.illinois.gov/idoc/facilities/Pages/Covid19Response.aspx,554,235,,,499,211,4453,,,,,,,,55,1652,2600 NORTH BRINTON AVENUE,61021,DIXON,LEE,41.8737451,-89.47817317,17103,10000642,
504,state,Illinois,EAST MOLINE,2020-12-25,https://www2.illinois.gov/idoc/facilities/Pages/Covid19Response.aspx,343,61,,,342,59,765,,,,,,,,1,1175,100 HILLCREST ROAD,61244,EAST MOLINE,ROCK ISLAND,41.53372905,-90.41912151,17161,10000644,
,state,Illinois,ELGIN TC,2020-12-25,https://www2.illinois.gov/idoc/facilities/Pages/Covid19Response.aspx,0,15,,,0,10,56,,,,,,,,0,,,,,,,,,,
506,state,Illinois,FOX VALLEY ATC,2020-12-25,https://www2.illinois.gov/idoc/facilities/Pages/Covid19Response.aspx,4,9,,,4,8,0,,,,,,,,0,127,1329 N LAKE ST,60506,AURORA,KANE,41.78792125,-88.3202916,17089,10000638,
1476,state,Illinois,GENERAL OFFICE,2020-12-25,https://www2.illinois.gov/idoc/facilities/Pages/Covid19Response.aspx,0,24,,,0,13,0,,,,,,,,0,,,,,,,,,,
507,state,Illinois,GRAHAM,2020-12-25,https://www2.illinois.gov/idoc/facilities/Pages/Covid19Response.aspx,100,116,,,54,97,1336,,,,,,,,46,1464,12078 ILLINOIS ROUTE 185,62049,HILLSBORO,MONTGOMERY,39.12648969,-89.47493262,17135,10000674,
1424,federal,Illinois,GREENVILLE FCI,2020-12-25,https://www.bop.gov/coronavirus/,682,,0,0,643,51,,,,,0,,,,,,,,,,,,,,
508,state,Illinois,HILL,2020-12-25,https://www2.illinois.gov/idoc/facilities/Pages/Covid19Response.aspx,131,60,,,102,53,617,,,,,,,,29,1643,600 SOUTH LINWOOD ROAD,61401,GALESBURG,KNOX,40.93974548,-90.40695799,17095,10000653,
1477,state,Illinois,ILLINOIS RIVER,2020-12-25,https://www2.illinois.gov/idoc/facilities/Pages/Covid19Response.aspx,161,90,,,121,80,1082,,,,,,,,40,1671,,,,,,,,,
,state,Illinois,JACKSONVILLEPWC,2020-12-25,https://www2.illinois.gov/idoc/facilities/Pages/Covid19Response.aspx,472,154,,,468,143,730,,,,,,,,4,,,,,,,,,,
,state,Illinois,JOLIET TC,2020-12-25,https://www2.illinois.gov/idoc/facilities/Pages/Covid19Response.aspx,6,64,,,3,57,251,,,,,,,,3,,,,,,,,,,
511,state,Illinois,KEWANEE LSRC,2020-12-25,https://www2.illinois.gov/idoc/facilities/Pages/Covid19Response.aspx,15,39,,,15,38,115,,,,,,,,0,274,2021 KENTVILLE ROAD,61443,KEWANEE,HENRY,41.25333209,-89.89171233,17073,10004677,
1771,state,Illinois,LAWRENCE,2020-12-25,https://www2.illinois.gov/idoc/facilities/Pages/Covid19Response.aspx,647,166,,,368,132,3119,,,,,,,,279,2042,,,,,,,,,
1478,state,Illinois,LINCOLN,2020-12-25,https://www2.illinois.gov/idoc/facilities/Pages/Covid19Response.aspx,261,76,,,196,69,355,,,,,,,,65,964,,,,,,,,,
512,state,Illinois,LOGAN,2020-12-25,https://www2.illinois.gov/idoc/facilities/Pages/Covid19Response.aspx,425,177,,,262,142,4290,,,,,,,,163,1464,1096 1350TH STREET,62656,LINCOLN,LOGAN,40.1140649,-89.3881401,17107,10000665,
281,federal,Illinois,MARION USP,2020-12-25,https://www.bop.gov/coronavirus/,788,,2,0,750,40,,,,,0,,,,,1129,4500 PRISON ROAD,62959,MARION,WILLIAMSON,37.66315314,-88.98406132,17199,10000694,
513,state,Illinois,MENARD,2020-12-25,https://www2.illinois.gov/idoc/facilities/Pages/Covid19Response.aspx,184,249,,,171,231,991,,,,,,,,13,1765,711 KASKASKIA STREET,62259,MENARD,RANDOLPH,37.912685690000004,-89.84197817,17157,10000687,
1703,state,Illinois,MURPHYSBORO,2020-12-25,https://www2.illinois.gov/idoc/facilities/Pages/Covid19Response.aspx,48,29,,,4,16,139,,,,,,,,44,,,,,,,,,,
514,state,Illinois,NORTH LAWNDALE ATC,2020-12-25,https://www2.illinois.gov/idoc/facilities/Pages/Covid19Response.aspx,6,6,,,5,4,0,,,,,,,,1,200,2839 WEST FILLMORE STREET,60612,CHICAGO,COOK,41.868038,-87.697785,17031,10000636,
1479,state,Illinois,PAROLE,2020-12-25,https://www2.illinois.gov/idoc/facilities/Pages/Covid19Response.aspx,0,36,,,0,35,0,,,,,,,,0,,,,,,,,,,
1432,federal,Illinois,PEKIN FCI,2020-12-25,https://www.bop.gov/coronavirus/,718,,0,0,471,45,,,,,2,,,,,,,,,,,,,,
1480,state,Illinois,PEORIA ATC,2020-12-25,https://www2.illinois.gov/idoc/facilities/Pages/Covid19Response.aspx,14,16,,,11,16,25,,,,,,,,3,244,,,,,,,,,
1481,state,Illinois,PINCKNEYVILLE,2020-12-25,https://www2.illinois.gov/idoc/facilities/Pages/Covid19Response.aspx,208,108,,,13,70,1069,,,,,,,,195,1901,,,,,,,,,
515,state,Illinois,PONTIAC,2020-12-25,https://www2.illinois.gov/idoc/facilities/Pages/Covid19Response.aspx,266,278,,,250,261,1853,,,,,,,,16,726,700 WEST LINCOLN STREET,61764,PONTIAC,LIVINGSTON,40.86928355,-88.63603689,17105,10000655,
1482,state,Illinois,ROBINSON,2020-12-25,https://www2.illinois.gov/idoc/facilities/Pages/Covid19Response.aspx,378,75,,,376,66,5289,,,,,,,,2,1121,,,,,,,,,
1803,state,Illinois,SHAWNEE,2020-12-25,https://www2.illinois.gov/idoc/facilities/Pages/Covid19Response.aspx,169,77,,,147,74,508,,,,,,,,22,1576,,,,,,,,,
516,state,Illinois,SHERIDAN,2020-12-25,https://www2.illinois.gov/idoc/facilities/Pages/Covid19Response.aspx,203,103,,,193,95,1500,,,,,,,,10,1670,4017 EAST 2603 ROAD,60551,SHERIDAN,LA SALLE,41.51604912,-88.68465975,17099,10000652,
517,state,Illinois,SOUTHWESTERN IL,2020-12-25,https://www2.illinois.gov/idoc/facilities/Pages/Covid19Response.aspx,44,81,,,44,74,94,,,,,,,,0,471,950 KINGSHIGHWAY ST,62203,EAST ST LOUIS,ST CLAIR,38.61691302,-90.0908182,17163,10000685,
518,state,Illinois,STATEVILLE,2020-12-25,https://www2.illinois.gov/idoc/facilities/Pages/Covid19Response.aspx,299,156,,,297,152,2638,,,,,,,,2,1157,16830 SOUTH BROADWAY STREET,60434,JOLIET,WILL,41.57873778,-88.09456267,17197,10000647,
519,state,Illinois,STATEVILLE NRC,2020-12-25,https://www2.illinois.gov/idoc/facilities/Pages/Covid19Response.aspx,228,110,,,212,105,5071,,,,,,,,16,1173,16830 SOUTH BROADWAY STREET,60434,JOLIET,WILL,41.57873778,-88.09456267,17197,10000647,
1483,state,Illinois,TAYLORVILLE,2020-12-25,https://www2.illinois.gov/idoc/facilities/Pages/Covid19Response.aspx,442,79,,,366,77,1219,,,,,,,,76,1028,,,,,,,,,
339,federal,Illinois,THOMSON USP,2020-12-25,https://www.bop.gov/coronavirus/,463,,0,0,464,86,,,,,4,,,,,703,1100 ONE MILE ROAD,61285,THOMSON,CARROLL,41.97296619,-90.10929881,17015,10000633,
1804,state,Illinois,VANDALIA,2020-12-25,https://www2.illinois.gov/idoc/facilities/Pages/Covid19Response.aspx,489,108,,,333,84,1213,,,,,,,,156,1068,,,,,,,,,
1484,state,Illinois,VIENNA,2020-12-25,https://www2.illinois.gov/idoc/facilities/Pages/Covid19Response.aspx,83,86,,,81,78,281,,,,,,,,2,920,,,,,,,,,
520,state,Illinois,WESTERN IL,2020-12-25,https://www2.illinois.gov/idoc/facilities/Pages/Covid19Response.aspx,89,90,,,77,81,541,,,,,,,,12,1533,2500 RT 99 SOUTH,62353,MOUNT STERLING,BROWN,39.96285696,-90.75396657,17009,10000667,
521,state,Indiana,BRANCHVILLE BTC,2020-12-25,https://www.in.gov/idoc/3780.htm,218,60,1,0,231,56,424,231,,,,,12,,,1460,21390 OLD STATE RD 37,47514,BRANCHVILLE,PERRY,38.15137828,-86.59980056,18123,10001075,
1485,state,Indiana,CENTRAL OFFICE,2020-12-25,https://www.in.gov/idoc/3780.htm,,24,,0,,21,,97,,,,,,,,,,,,,,,,,
523,state,Indiana,CHAIN OLAKES COL,2020-12-25,https://www.in.gov/idoc/3780.htm,83,4,0,0,1,2,160,14,,,,,131,,,119,3516 E 75 SOUTH,46701,ALBION,NOBLE,41.33701028,-85.35310253,18113,10004895,
1622,federal,Indiana,COMMUNITY EDUCATION CENTERS IN,2020-12-25,https://www.bop.gov/coronavirus/,2,,0,0,1,0,,,,,0,,,,,,,,,,,,,,
524,state,Indiana,CORRECTIONAL INDUSTRIAL CIF,2020-12-25,https://www.in.gov/idoc/3780.htm,123,90,2,0,110,67,373,347,,,,,51,,,1420,5124 W REFORMATORY RD,46064,PENDLETON,MADISON,39.97598494,-85.77135909,18095,10001060,
526,state,Indiana,EDINBURGH JCU,2020-12-25,https://www.in.gov/idoc/3780.htm,16,22,0,0,16,19,82,78,,,,,0,,,315,PO BOX 470 23RD  SCHOOLHOUSE RD,46124,EDINBURGH,JOHNSON,39.35145302,-86.0386027,18081,10004920,
527,state,Indiana,HERITAGE TRAIL CORRECTIONAL FACILITY,2020-12-25,https://www.in.gov/idoc/3780.htm,55,26,0,0,55,21,167,53,,,,,0,,,,,,,,,,18063,,
529,state,Indiana,INDIANA STATE PRISON ISP,2020-12-25,https://www.in.gov/idoc/3780.htm,72,102,2,0,72,93,306,380,,,,,0,,,2300,1 PARK ROW,46360,MICHIGAN CITY,LAPORTE,41.70343089,-86.9173169,18091,10005599,
530,state,Indiana,INDIANA WOMENS PRISON IWP,2020-12-25,https://www.in.gov/idoc/3780.htm,86,34,0,1,91,19,483,101,,,,,2,,,609,2596 GIRLS SCHOOL ROAD,46214,INDIANAPOLIS,MARION,39.80094018,-86.29189795,18097,10001065,
532,state,Indiana,LAPORTE JUVENILE LPJ,2020-12-25,https://www.in.gov/idoc/3780.htm,0,10,0,0,0,8,44,42,,,,,0,,,314,809 STATE ST,46350,LA PORTE,LAPORTE,41.61206231,-86.72292259,18091,10001053,
535,state,Indiana,LOGANSPORT LJCF,2020-12-25,https://www.in.gov/idoc/3780.htm,12,34,0,0,13,21,181,82,,,,,0,,,157,1118 S STATE RD 25,46947,LOGANSPORT,CASS,40.74154606,-86.40152309,18017,10004903,
536,state,Indiana,MADISON MCU,2020-12-25,https://www.in.gov/idoc/3780.htm,4,18,0,0,0,15,211,198,,,,,85,,,44,1130 MSH 4TH STREET,47250,MADISON,JEFFERSON,38.74778116,-85.40047051,18077,10006545,
537,state,Indiana,MIAMI MCF,2020-12-25,https://www.in.gov/idoc/3780.htm,215,82,7,1,196,57,785,171,,,,,0,,,3150,3038 W 850 S,46914,BUNKER HILL,MIAMI,40.6459301,-86.13530041,18103,10001059,
538,state,Indiana,NEW CASTLE NCCF,2020-12-25,https://www.in.gov/idoc/3780.htm,338,89,10,0,349,76,1043,275,,,,,5,,,3100,1000 VAN NUYS RD,47362,NEW CASTLE,HENRY,39.96237788,-85.37022541,18065,10004913,
539,state,Indiana,PENDLETON ISR,2020-12-25,https://www.in.gov/idoc/3780.htm,147,70,4,0,145,57,583,334,,,,,12,,,1800,4490 W REFORMATORY RD,46064,PENDLETON,MADISON,39.98338112,-85.76085702,18095,10001061,
540,state,Indiana,PENDLETON JUVENILE PNJ,2020-12-25,https://www.in.gov/idoc/3780.htm,50,54,0,0,43,47,227,228,,,,,30,,,188,9310 S STATE RD 67,46064,PENDLETON,MADISON,39.96907067,-85.77458045,18095,10001062,
542,state,Indiana,PLAINFIELD IYC,2020-12-25,https://www.in.gov/idoc/3780.htm,134,89,8,0,136,84,484,356,,,,,42,,,400,737 MOON RD,46168,PLAINFIELD,HENDRICKS,39.68899972,-86.41604046,18063,10001067,
543,state,Indiana,PUTNAMVILLE ISF,2020-12-25,https://www.in.gov/idoc/3780.htm,256,93,3,1,287,64,1313,499,,,,,5,,,1950,1946 W US HWY 40,46135,GREENCASTLE,PUTNAM,39.56503726,-86.88666488,18133,10001071,
544,state,Indiana,RECEPTION DIAGNOSTIC RDC,2020-12-25,https://www.in.gov/idoc/3780.htm,315,64,0,0,338,56,3469,246,,,,,168,,,400,737 MOON RD,46168,PLAINFIELD,HENDRICKS,39.68899972,-86.41604046,18063,10001067,
545,state,Indiana,ROCKVILLE RTC,2020-12-25,https://www.in.gov/idoc/3780.htm,308,68,0,0,307,49,1070,265,,,,,41,,,1000,811 W 50 N,47872,ROCKVILLE,PARKE,39.77431571,-87.25434717,18121,10001063,
1795,state,Indiana,SOUTH BEND SBWC,2020-12-25,https://www.in.gov/idoc/3780.htm,27,5,0,0,25,4,213,21,,,,,47,,,,,,,,,,,,
333,federal,Indiana,TERRE HAUTE FCI,2020-12-25,https://www.bop.gov/coronavirus/,475,,2,0,387,55,,,,,10,,,,,,,,,,,,,,
1708,federal,Indiana,TERRE HAUTE USP,2020-12-25,https://www.bop.gov/coronavirus/,467,,2,0,206,9,,,,,2,,,,,1355,4700 BUREAU RD S,47802,TERRE HAUTE,VIGO,,,18167,10004923,
350,federal,Indiana,VOLUNEERS OF AMERICA INC RRC INDIANAPOLIS,2020-12-25,https://www.bop.gov/coronavirus/,22,,0,0,5,0,,,,,0,,,,,,,,,,,,,,
548,state,Indiana,WABASH VALLEY WVCF,2020-12-25,https://www.in.gov/idoc/3780.htm,265,172,1,1,265,141,970,612,,,,,92,,,2000,6908 S OLD US HWY 41,47838,CARLISLE,SULLIVAN,38.97792912,-87.40030287,18153,10001072,
550,state,Indiana,WESTVILLE WCC,2020-12-25,https://www.in.gov/idoc/3780.htm,269,161,6,0,274,139,757,559,,,,,28,,,3200,5501 S 1100 W,46391,WESTVILLE,LAPORTE,41.52575257,-86.90808495,18091,10001051,
551,state,Iowa,ANAMOSA,2020-12-25,https://doc.iowa.gov/COVID19,862,151,6,,828,148,,,,,,,,,,969,406 N HIGH ST,52205,ANAMOSA,JONES,42.11129071,-91.29127202,19105,10001082,
552,state,Iowa,CLARINDA,2020-12-25,https://doc.iowa.gov/COVID19,597,57,1,,597,56,,,,,,,,,,987,2000 NORTH 16TH STREET,51632,CLARINDA,PAGE,40.76249094,-95.03582563,19145,10001099,
553,state,Iowa,FORT DODGE,2020-12-25,https://doc.iowa.gov/COVID19,505,84,3,,482,80,,,,,,,,,,1252,1550 L STREET,50501,FORT DODGE,WEBSTER,42.48489252,-94.19609253,19187,10001077,
554,state,Iowa,ICIW,2020-12-25,https://doc.iowa.gov/COVID19,14,34,0,,13,33,,,,,,,,,,711,420 MILL STREET SOUTHWEST,50169,MITCHELLVILLE,POLK,41.66299579,-93.3661037,19153,10001087,
555,state,Iowa,IMCC,2020-12-25,https://doc.iowa.gov/COVID19,401,79,1,,398,75,,,,,,,,,,894,2700 CORAL RIDGE AVE,52241,CORALVILLE,JOHNSON,41.71369597,-91.61182585,19103,10001091,
556,state,Iowa,ISP,2020-12-25,https://doc.iowa.gov/COVID19,228,89,2,,223,77,,,,,,,,,,688,2111 330TH AVENUE,52627,FORT MADISON,LEE,40.65361883,-91.30326789,19111,10001100,
557,state,Iowa,MT PLEASANT,2020-12-25,https://doc.iowa.gov/COVID19,695,43,0,,687,38,,,,,,,,,,1000,1200 EAST WASHINGTON STREET,52641,MOUNT PLEASANT,HENRY,40.95581384,-91.53617358,19087,10001096,
558,state,Iowa,NEWTON,2020-12-25,https://doc.iowa.gov/COVID19,173,32,0,,88,27,,,,,,,,,,1292,307 SOUTH 60TH AVENUE WEST,50208,NEWTON,JASPER,41.627170219999996,-93.05696851,19099,10001090,
559,state,Iowa,NORTH CENTRAL,2020-12-25,https://doc.iowa.gov/COVID19,389,32,0,,389,32,,,,,,,,,,485,313 LANEDALE,50579,ROCKWELL CITY,CALHOUN,42.39222762,-94.60437667,19025,10001080,
1772,county,Iowa,POLK COUNTY JAIL,2020-12-23,https://www.polkcountyiowa.gov/county-sheriff/news-press-releases/covid-19-quick-stats/,1,3,,,,,2077,302,,,,,,,,,,,,,,,,,
561,state,Kansas,EL DORADO,2020-12-25,https://www.doc.ks.gov/kdoc-coronavirus-updates/kdoc-covid-19-status,889,180,,,,,,,,,,,,,,1503,1737 SOUTHEAST UNITED STATES HIGHWAY 54,67042,EL DORADO,BUTLER,37.80325673,-96.81713261,20015,10001045,
562,state,Kansas,ELLSWORTH,2020-12-25,https://www.doc.ks.gov/kdoc-coronavirus-updates/kdoc-covid-19-status,559,86,,,,,,,,,,,,,,905,1607 STATE STREET,67439,ELLSWORTH,ELLSWORTH,38.74301147,-98.23215008,20053,10001040,
256,federal,Kansas,GEO REENTRY INC RRC LEAVENWORTH,2020-12-25,https://www.bop.gov/coronavirus/,29,,0,0,28,0,,,,,0,,,,,,,,,,,,20103,,
563,state,Kansas,HUTCHINSON,2020-12-25,https://www.doc.ks.gov/kdoc-coronavirus-updates/kdoc-covid-19-status,1355,229,,,,,,,,,,,,,,1114,500 REFORMATORY STREET,67504,HUTCHINSON,RENO,38.04458476,-97.91073579,20155,10001043,
564,state,Kansas,KJCC,2020-12-25,https://www.doc.ks.gov/kdoc-coronavirus-updates/kdoc-covid-19-status,19,57,,,,,,,,,,,,,,185,1430 NORTHWEST 25TH STREET,66618,TOPEKA,SHAWNEE,39.09678729,-95.68423367,20177,10001034,
565,state,Kansas,LANSING,2020-12-25,https://www.doc.ks.gov/kdoc-coronavirus-updates/kdoc-covid-19-status,992,149,,,,,,,,,,,,,,614,301 EAST KANSAS AVE,66043,LANSING,LEAVENWORTH,39.25190411,-94.89130455,20103,10001030,
566,state,Kansas,LARNED,2020-12-25,https://www.doc.ks.gov/kdoc-coronavirus-updates/kdoc-covid-19-status,353,67,,,,,,,,,,,,,,218,1318 STATE HIGHWAY 264,67550,LARNED,PAWNEE,38.17710787,-99.15101294,20145,10001830,
275,federal,Kansas,LEAVENWORTH USP,2020-12-25,https://www.bop.gov/coronavirus/,548,,0,0,546,5,,,,,2,,,,,1360,1300 METROPOLITAN AVENUE,66048,LEAVENWORTH,LEAVENWORTH,39.33105504,-94.93580759,20103,10001029,
567,state,Kansas,NORTON,2020-12-25,https://www.doc.ks.gov/kdoc-coronavirus-updates/kdoc-covid-19-status,691,113,,,,,,,,,,,,,,803,ROAD EAST 4 AND UNITED STATES HIGHWAY 36,67654,NORTON,NORTON,39.84416321,-99.81637284,20137,10001028,
568,state,Kansas,STATEWIDE,2020-12-25,https://www.kansas_statewide.gov/corrections/sites/kansas_statewide.gov.corrections/files/inline-files/MDOC%20COVID19WebDashboard11-9-2020.pdf,,,11,3,,,,,,,,,,,,,,,,,,,,,
569,state,Kansas,TOPEKA,2020-12-25,https://www.doc.ks.gov/kdoc-coronavirus-updates/kdoc-covid-19-status,51,63,,,,,,,,,,,,,,891,815 SOUTHEAST RICE ROAD,66607,TOPEKA,SHAWNEE,39.04069275,-95.6254707,20177,10001033,
570,state,Kansas,WICHITA WORK RELEASE,2020-12-25,https://www.doc.ks.gov/kdoc-coronavirus-updates/kdoc-covid-19-status,81,17,,,,,,,,,,,,,,244,401 SOUTH EMPORIA STREET,67202,WICHITA,SEDGWICK,37.68209659,-97.33329523,20173,10001048,
571,state,Kansas,WINFIELD,2020-12-25,https://www.doc.ks.gov/kdoc-coronavirus-updates/kdoc-covid-19-status,197,40,,,,,,,,,,,,,,543,1806 PINECREST CIRCLE,67156,WINFIELD,COWLEY,37.26426587,-96.97365125,20035,10001050,
1397,federal,Kentucky,ASHLAND FCI,2020-12-25,https://www.bop.gov/coronavirus/,338,,5,0,309,29,,,,,0,,,,,,,,,,,,,,
572,state,Kentucky,BELL COUNTY FORESTRY CAMP,2020-12-25,https://corrections.ky.gov/Facilities/Pages/covid19.aspx,187,19,0,0,,,,,,,,,,,0,300,560 CORRECTIONAL DR,40977,PINEVILLE,BELL,36.6689938,-83.85169233,21013,10000122,
1403,federal,Kentucky,BIG SANDY USP,2020-12-25,https://www.bop.gov/coronavirus/,91,,0,0,60,74,,,,,23,,,,,,,,,,,,,,
573,state,Kentucky,BLACKBURN CORRECTIONAL COMPLEX,2020-12-25,https://corrections.ky.gov/Facilities/Pages/covid19.aspx,215,30,0,0,,,,,,,,,,,0,591,3111 SPURR RD,40511,LEXINGTON,FAYETTE,38.11315935,-84.53720452,21067,10003650,
212,federal,Kentucky,DISMAS CHARITIES INC RRC LEXINGTON,2020-12-25,https://www.bop.gov/coronavirus/,1,,0,0,1,0,,,,,0,,,,,,,,,,,,,,
215,federal,Kentucky,DISMAS OF MANCHESTER RRC,2020-12-25,https://www.bop.gov/coronavirus/,1,,0,0,1,0,,,,,0,,,,,,,,,,,,,,
574,state,Kentucky,EASTERN KENTUCKY CORRECTIONAL COMPLEX,2020-12-25,https://corrections.ky.gov/Facilities/Pages/covid19.aspx,0,43,0,0,,,,,,,,,,,0,1672,200 ROAD TO JUSTICE,41472,WEST LIBERTY,MORGAN,37.90388911,-83.26930995,21175,10000110,
575,state,Kentucky,GREEN RIVER CORRECTIONAL COMPLEX,2020-12-25,https://corrections.ky.gov/Facilities/Pages/covid19.aspx,368,63,3,0,,,,,,,,,,,0,982,1200 RIVER RD,42330,CENTRAL CITY,MUHLENBERG,37.3143803,-87.11341674,21177,10000117,
576,state,Kentucky,KENTUCKY CORRECTIONAL INSTITUTION FOR WOMEN,2020-12-25,https://corrections.ky.gov/Facilities/Pages/covid19.aspx,357,50,0,0,,,,,,,,,,,91,719,3000 ASH AVE,40056,PEWEE VALLEY,SHELBY,38.2854756,-85.45711972,21211,10000106,
577,state,Kentucky,KENTUCKY STATE PENITENTIARY,2020-12-25,https://corrections.ky.gov/Facilities/Pages/covid19.aspx,1,18,1,0,,,,,,,,,,,0,858,266 WATER ST,42038,EDDYVILLE,LYON,37.04927104,-88.07574221,21143,10000120,
578,state,Kentucky,KENTUCKY STATE REFORMATORY,2020-12-25,https://corrections.ky.gov/Facilities/Pages/covid19.aspx,534,70,28,2,,,,,,,,,,,10,977,3001 W HWY 146,40032,LAGRANGE,OLDHAM,38.40389133,-85.41658269,21185,10000103,
579,state,Kentucky,LEE ADJUSTMENT CENTER,2020-12-25,https://corrections.ky.gov/Facilities/Pages/covid19.aspx,699,63,1,0,,,,,,,,,,,1,855,168 LEE ADJUSTMENT CENTER DRIVE,41311,BEATTYVILLE,LEE,37.6066831,-83.70579564,21129,10000115,
277,federal,Kentucky,LEXINGTON FMC,2020-12-25,https://www.bop.gov/coronavirus/,514,,9,0,281,44,,,,,0,,,,,1270,3301 LEESTOWN RD,40511,LEXINGTON,FAYETTE,38.10569332,-84.56039514,21067,10000109,
580,state,Kentucky,LITTLE SANDY CORRECTIONAL COMPLEX,2020-12-25,https://corrections.ky.gov/Facilities/Pages/covid19.aspx,561,44,1,0,,,,,,,,,,,36,1001,505 PRISON CONNECTOR,41171,SANDY HOOK,ELLIOTT,38.13392033,-83.08100422,21063,10000107,
581,state,Kentucky,LUTHER LUCKETT CORRECTIONAL COMPLEX,2020-12-25,https://corrections.ky.gov/Facilities/Pages/covid19.aspx,0,13,0,1,,,,,,,,,,,0,1180,1612 DAWKINS RD,40031,LAGRANGE,OLDHAM,38.41243087,-85.42599085,21185,10000101,
1719,federal,Kentucky,MANCHESTER FCI,2020-12-25,https://www.bop.gov/coronavirus/,296,,0,0,215,58,,,,,42,,,,,,,,,,,,,,
283,federal,Kentucky,MCCREARY USP,2020-12-25,https://www.bop.gov/coronavirus/,119,,0,0,45,25,,,,,25,,,,,1336,330 FEDERAL WAY,42635,PINE KNOT,MCCREARY,36.68845863,-84.38720276,21147,10004330,
582,state,Kentucky,NORTHPOINT TRAINING CENTER,2020-12-25,https://corrections.ky.gov/Facilities/Pages/covid19.aspx,702,62,0,1,,,,,,,,,,,672,1254,710 WALTER REED RD,40310,BURGIN,BOYLE,37.71002092,-84.74635681,21021,10000116,
583,state,Kentucky,ROEDERER CORRECTIONAL COMPLEX,2020-12-25,https://corrections.ky.gov/Facilities/Pages/covid19.aspx,183,30,0,0,,,,,,,,,,,139,1213,PO BOX 69,40031,LAGRANGE,OLDHAM,38.40312799,-85.42976305,21185,10000102,
,state,Kentucky,SOUTHEAST STATE CORRECTIONAL COMPLEX,2020-12-25,https://corrections.ky.gov/Facilities/Pages/covid19.aspx,0,7,0,0,,,,,,,,,,,0,,,,,,,,,,
585,state,Kentucky,WESTERN KENTUCKY CORRECTIONAL COMPLEX,2020-12-25,https://corrections.ky.gov/Facilities/Pages/covid19.aspx,66,22,0,0,,,,,,,,,,,23,677,374 NEW BETHEL CHURCH RD,42411,FREDONIA,LYON,37.13645979,-88.04014801,21143,10000121,
586,state,Louisiana,ALLEN CORRECTIONAL CENTER,2020-12-25,https://doc.louisiana.gov/doc-covid-19-testing/,265,31,0,0,263,31,2092,167,,,,,,,,1579,3751 LAUDERDALE WOODYARD RD,70648,KINDER,ALLEN,30.56148319,-92.78967268,22003,10000967,
588,state,Louisiana,DAVID WADE CORRECTIONAL CENTER,2020-12-25,https://doc.louisiana.gov/doc-covid-19-testing/,82,61,0,0,79,54,208,134,,,,,,,,1227,670 BELL HILL RD,71040,HOMER,CLAIBORNE,32.90173088,-93.01954439,22027,10000948,
589,state,Louisiana,DIXON CORRECTIONAL INSTITUTE,2020-12-25,https://doc.louisiana.gov/doc-covid-19-testing/,841,73,7,0,832,66,2791,348,,,,,,,,1778,5568 STATE HWY 68,70748,JACKSON,EAST FELICIANA,30.81323901,-91.20751374,22037,10004094,
590,state,Louisiana,ELAYN HUNT CORRECTIONAL CENTER,2020-12-25,https://doc.louisiana.gov/doc-covid-19-testing/,220,88,2,0,204,80,1494,201,,,,,,,,1999,6925 HWY 74,70776,ST GABRIEL,IBERVILLE,30.26563691,-91.08621341,22047,10000972,
592,state,Louisiana,LOUISIANA CORRECTIONAL INSTITUTE FOR WOMEN HUNT,2020-12-25,https://doc.louisiana.gov/doc-covid-19-testing/,169,85,2,0,149,79,525,249,,,,,,,,573,7205 STATE HWY 74,70776,ST GABRIEL,IBERVILLE,30.263188800000002,-91.07374348,22047,10000974,
593,state,Louisiana,LOUISIANA CORRECTIONAL INSTITUTE FOR WOMEN JETSON,2020-12-25,https://doc.louisiana.gov/doc-covid-19-testing/,183,,0,,178,,498,,,,,,,,,,,,,,,,,,
594,state,Louisiana,LOUISIANA STATE PENITENTIARY,2020-12-25,https://doc.louisiana.gov/doc-covid-19-testing/,507,213,16,3,452,190,4204,556,,,,,,,,6073,17544 TUNICA TRACE,70712,ANGOLA,WEST FELICIANA,30.95976935,-91.59732559,22125,10000963,
297,federal,Louisiana,OAKDALE I FCI,2020-12-25,https://www.bop.gov/coronavirus/,189,,7,0,226,21,,,,,1,,,,,874,2105 EAST WHATLEY ROAD,71463,OAKDALE,ALLEN,30.82059582,-92.64063826,22003,10000968,
298,federal,Louisiana,OAKDALE II FCI,2020-12-25,https://www.bop.gov/coronavirus/,161,,1,0,30,6,,,,,0,,,,,874,2105 EAST WHATLEY ROAD,71463,OAKDALE,ALLEN,30.82059582,-92.64063826,22003,10000968,
595,county,Louisiana,ORLEANS PARISH JAILS,2020-11-26,http://opcso.org/index.php,172,89,0,3,136,56,,877,,,,,,,,,2800 PERDIDO ST,70119,NEW ORLEANS,,29.9612,-90.093051,,,
305,federal,Louisiana,POLLOCK FCI,2020-12-25,https://www.bop.gov/coronavirus/,92,,0,0,60,1,,,,,52,,,,,1436,1000 AIRBASE RD,71467,POLLOCK,GRANT,,,22043,10000956,
1727,federal,Louisiana,POLLOCK USP,2020-12-25,https://www.bop.gov/coronavirus/,545,,0,0,470,2,,,,,2,,,,,,,,,,,,,,
587,state,Louisiana,RAYBURN CORRECTIONAL CENTER,2020-12-25,https://doc.louisiana.gov/doc-covid-19-testing/,99,83,1,0,65,60,1585,250,,,,,,,,1313,27268 STATE HWY 21 N,70426,ANGIE,WASHINGTON,30.92169823,-89.81584273,22117,10002416,
596,state,Louisiana,RAYMOND LABORDE CORRECTIONAL CENTER,2020-12-25,https://doc.louisiana.gov/doc-covid-19-testing/,316,67,3,2,304,61,3772,295,,,,,,,,1754,1630 PRISON RD,71327,COTTONPORT,AVOYELLES,30.97442232,-92.02522705,22009,10000960,
1648,federal,Louisiana,VOLUNTEERS OF AMERICA NEW ORLEANS RRC,2020-12-25,https://www.bop.gov/coronavirus/,0,,,,,,,,,,1,,,,,,,,,,,,,,
,state,Maine,BOLDUC CORRECTIONAL FACILITY,2020-12-25,https://www.maine.gov/corrections/covid-19-resources,0,,,,,,142,,,,,,,,,,,,,,,,,,
,state,Maine,LONG CREEK YOUTH DEVELOPMENT CENTER,2020-12-25,https://www.maine.gov/corrections/covid-19-resources,1,,,,,,358,,,,,,,,,,,,,,,,,,
,state,Maine,MAINE CORRECTIONAL CENTER MEN,2020-12-25,https://www.maine.gov/corrections/covid-19-resources,147,,,,,,2400,,,,,,,,,,,,,,,,,,
,state,Maine,MAINE STATE PRISON,2020-12-25,https://www.maine.gov/corrections/covid-19-resources,3,,,,,,2865,,,,,,,,,,,,,,,,,,
,state,Maine,MOUNTAIN VIEW CORRECTIONAL FACILITY,2020-12-25,https://www.maine.gov/corrections/covid-19-resources,6,,,,,,569,,,,,,,,,,,,,,,,,,
,state,Maine,STATEWIDE,2020-12-25,https://www.maine.gov/corrections/covid-19-resources,,,,,,,,,,,,,,,,,,,,,,,,,
,state,Maine,WOMENS SERVICES,2020-12-25,https://www.maine.gov/corrections/covid-19-resources,0,,,,,,462,,,,,,,,,,,,,,,,,,
601,state,Maryland,BALTIMORE CENTRAL BOOKING INTAKE CENTER,2020-12-25,https://news.maryland.gov/dpscs/covid-19/,234,214,0,2,221,180,,5355,,,,,,,,166,300 E MADISON ST,21202,BALTIMORE,BALTIMORE CITY,39.2990497,-76.6104617,24510,10004034,
602,state,Maryland,BCCC BALTIMORE CITY CC,2020-12-25,https://news.maryland.gov/dpscs/covid-19/,8,28,0,0,6,12,,131,,,,,,,,503,901 GREENMOUNT AVE,21202,BALTIMORE,BALTIMORE CITY,39.3003053,-76.606507,24510,10001552,
605,state,Maryland,CDF CHESAPEAKE DETENTION FACILITY,2020-12-25,https://news.maryland.gov/dpscs/covid-19/,26,46,0,0,20,42,,269,,,,,,,,415,401 E MADISON ST,21202,BALTIMORE,BALTIMORE CITY,39.29832772,-76.60941485,24510,10000917,
604,state,Maryland,CMCF CENTRAL MARYLAND CF,2020-12-25,https://news.maryland.gov/dpscs/covid-19/,113,29,2,0,64,23,,145,,,,,,,,,,,,,,,17015,,
204,federal,Maryland,CUMBERLAND FCI,2020-12-25,https://www.bop.gov/coronavirus/,262,,0,0,234,32,,,,,3,,,,,1011,14601 BURBRIDGE RD SE,21502,CUMBERLAND,ALLEGANY,39.59681,-78.75294,24001,10004024,
607,state,Maryland,DRCF DORSEY RUN CF,2020-12-25,https://news.maryland.gov/dpscs/covid-19/,64,49,1,0,61,48,,352,,,,,,,,553,2020 TOULSON ROAD,20794,JESSUP,ANNE ARUNDEL,39.13906251,-76.77697334,24003,10006353,
609,state,Maryland,ECI EASTERN CI,2020-12-25,https://news.maryland.gov/dpscs/covid-19/,804,171,0,0,675,146,,1084,,,,,,,,2604,30420 REVELLS NECK RD,21890,WESTOVER,SOMERSET,38.15738518,-75.70440049,24039,10001569,
611,state,Maryland,EPRU EASTERN PRE RELEASE UNIT,2020-12-25,https://news.maryland.gov/dpscs/covid-19/,0,2,0,0,0,1,,47,,,,,,,,,,,,,,,,,
617,state,Maryland,JESSUP CORRECTIONAL INSTITUTION,2020-12-25,https://news.maryland.gov/dpscs/covid-19/,194,105,2,0,151,95,,1171,,,,,,,,997,7803 House of Correction Rd,20794,JESSUP,ANNE ARUNDEL,39.1416755,-76.7703613,24003,10001560,
1726,federal,Maryland,JESUP FCI,2020-12-25,https://www.bop.gov/coronavirus/,414,,1,0,422,3,,,,,7,,,,,,,,,,,,,,
1866,state,Maryland,MARYLAND CORRECTIONAL INSTITUTION JESSUP,2020-12-25,https://news.maryland.gov/dpscs/covid-19/,161,48,0,0,150,46,,547,,,,,,,,,,,,,39.1416755,-76.7703613,,,
620,state,Maryland,MARYLAND CORRECTIONAL TRAINING CENTER HAGERSTOWN,2020-12-25,https://news.maryland.gov/dpscs/covid-19/,61,88,0,0,22,34,,592,,,,,,,,2436,18800 ROXBURY RD,21746,HAGERSTOWN,WASHINGTON,39.56483486,-77.71487398,24043,10001546,
616,state,Maryland,MCI H MARYLAND CI HAGERSTOWN,2020-12-25,https://news.maryland.gov/dpscs/covid-19/,122,70,3,0,115,62,,594,,,,,,,,,,,,,,,24043,,
615,state,Maryland,MCI W MARYLAND CI FOR WOMEN,2020-12-25,https://news.maryland.gov/dpscs/covid-19/,44,85,0,0,30,77,,574,,,,,,,,777,7943 BROCK BRIDGE RD,20794,JESSUP,ANNE ARUNDEL,39.132672,-76.775413,24003,10001559,
290,federal,Maryland,MID ATLANTIC RO,2020-12-25,https://www.bop.gov/coronavirus/,,,0,0,0,6,,,,,,,,,,,,,,,,,,,
622,state,Maryland,MRDCC MARYLAND RECEPTION DIAGNOSTICS AND CLASSICIATION CENTER,2020-12-25,https://news.maryland.gov/dpscs/covid-19/,58,66,0,0,29,48,,361,,,,,,,,352,550 E MADISON ST,21202,BALTIMORE,BALTIMORE CITY,39.2991796,-76.6068221,24510,10000918,
623,state,Maryland,MTC METROPOLITAN TRANSITION CENTER BALTIMORE,2020-12-25,https://news.maryland.gov/dpscs/covid-19/,125,100,1,0,113,94,,713,,,,,,,,202,954 FORREST ST,21202,BALTIMORE,BALTIMORE CITY,39.30006162,-76.60856614,24510,10004035,
626,state,Maryland,NBCI NORTH BRANCH CI,2020-12-25,https://news.maryland.gov/dpscs/covid-19/,331,133,2,0,307,110,,562,,,,,,,,1252,14100 MCMULLEN HWY SW,21502,CUMBERLAND,ALLEGANY,39.60247303,-78.81802382,24001,10001543,
625,state,Maryland,NON RESIDENTIAL LOCATION,2020-12-25,https://news.maryland.gov/dpscs/covid-19/,5,39,1,0,3,35,,615,,,,,,,,,,,,,,,,,
627,state,Maryland,PATX PATUXENT INSTITUTION,2020-12-25,https://news.maryland.gov/dpscs/covid-19/,40,83,1,0,39,73,,581,,,,,,,,915,7555 WATERLOO RD,20794,JESSUP,HOWARD,39.1640425,-76.7803021,24027,10002364,
628,state,Maryland,RCI ROXBURY CI,2020-12-25,https://news.maryland.gov/dpscs/covid-19/,189,62,1,0,187,57,,454,,,,,,,,1749,18701 ROXBURY RD,21746,HAGERSTOWN,WASHINGTON,39.5585136,-77.7151794,24043,10001547,
629,state,Maryland,SMPRU SOUTHERN MARYLAND PRE RELEASE UNIT,2020-12-25,https://news.maryland.gov/dpscs/covid-19/,0,4,0,0,0,3,,46,,,,,,,,,,,,,,,24037,,
631,state,Maryland,WCI WESTERN CI,2020-12-25,https://news.maryland.gov/dpscs/covid-19/,232,123,2,0,178,101,,795,,,,,,,,1606,13800 MCMULLEN HWY SW,21502,CUMBERLAND,ALLEGANY,39.60675169,-78.81541984,24001,10001542,
632,state,Maryland,YDC YOUTH DETENTION CENTER,2020-12-25,https://news.maryland.gov/dpscs/covid-19/,6,15,0,0,5,11,,161,,,,,,,,,,,,,,,,,
633,state,Massachusetts,BOSTON PRE,2020-12-25,https://www.mass.gov/guides/doc-coronavirus-information-guide,0,11,,,,,,69,,,,,,,,106,430 CANTERBURY ST,2131,ROSLINDALE,SUFFOLK,42.29249533,-71.10138368,25025,10002095,
634,state,Massachusetts,BSH,2020-12-25,https://www.mass.gov/guides/doc-coronavirus-information-guide,18,3,,,,,,1,,,,,,,,191,20 ADMINISTRATION RD,2324,BRIDGEWATER,PLYMOUTH,41.94236268,-70.95533897,25023,10002097,
1409,federal,Massachusetts,COOLIDGE HOUSE,2020-12-25,https://www.bop.gov/coronavirus/,6,,0,0,2,0,,,,,0,,,,,,,,,,,,,,
207,federal,Massachusetts,DEVENS FMC,2020-12-25,https://www.bop.gov/coronavirus/,150,,2,0,44,21,,,,,0,,,,,999,42 PATTON ROAD,1434,DEVENS,WORCESTER,42.52538943,-71.62068113,25027,10004446,
635,state,Massachusetts,LSH,2020-12-25,https://www.mass.gov/guides/doc-coronavirus-information-guide,8,9,,,,,,128,,,,,,,,19,180 MORTON ST,2130,JAMAICA PLAIN,SUFFOLK,42.29954332,-71.10186116,25025,10001401,
638,state,Massachusetts,MASAC,2020-12-25,https://www.mass.gov/guides/doc-coronavirus-information-guide,39,4,,,,,,159,,,,,,,,262,1 BUMP POND RD,2360,PLYMOUTH,PLYMOUTH,41.84954067,-70.66055521,25023,10001404,
639,state,Massachusetts,MCI C,2020-12-25,https://www.mass.gov/guides/doc-coronavirus-information-guide,291,67,,,,,,612,,,,,,,,478,99 LORING DRIVE,1701,FRAMINGHAM,MIDDLESEX,42.26751289,-71.40741919,25017,10004444,
640,state,Massachusetts,MCI CJ,2020-12-25,https://www.mass.gov/guides/doc-coronavirus-information-guide,9,35,,,,,,345,,,,,,,,711,2405 MAIN ST,2071,SOUTH WALPOLE,NORFOLK,42.10625584,-71.28979656,25021,10001408,
641,state,Massachusetts,MCI F,2020-12-25,https://www.mass.gov/guides/doc-coronavirus-information-guide,87,26,,,,,,75,,,,,,,,478,99 LORING DRIVE,1701,FRAMINGHAM,MIDDLESEX,42.26751289,-71.40741919,25017,10004444,
642,state,Massachusetts,MCI NORFOLK,2020-12-25,https://www.mass.gov/guides/doc-coronavirus-information-guide,448,52,,,,,,760,,,,,,,,1251,2 CLARK ST,2056,NORFOLK,NORFOLK,42.11912903,-71.30417136,25021,10002101,
643,state,Massachusetts,MCI SHIRLEY,2020-12-25,https://www.mass.gov/guides/doc-coronavirus-information-guide,483,71,,,,,,256,,,,,,,,992,1 HARVARD RD,1464,SHIRLEY,MIDDLESEX,42.52777547,-71.64478578,25017,10001393,
645,state,Massachusetts,MTC,2020-12-25,https://www.mass.gov/guides/doc-coronavirus-information-guide,161,36,,,,,,169,,,,,,,,499,30 ADMINISTRATION RD,2324,BRIDGEWATER,PLYMOUTH,41.94603,-70.95615,25023,10002098,
646,state,Massachusetts,NCCI GARDN,2020-12-25,https://www.mass.gov/guides/doc-coronavirus-information-guide,208,19,,,,,,64,,,,,,,,959,500 COLONY ROAD,1440,GARDNER,WORCESTER,42.57979064,-71.94163001,25027,10004449,
647,state,Massachusetts,NECC,2020-12-25,https://www.mass.gov/guides/doc-coronavirus-information-guide,0,10,,,,,,50,,,,,,,,193,1 BARRETTS MILL RD,1742,WEST CONCORD,MIDDLESEX,42.47226271,-71.3979684,25017,10001392,
648,state,Massachusetts,NON FACILITY,2020-12-25,https://www.mass.gov/guides/doc-coronavirus-information-guide,0,42,,,,,,636,,,,,,,,,,,,,,,,,
649,state,Massachusetts,OCCC,2020-12-25,https://www.mass.gov/guides/doc-coronavirus-information-guide,24,41,,,,,,624,,,,,,,,702,1 ADMINISTRATION ROAD,2324,BRIDGEWATER,PLYMOUTH,41.949505,-70.958108,25023,10004451,
650,state,Massachusetts,PONDVILLE,2020-12-25,https://www.mass.gov/guides/doc-coronavirus-information-guide,1,8,,,,,,8,,,,,,,,150,1 INDUSTRIES DR,2056,NORFOLK,NORFOLK,42.10844241,-71.29302577,25021,10000282,
651,state,Massachusetts,SBCC,2020-12-25,https://www.mass.gov/guides/doc-coronavirus-information-guide,2,24,,,,,,620,,,,,,,,1075,1 HARVARD RD,1464,SHIRLEY,WORCESTER,42.5323792,-71.6506575,25027,10001396,
652,state,Massachusetts,SMCC,2020-12-25,https://www.mass.gov/guides/doc-coronavirus-information-guide,0,1,,,,,,2,,,,,,,,112,135 WESTERN AVENUE,1701,FRAMINGHAM,MIDDLESEX,42.26527533,-71.40592072,25017,10004443,
654,state,Michigan,ALGER CORRECTIONAL FACILITY,2020-12-25,https://medium.com/@MichiganDOC/mdoc-takes-steps-to-prevent-spread-of-coronavirus-covid-19-250f43144337,131,17,0,0,,,,,722,,,,,,5,886,N6141 INDUSTRIAL PARK DR,49862,MUNISING,ALGER,46.37861565,-86.63961732,26003,10000264,
655,state,Michigan,BARAGA CORRECTIONAL FACILITY,2020-12-25,https://medium.com/@MichiganDOC/mdoc-takes-steps-to-prevent-spread-of-coronavirus-covid-19-250f43144337,166,62,1,0,,,,,642,,,,,,100,787,13924 WADAGA RD,49908,BARAGA,BARAGA,46.76254867,-88.51121638,26013,10001346,
