Facility.ID,jurisdiction,State,Name,Date,source,Residents.Confirmed,Staff.Confirmed,Residents.Deaths,Staff.Deaths,Residents.Recovered,Staff.Recovered,Residents.Tadmin,Staff.Tested,Residents.Negative,Staff.Negative,Residents.Pending,Staff.Pending,Residents.Quarantine,Staff.Quarantine,Residents.Active,Residents.Population,Address,Zipcode,City,County,Latitude,Longitude,County.FIPS,HIFLD.ID
1,state,Alabama,ALABAMA HEADQUARTERS,2021-02-08,http://www.doc.alabama.gov/covid19news,0,68,0,0,0,56,,,,,0,,,,0,,,,,,,,,
2,state,Alabama,ALABAMA TREATMENT AND EDUCATION FACILITY,2021-02-08,http://www.doc.alabama.gov/covid19news,10,2,1,0,9,2,,,,,1,,,,0,281,102 INDUSTRIAL PARKWAY,35051,COLUMBIANA,SHELBY,33.18100499,-86.62401724,1117,10006524
3,state,Alabama,ALEX CITY COMMUNITY BASED FACILITY,2021-02-08,http://www.doc.alabama.gov/covid19news,36,15,0,0,4,9,,,,,43,,,,32,201,HIGHWAY 22 WEST,35011,ALEX CITY,COOSA,32.90447114,-86.00896897,1037,10003721
4,federal,Alabama,ALICEVILLE FEDERAL CORRECTIONAL INSTITUTION,2021-02-08,https://www.bop.gov/mobile/about/population_statistics.jsp; https://www.bop.gov/coronavirus/,81,,0,0,60,9,,,,,3,,,,,1267,11070 HIGHWAY 14,35442,ALICEVILLE,PICKENS,33.17626974,-88.19304609,10107,10006173
5,state,Alabama,BIBB CORRECTIONAL FACILITY,2021-02-08,http://www.doc.alabama.gov/covid19news,164,60,3,0,161,51,,,,,0,,,,0,1808,565 BIBB LANE,35034,BRENT,BIBB,32.92242,-87.16458,1007,10001954
6,state,Alabama,BIRMINGHAM COMMUNITY BASED FACILITY,2021-02-08,http://www.doc.alabama.gov/covid19news,17,28,0,0,17,28,,,,,0,,,,0,239,1216 25TH ST N,35234,BIRMINGHAM,JEFFERSON,33.53104632,-86.80836181,1073,10001204
7,state,Alabama,BULLOCK CORRECTIONAL FACILITY,2021-02-08,http://www.doc.alabama.gov/covid19news,159,77,4,1,145,58,,,,,0,,,,10,1343,104 BULLOCK DR,36089,UNION SPRINGS,BULLOCK,32.14940285,-85.67232013,1011,10001223
8,state,Alabama,CAMDEN COMMUNITY BASED FACILITY,2021-02-08,http://www.doc.alabama.gov/covid19news,5,3,0,0,5,2,,,,,0,,,,0,93,1780 ALABAMA HWY 221,36726,CAMDEN,WILCOX,31.99483708,-87.33312321,1131,10000142
9,state,Alabama,CHILDERSBURG COMMUNITY BASED FACILITY,2021-02-08,http://www.doc.alabama.gov/covid19news,5,14,0,0,5,11,,,,,0,,,,0,368,13501 PLANT RD,35014,ALPINE,TALLADEGA,33.36493323,-86.33219762,1121,10001209
11,state,Alabama,DONALDSON CORRECTIONAL FACILITY,2021-02-08,http://www.doc.alabama.gov/covid19news,45,26,2,0,43,25,,,,,0,,,,0,1386,100 WARRIOR LN,35023,BESSEMER,JEFFERSON,33.51366663,-87.18478369,1073,10000132
12,state,Alabama,DRAPER QUARANTINE INTAKE FACILITY,2021-02-08,http://www.doc.alabama.gov/covid19news,95,0,0,0,94,0,,,,,0,,,,1,,,,,,,,,
13,state,Alabama,EASTERLING CORRECTIONAL FACILITY,2021-02-08,http://www.doc.alabama.gov/covid19news,63,35,1,0,56,29,,,,,0,,,,6,1229,200 WALLACE DR,36017,CLIO,BARBOUR,31.68938149,-85.58555889,1005,10000144
14,state,Alabama,ELBA COMMUNITY BASED FACILITY,2021-02-08,http://www.doc.alabama.gov/covid19news,1,8,0,0,1,2,,,,,0,,,,0,130,1620 BOSWELL ST,36323,ELBA,COFFEE,31.41312386,-86.08373748,1031,10001226
15,state,Alabama,ELMORE CORRECTIONAL FACILITY,2021-02-08,http://www.doc.alabama.gov/covid19news,27,18,0,0,27,18,,,,,2,,,,0,1161,3520 MARION SPILLWAY ROAD,36025,ELMORE,ELMORE,32.57430479,-86.32080582,1051,10001214
16,state,Alabama,FOUNTAIN CORRECTIONAL FACILITY,2021-02-08,http://www.doc.alabama.gov/covid19news,28,46,1,0,27,38,,,,,1,,,,0,1136,9677 AL HWY 21 N,36503,ATMORE,ESCAMBIA,31.15658,-87.46372,1053,10001957
17,state,Alabama,FRANK LEE COMMUNITY BASED FACILITY,2021-02-08,http://www.doc.alabama.gov/covid19news,26,22,0,0,20,10,,,,,0,,,,6,285,5305 INGRAM RD.,36022,DEATSVILLE,ELMORE,32.58235451,-86.39221844,1051,10003728
18,state,Alabama,HAMILTON AGED AND INFIRMED,2021-02-08,http://www.doc.alabama.gov/covid19news,47,39,13,0,33,38,,,,,0,,,,1,243,223 SASSER DR,35570,HAMILTON,MARION,34.12434611,-87.99171938,1093,10001197
19,state,Alabama,HAMILTON COMMUNITY BASED FACILITY,2021-02-08,http://www.doc.alabama.gov/covid19news,8,22,2,0,6,21,,,,,0,,,,0,220,1826 BEXAR AVE E,35570,HAMILTON,MARION,34.14329559,-87.95895958,1093,10001199
20,state,Alabama,HOLMAN CORRECTIONAL FACILITY,2021-02-08,http://www.doc.alabama.gov/covid19news,39,32,2,0,35,30,,,,,0,,,,2,700,866 ROSS RD,36503,ATMORE,ESCAMBIA,31.13438612,-87.4498642,1053,10000149
22,state,Alabama,KILBY CORRECTIONAL FACILITY,2021-02-08,http://www.doc.alabama.gov/covid19news,15,42,2,0,10,37,,,,,1,,,,3,1231,12201 WARES FERRY RD,36117,MONTGOMERY,MONTGOMERY,32.38835654,-86.1009811,1101,10001221
23,state,Alabama,LIMESTONE CORRECTIONAL FACILITY,2021-02-08,http://www.doc.alabama.gov/covid19news,151,104,4,0,147,95,,,,,0,,,,0,2107,28779 NICK DAVIS RD,35749,HARVEST,LIMESTONE,34.81254392,-86.80413307,1083,10000129
24,state,Alabama,LOXLEY COMMUNITY BASED FACILITY,2021-02-08,http://www.doc.alabama.gov/covid19news,106,14,0,0,106,14,,,,,0,,,,0,356,14880 COUNTY RD 64,36551,LOXLEY,BALDWIN,30.6153358,-87.77030984,1003,10000146
25,state,Alabama,MOBILE COMMUNITY BASED FACILITY,2021-02-08,http://www.doc.alabama.gov/covid19news,13,20,0,0,4,7,,,,,0,,,,9,192,2423 N BELTLINE HWY,36610,PRITCHARD,MOBILE,30.73788106,-88.10905742,1097,10000150
26,federal,Alabama,MONTGOMERY FEDERAL PRISON CAMP,2021-02-08,https://www.bop.gov/mobile/about/population_statistics.jsp; https://www.bop.gov/coronavirus/,110,,0,0,86,2,,,,,0,,,,,858,MAXWELL AIR FORCE BASE,36112,MONTGOMERY,MONTGOMERY,32.39424124,-86.35915818,1101,10000141
27,state,Alabama,MONTGOMERY WOMENS FACILITY,2021-02-08,http://www.doc.alabama.gov/covid19news,1,11,0,0,1,7,,,,,0,,,,0,274,12085 WARES FERRY RD,36117,MONTGOMERY,MONTGOMERY,32.38964157,-86.09912245,1101,10001222
28,state,Alabama,NORTH ALABAMA COMMUNITY BASED FACILITY,2021-02-08,http://www.doc.alabama.gov/covid19news,87,30,0,0,86,29,,,,,0,,,,1,555,1401 STATE HIGHWAY 20 WEST,35601,DECATUR,MORGAN,34.61756728,-87.00562813,1103,10003698
29,state,Alabama,RED EAGLE COMMUNITY BASED FACILITY,2021-02-08,http://www.doc.alabama.gov/covid19news,18,20,0,0,10,10,,,,,0,,,,8,333,1290 RED EAGLE RD,36110,MONTGOMERY,MONTGOMERY,32.46559439,-86.23690422,1101,10001218
31,federal,Alabama,RRC BIRMINGHAM ALABAMA,2021-02-08,https://www.bop.gov/coronavirus/,5,,0,0,5,0,,,,,0,,,,,,,,,,,,,
32,federal,Alabama,RRC SPANISH FORT ALABAMA,2021-02-08,https://www.bop.gov/coronavirus/,0,,0,0,0,0,,,,,1,,,,,,,,,,,,,
33,state,Alabama,ST CLAIR CORRECTIONAL FACILITY,2021-02-08,http://www.doc.alabama.gov/covid19news,105,57,16,0,88,52,,,,,0,,,,1,964,1000 SAINT CLAIR ROAD,35146,SPRINGVILLE,ST CLAIR,33.74558817,-86.38437373,1115,10003710
35,state,Alabama,STATON CORRECTIONAL FACILITY,2021-02-08,http://www.doc.alabama.gov/covid19news,58,58,7,0,48,50,,,,,0,,,,3,1303,2690 MARION SPILLWAY RD,36025,ELMORE,ELMORE,32.577215700000004,-86.33248852,1051,10000140
37,federal,Alabama,TALLADEGA FEDERAL CORRECTIONAL INSTITUTION,2021-02-08,https://www.bop.gov/mobile/about/population_statistics.jsp; https://www.bop.gov/coronavirus/,253,,3,0,247,9,,,,,0,,,,,793,565 EAST RENFROE ROAD,35160,TALLADEGA,TALLADEGA,33.42063528,-86.14008892,1121,10000136
39,state,Alabama,TUTWILER PRISON FOR WOMEN,2021-02-08,http://www.doc.alabama.gov/covid19news,16,60,1,2,15,53,,,,,1,,,,0,565,8966 US HWY 231 N,36092,WETUMPKA,ELMORE,32.5640382,-86.1940048,1051,10001216
40,state,Alabama,TUTWILER QUARANTINE INTAKE FACILITY,2021-02-08,http://www.doc.alabama.gov/covid19news,28,0,0,0,28,0,,,,,0,,,,0,,,,,,,,,
41,state,Alabama,VENTRESS CORRECTIONAL FACILITY,2021-02-08,http://www.doc.alabama.gov/covid19news,71,44,1,0,19,34,,,,,2,,,,51,1245,379 ALABAMA HWY 239 N,36016,CLAYTON,BARBOUR,31.88902864,-85.49299808,1005,10000143
45,state,Alaska,STATEWIDE,2021-02-08,https://doc.alaska.gov/covid-19,2298,,5,,,,21738,,18759,,157,,,,,,,,,,,,,
46,federal,Arizona,BEHAVIORAL SYSTEMS SOUTHWEST INC RRC PHOENIX,2021-02-08,https://www.bop.gov/coronavirus/,4,,1,0,2,0,,,,,0,,,,,,2846 E ROOSEVELT ST,85008,PHOENIX,,33.4588091,-112.0198483,4013,
47,state,Arizona,CENTRAL ARIZONA CORRECTIONAL FACILITY,2021-02-08,https://corrections.az.gov/adcrr-covid-19-dashboard?order=title_field&sort=asc,69,,3,,64,,,,1130,,0,,,,,1273,1401 E DIVERSION DAM RD,85132,FLORENCE,PINAL,33.03731012,-111.3727528,4021,10000618
48,federal,Arizona,CENTRAL ARIZONA FLORENCE CORRECTIONAL COMPLEX,2021-02-08,https://www.bop.gov/coronavirus/,2,,0,0,2,0,,,,,0,,,,,1278,1155 N PINAL PKWY,85132,FLORENCE,PINAL,33.04417322,-111.3754981,4021,10000619
50,federal,Arizona,DISMAS CHARITIES RRC TUCSON,2021-02-08,https://www.bop.gov/coronavirus/,11,,0,0,11,0,,,,,1,,,,,,,,,,32.1848502,-110.9184934,,
51,state,Arizona,DOUGLAS STATE PRISON,2021-02-08,https://corrections.az.gov/adcrr-covid-19-dashboard?order=title_field&sort=asc,1130,,0,,1100,,,,985,,0,,,,,2086,6911 N BDI BLVD,85607,DOUGLAS,COCHISE,31.46242829,-109.5912299,4003,10000632
52,state,Arizona,EYMAN STATE PRISON,2021-02-08,https://corrections.az.gov/adcrr-covid-19-dashboard?order=title_field&sort=asc,1965,,8,,908,,,,3483,,0,,,,,5693,4374 E BUTTE AVE,85132,FLORENCE,PINAL,33.03691871,-111.3264441,4021,10000615
53,state,Arizona,FLORENCE STATE PRISON,2021-02-08,https://corrections.az.gov/adcrr-covid-19-dashboard?order=title_field&sort=asc,414,,13,,388,,,,2784,,0,,,,,3924,1305 E. BUTTE AVE,85132,FLORENCE,PINAL,33.02816949,-111.3707281,4021,10003976
54,state,Arizona,FLORENCE WEST STATE PRISON,2021-02-08,https://corrections.az.gov/adcrr-covid-19-dashboard?order=title_field&sort=asc,0,,0,,0,,,,471,,0,,,,,742,"915 EAST DIVERSION DAM ROAD, PO BOX 1599",85132,FLORENCE,PINAL,33.037233,-111.376527,4021,10006312
55,state,Arizona,KINGMAN STATE PRISON,2021-02-08,https://corrections.az.gov/adcrr-covid-19-dashboard?order=title_field&sort=asc,639,,2,,109,,,,2024,,0,,,,,3360,4626 WEST ENGLISH DRIVE,86414,GOLDEN VALLEY,MOHAVE,35.02891497,-114.1796097,4015,10003957
56,state,Arizona,LEWIS STATE PRISON,2021-02-08,https://corrections.az.gov/adcrr-covid-19-dashboard?order=title_field&sort=asc,1205,,2,,788,,,,3119,,0,,,,,4623,26700 S HWY 85,85326,BUCKEYE,MARICOPA,33.2085241,-112.6514629,4013,10000605
57,state,Arizona,MARANA STATE PRISON,2021-02-08,https://corrections.az.gov/adcrr-covid-19-dashboard?order=title_field&sort=asc,21,,0,,21,,,,329,,0,,,,,487,12610 W SILVERBELL RD,85653,MARANA,PIMA,32.41791032,-111.2412161,4019,10000626
58,county,Arizona,MARICOPA COUNTY JAIL,2021-02-08,https://www.maricopa.gov/5574/COVID-19-in-County-Jails,2430,,0,,,,29069,,,,,,,,63,,,,PHOENIX,MARICOPA,33.44552,-112.0784,4013,
59,state,Arizona,MARICOPA REEENTRY CENTER,2021-02-08,https://corrections.az.gov/adcrr-covid-19-dashboard?order=title_field&sort=asc,0,,0,,0,,,,0,,0,,,,,62,24601 N 29TH AVE,85027,PHOENIX,MARICOPA,33.70669655,-112.1194385,4013,10002246
60,state,Arizona,PERRYVILLE STATE PRISON,2021-02-08,https://corrections.az.gov/adcrr-covid-19-dashboard?order=title_field&sort=asc,205,,0,,157,,,,4232,,0,,,,,4336,2105 N CITRUS RD,85395,GOODYEAR,MARICOPA,33.47038654,-112.4377658,4013,10000606
61,federal,Arizona,PHOENIX FEDERAL CORRECTIONAL INSTITUTION,2021-02-08,https://www.bop.gov/mobile/about/population_statistics.jsp; https://www.bop.gov/coronavirus/,504,,1,0,488,52,,,,,5,,,,,,,,,,33.8328213,-112.1706131,,
62,state,Arizona,PHOENIX STATE PRISON,2021-02-08,https://corrections.az.gov/adcrr-covid-19-dashboard?order=title_field&sort=asc,595,,0,,526,,,,3585,,0,,,,,544,2500 E VAN BUREN ST,85008,PHOENIX,MARICOPA,33.45312989,-112.0250399,4013,10002245
63,state,Arizona,PHOENIX WEST STATE PRISON,2021-02-08,https://corrections.az.gov/adcrr-covid-19-dashboard?order=title_field&sort=asc,44,,1,,42,,,,327,,0,,,,,498,3402 W COCOPAH ST,85009,PHOENIX,MARICOPA,33.43277711,-112.1326085,4013,10002244
64,state,Arizona,PIMA REENTRY CENTER,2021-02-08,https://corrections.az.gov/adcrr-covid-19-dashboard?order=title_field&sort=asc,0,,0,,0,,,,0,,0,,,,,72,1275 W STARR PASS BLVD,85713,TUCSON,PIMA,32.2037634,-110.9909333,4019,10000630
65,state,Arizona,RED ROCK STATE PRISON,2021-02-08,https://corrections.az.gov/adcrr-covid-19-dashboard?order=title_field&sort=asc,119,,0,,119,,,,1550,,0,,,,,1956,1750 EAST ARICA ROAD,85131,ELOY,PINAL,32.81056,-111.5196,4021,10003974
66,federal,Arizona,SAFFORD FEDERAL CORRECTIONAL INSTITUTION,2021-02-08,https://www.bop.gov/mobile/about/population_statistics.jsp; https://www.bop.gov/coronavirus/,622,,0,0,604,34,,,,,0,,,,,,,,,,32.7171048,-109.7271215,,
67,state,Arizona,SAFFORD STATE PRISON,2021-02-08,https://corrections.az.gov/adcrr-covid-19-dashboard?order=title_field&sort=asc,847,,0,,628,,,,720,,0,,,,,1579,896 S COOK RD,85546,SAFFORD,GRAHAM,32.82810149,-109.5636396,4009,10002248
68,state,Arizona,STATEWIDE,2021-02-08,https://corrections.az.gov/adcrr-covid-19-dashboard?order=title_field&sort=asc,,2592,,,,2355,,,,,,,,,,,,,,,,,,
69,federal,Arizona,TUCSON FEDERAL CORRECTIONAL INSTITUTION,2021-02-08,https://www.bop.gov/mobile/about/population_statistics.jsp; https://www.bop.gov/coronavirus/,144,,0,0,144,30,,,,,12,,,,,630,8901 S WILMOT RD,85706,TUCSON,PIMA,32.08957049,-110.8562398,4019,10000624
70,state,Arizona,TUCSON STATE PRISON,2021-02-08,https://corrections.az.gov/adcrr-covid-19-dashboard?order=title_field&sort=asc,2134,,13,,1494,,,,3493,,0,,,,,5132,10000 S WILMOT RD,85734,TUCSON,PIMA,32.06640097,-110.8663122,4019,10000628
71,federal,Arizona,TUCSON UNITED STATES PENITENTIARY,2021-02-08,https://www.bop.gov/mobile/about/population_statistics.jsp; https://www.bop.gov/coronavirus/,887,,10,0,894,47,,,,,4,,,,,1385,9300 S WILMOT RD,85756,TUCSON,PIMA,32.08384226,-110.867108,4019,10000627
72,state,Arizona,WINSLOW STATE PRISON,2021-02-08,https://corrections.az.gov/adcrr-covid-19-dashboard?order=title_field&sort=asc,218,,0,,144,,,,1066,,0,,,,,1295,2100 S HWY 87,86047,WINSLOW,NAVAJO,34.98471625,-110.7210891,4017,10000595
73,state,Arizona,YUMA STATE PRISON,2021-02-08,https://corrections.az.gov/adcrr-covid-19-dashboard?order=title_field&sort=asc,2006,,7,,1727,,,,2659,,0,,,,,4876,7125 E JUAN SANCHEZ BLVD,85349,SAN LUIS,YUMA,32.48750181,-114.6397153,4027,10000622
74,federal,Arkansas,CITY FAITH LITTLE ROCK AR,2021-02-08,https://www.bop.gov/coronavirus/,1,,0,0,1,0,,,,,0,,,,,,,,,,34.739751,-92.344458,,
79,federal,Arkansas,FORREST CITY LOW FEDERAL CORRECTIONAL INSTITUTION,2021-02-08,https://www.bop.gov/coronavirus/,662,,0,0,746,4,,,,,0,,,,,1821,1400 DALE BUMPERS ROAD,72335,FORREST CITY,ST FRANCIS,34.98233926,-90.80306156,5123,10003614
80,federal,Arkansas,FORREST CITY MEDIUM FEDERAL CORRECTIONAL INSTITUTION,2021-02-08,https://www.bop.gov/coronavirus/,392,,1,0,357,5,,,,,0,,,,,1821,1400 DALE BUMPERS ROAD,72335,FORREST CITY,ST FRANCIS,34.98233926,-90.80306156,5123,10003614
81,state,Arkansas,STATEWIDE,2021-02-08,https://doc.arkansas.gov/covid-19-updates/,10976,,,,8763,,,,,,,,,,99,,,,,,,,,
82,federal,California,ATWATER UNITED STATES PENITENTIARY,2021-02-08,https://www.bop.gov/mobile/about/population_statistics.jsp; https://www.bop.gov/coronavirus/,330,,0,0,288,49,,,,,5,,,,,,,,,,,,,
83,state,California,AVENAL STATE PRISON,2021-02-08,https://www.cdcr.ca.gov/covid19/cdcr-cchcs-covid-19-status/; https://www.cdcr.ca.gov/covid19/updates/,3105,516,8,,3011,505,,,,,,,,,3,4204,1 KINGS WAY,93204,AVENAL,KINGS,35.97394934,-120.1231018,6031,10000826
85,federal,California,BEHAVIORAL SYSTEMS SOUTHWEST RUBIDOUX,2021-02-08,https://www.bop.gov/coronavirus/,11,,0,0,8,0,,,,,0,,,,,,,,,,,,,
87,federal,California,BRAWLEY RRC,2021-02-08,https://www.bop.gov/coronavirus/,9,,1,0,8,0,,,,,0,,,,,,,,BRAWLEY,,32.979598,-115.5328039,,
88,state,California,CALIFORNIA CITY CORRECTIONAL FACILITY,2021-02-08,https://www.cdcr.ca.gov/covid19/cdcr-cchcs-covid-19-status/; https://www.cdcr.ca.gov/covid19/updates/,994,221,2,,965,213,,,,,,,,,19,2424,22844 VIRGINIA BLVD,93505,CALIFORNIA CITY,KERN,35.1532512,-117.8588801,6029,10000852
89,state,California,CALIFORNIA CORRECTIONAL CENTER,2021-02-08,https://www.cdcr.ca.gov/covid19/cdcr-cchcs-covid-19-status/; https://www.cdcr.ca.gov/covid19/updates/,1300,285,0,,1220,266,,,,,,,,,38,4049,711-045 CENTER ROAD,96127,SUSANVILLE,LASSEN,40.40195801,-120.5167302,6035,10000773
90,state,California,CALIFORNIA CORRECTIONAL INSTITUTION,2021-02-08,https://www.cdcr.ca.gov/covid19/cdcr-cchcs-covid-19-status/; https://www.cdcr.ca.gov/covid19/updates/,1361,626,4,,1240,606,,,,,,,,,43,3696,24900 HWY 202,93561,TEHACHAPI,KERN,35.10991489,-118.5703307,6029,10001530
91,state,California,CALIFORNIA HEALTH CARE FACILITY,2021-02-08,https://www.cdcr.ca.gov/covid19/cdcr-cchcs-covid-19-status/; https://www.cdcr.ca.gov/covid19/updates/,637,616,12,,584,568,,,,,,,,,34,2849,7707 AUSTIN ROAD,95215,STOCKTON,SAN JOAQUIN,37.8947278,-121.1848441,6077,10000799
92,state,California,CALIFORNIA INSTITUTION FOR MEN,2021-02-08,https://www.cdcr.ca.gov/covid19/cdcr-cchcs-covid-19-status/; https://www.cdcr.ca.gov/covid19/updates/,1500,576,27,,1431,558,,,,,,,,,3,3627,14901 CENTRAL AVENUE,91710,CHINO,SAN BERNARDINO,33.98471223,-117.6823919,6071,10000836
93,state,California,CALIFORNIA INSTITUTION FOR WOMEN,2021-02-08,https://www.cdcr.ca.gov/covid19/cdcr-cchcs-covid-19-status/; https://www.cdcr.ca.gov/covid19/updates/,482,351,1,,448,333,,,,,,,,,23,1619,16756 CHINO-CORONA ROAD,92880,CORONA,SAN BERNARDINO,33.94974531,-117.636365,6071,10002341
94,state,California,CALIFORNIA MEDICAL FACILITY,2021-02-08,https://www.cdcr.ca.gov/covid19/cdcr-cchcs-covid-19-status/; https://www.cdcr.ca.gov/covid19/updates/,711,336,8,,674,328,,,,,,,,,25,2512,1600 CALIFORNIA DRIVE,95696,VACAVILLE,SOLANO,38.32851019,-121.9791645,6095,10000785
95,state,California,CALIFORNIA MENS COLONY,2021-02-08,https://www.cdcr.ca.gov/covid19/cdcr-cchcs-covid-19-status/; https://www.cdcr.ca.gov/covid19/updates/,2472,509,8,,2405,483,,,,,,,,,32,3758,COLONY DRIVE,93409,SAN LUIS OBISPO,SAN LUIS OBISPO,35.32457413,-120.6989005,6079,10002345
96,state,California,CALIFORNIA REHABILITATION CENTER,2021-02-08,https://www.cdcr.ca.gov/covid19/cdcr-cchcs-covid-19-status/; https://www.cdcr.ca.gov/covid19/updates/,1990,480,1,,1920,446,,,,,,,,,13,3802,3195 WESTERN AVENUE,92860,NORCO,RIVERSIDE,33.92691794,-117.5759442,6065,10000856
97,state,California,CALIFORNIA STATE PRISON CORCORAN,2021-02-08,https://www.cdcr.ca.gov/covid19/cdcr-cchcs-covid-19-status/; https://www.cdcr.ca.gov/covid19/updates/,1047,719,3,,957,678,,,,,,,,,79,3043,4001 KING AVENUE,93212,CORCORAN,KINGS,36.06081823,-119.549121,6031,10000824
98,state,California,CALIFORNIA STATE PRISON LOS ANGELES,2021-02-08,https://www.cdcr.ca.gov/covid19/cdcr-cchcs-covid-19-status/; https://www.cdcr.ca.gov/covid19/updates/,1506,592,13,,1463,574,,,,,,,,,20,3218,44750 60TH STREET WEST,93536,LANCASTER,LOS ANGELES,34.69359649,-118.2276136,6037,10002353
99,state,California,CALIFORNIA STATE PRISON SACRAMENTO,2021-02-08,https://www.cdcr.ca.gov/covid19/cdcr-cchcs-covid-19-status/; https://www.cdcr.ca.gov/covid19/updates/,290,303,0,,276,291,,,,,,,,,10,2354,100 PRISON ROAD,95671,REPRESA,SACRAMENTO,38.69444411,-121.1539037,6067,10002322
100,state,California,CALIFORNIA STATE PRISON SAN QUENTIN,2021-02-08,https://www.cdcr.ca.gov/covid19/cdcr-cchcs-covid-19-status/; https://www.cdcr.ca.gov/covid19/updates/,2238,427,28,,2151,422,,,,,,,,,2,4032,MAIN STREET,94964,SAN QUENTIN,MARIN,37.94003982,-122.4903665,6041,10000790
101,state,California,CALIFORNIA STATE PRISON SOLANO,2021-02-08,https://www.cdcr.ca.gov/covid19/cdcr-cchcs-covid-19-status/; https://www.cdcr.ca.gov/covid19/updates/,1134,244,4,,999,210,,,,,,,,,121,4306,2100 PEABODY ROAD,95687,VACAVILLE,SOLANO,38.32077652,-121.9752369,6095,10002323
102,state,California,CALIPATRIA STATE PRISON,2021-02-08,https://www.cdcr.ca.gov/covid19/cdcr-cchcs-covid-19-status/; https://www.cdcr.ca.gov/covid19/updates/,1077,356,1,,1004,349,,,,,,,,,56,3109,7018 BLAIR ROAD,92233,CALIPATRIA,IMPERIAL,33.16569337,-115.484344,6025,10002347
111,state,California,CENTINELA STATE PRISON,2021-02-08,https://www.cdcr.ca.gov/covid19/cdcr-cchcs-covid-19-status/; https://www.cdcr.ca.gov/covid19/updates/,858,414,1,,830,345,,,,,,,,,17,3475,2302 BROWN ROAD,92251,IMPERIAL,IMPERIAL,32.82339731,-115.7890555,6025,10002348
112,state,California,CENTRAL CALIFORNIA WOMENS FACILITY,2021-02-08,https://www.cdcr.ca.gov/covid19/cdcr-cchcs-covid-19-status/; https://www.cdcr.ca.gov/covid19/updates/,771,267,0,,745,254,,,,,,,,,25,2814,23370 ROAD 22,93610,CHOWCHILLA,MADERA,37.09368073,-120.1527098,6039,10000801
113,state,California,CHUCKAWALLA VALLEY STATE PRISON,2021-02-08,https://www.cdcr.ca.gov/covid19/cdcr-cchcs-covid-19-status/; https://www.cdcr.ca.gov/covid19/updates/,1780,273,9,,1742,262,,,,,,,,,1,2773,19025 WILEY'S WELL ROAD,92225,BLYTHE,RIVERSIDE,33.56257951,-114.9095058,6065,10002346
114,federal,California,CORRECTIONAL ALTERNATIVES INC RRC SAN DIEGO,2021-02-08,https://www.bop.gov/coronavirus/,13,,0,0,13,0,,,,,0,,,,,,,,,,,,,
115,state,California,CORRECTIONAL TRAINING FACILITY,2021-02-08,https://www.cdcr.ca.gov/covid19/cdcr-cchcs-covid-19-status/; https://www.cdcr.ca.gov/covid19/updates/,2716,333,17,,2588,319,,,,,,,,,80,5063,SOLEDAD PRISON ROAD,93960,SOLEDAD,MONTEREY,36.46964789,-121.3822324,6053,10000817
116,state,California,DEUEL VOCATIONAL INSTITUTION,2021-02-08,https://www.cdcr.ca.gov/covid19/cdcr-cchcs-covid-19-status/; https://www.cdcr.ca.gov/covid19/updates/,444,274,0,,341,258,,,,,,,,,100,2052,23500 KASSON ROAD,95304,TRACY,SAN JOAQUIN,37.74805759,-121.3306264,6077,10000794
117,federal,California,DUBLIN FEDERAL CORRECTIONAL INSTITUTION,2021-02-08,https://www.bop.gov/mobile/about/population_statistics.jsp; https://www.bop.gov/coronavirus/,291,,0,0,276,19,,,,,4,,,,,1019,5701 8TH STREET,94568,DUBLIN,ALAMEDA,37.71857929,-121.896971,6001,10005303
120,state,California,FOLSOM STATE PRISON,2021-02-08,https://www.cdcr.ca.gov/covid19/cdcr-cchcs-covid-19-status/; https://www.cdcr.ca.gov/covid19/updates/,1361,211,2,,1339,199,,,,,,,,,8,2871,300 PRISON ROAD,95671,REPRESA,SACRAMENTO,38.69538339,-121.1630324,6067,10000780
123,federal,California,GEO CARE EL MONTE,2021-02-08,https://www.bop.gov/coronavirus/,8,,0,0,6,0,,,,,0,,,,,,,,,,,,,
125,federal,California,GEO REENTRY OF ALASKA INC RRC OAKLAND,2021-02-08,https://www.bop.gov/coronavirus/,3,,0,0,2,0,,,,,0,,,,,,,,,,,,2020,
126,federal,California,GEO TAYLOR ST FACILITY RRC,2021-02-08,https://www.bop.gov/coronavirus/,7,,0,0,3,0,,,,,0,,,,,,,,,,,,,
127,federal,California,HERLONG FEDERAL CORRECTIONAL INSTITUTION,2021-02-08,https://www.bop.gov/mobile/about/population_statistics.jsp; https://www.bop.gov/coronavirus/,261,,0,0,241,16,,,,,2,,,,,,,,,,,,,
128,state,California,HIGH DESERT STATE PRISON,2021-02-08,https://www.cdcr.ca.gov/covid19/cdcr-cchcs-covid-19-status/; https://www.cdcr.ca.gov/covid19/updates/,2002,551,2,,1971,530,,,,,,,,,23,3161,475-750 RICE CANYON ROAD,96127,SUSANVILLE,LASSEN,40.4034569,-120.5258579,6035,10002310
129,state,California,IRONWOOD STATE PRISON,2021-02-08,https://www.cdcr.ca.gov/covid19/cdcr-cchcs-covid-19-status/; https://www.cdcr.ca.gov/covid19/updates/,1472,373,1,,1094,358,,,,,,,,,368,2896,19005 WILEY'S WELL ROAD,92225,BLYTHE,RIVERSIDE,33.56098104,-114.9260354,6065,10000861
131,state,California,KERN VALLEY STATE PRISON,2021-02-08,https://www.cdcr.ca.gov/covid19/cdcr-cchcs-covid-19-status/; https://www.cdcr.ca.gov/covid19/updates/,885,535,6,,866,518,,,,,,,,,7,3551,3000 WEST CECIL AVENUE,93216,DELANO,KERN,35.76647437,-119.3253627,6029,10000844
132,federal,California,LOMPOC FEDERAL CORRECTIONAL INSTITUTION,2021-02-08,https://www.bop.gov/mobile/about/population_statistics.jsp; https://www.bop.gov/coronavirus/,639,,3,0,650,22,,,,,0,,,,,1257,3600 GUARD RD,93436,LOMPOC,SANTA BARBARA,34.67675537,-120.4994621,6083,10000863
133,federal,California,LOMPOC UNITED STATES PENITENTIARY,2021-02-08,https://www.bop.gov/mobile/about/population_statistics.jsp; https://www.bop.gov/coronavirus/,250,,2,0,207,42,,,,,0,,,,,947,3901 KLEIN BLVD,93436,LOMPOC,SANTA BARBARA,34.67918746,-120.5054801,6083,10000864
134,state,California,LOS ANGELES COUNTY WORKSITE LOCATION,2021-01-11,https://www.cdcr.ca.gov/covid19/cdcr-cchcs-covid-19-status/,,76,,,,44,,,,,,,,,,,,,,,,,6037,
135,county,California,LOS ANGELES JAILS,2021-02-08,https://lasd.org/covid19updates/,4229,2819,13,,3786,,46399,,45956,,,,2160,1030,37,,,,,,34.0591,-118.2321,6037,
136,federal,California,LOS ANGELES MTROPOLITAN DETENTION CENTER,2021-02-08,https://www.bop.gov/mobile/about/population_statistics.jsp; https://www.bop.gov/coronavirus/,322,,1,0,312,76,,,,,2,,,,,713,535 NORTH ALAMEDA STREET,90012,LOS ANGELES,LOS ANGELES,34.0536306,-118.238468,6037,10000892
137,federal,California,MENDOTA FEDERAL CORRECTIONAL INSTITUTION,2021-02-08,https://www.bop.gov/mobile/about/population_statistics.jsp; https://www.bop.gov/coronavirus/,72,,0,0,26,27,,,,,23,,,,,,,,,,,,,
138,state,California,MONTEREY COUNTY WORKSITE LOCATION,2021-01-11,https://www.cdcr.ca.gov/covid19/cdcr-cchcs-covid-19-status/,,3,,,,3,,,,,,,,,,,,,,,,,,
139,state,California,MULE CREEK STATE PRISON,2021-02-08,https://www.cdcr.ca.gov/covid19/cdcr-cchcs-covid-19-status/; https://www.cdcr.ca.gov/covid19/updates/,1788,395,6,,1634,377,,,,,,,,,144,4007,4001 STATE HIGHWAY 104,95640,IONE,AMADOR,38.37074335,-120.9534458,6005,10000782
140,state,California,NA CHADERJIAN YOUTH CORRECTIONAL FACILITY,2021-02-08,https://www.cdcr.ca.gov/covid19/cdcr-cchcs-covid-19-status/,,47,,,,41,,,,,,,,,,216,7650 SOUTH NEWCASTLE ROAD,95215,STOCKTON,SAN JOAQUIN,37.8911829,-121.1978212,6077,10000796
141,state,California,NORTH KERN STATE PRISON,2021-02-08,https://www.cdcr.ca.gov/covid19/cdcr-cchcs-covid-19-status/; https://www.cdcr.ca.gov/covid19/updates/,910,600,4,,835,584,,,,,,,,,58,4355,2737 WEST CECIL AVENUE,93215,DELANO,KERN,35.78188512,-119.3098757,6029,10000841
142,state,California,NORTHERN CALIFORNIA YOUTH CORRECTIONAL CENTER,2021-02-08,https://www.cdcr.ca.gov/covid19/cdcr-cchcs-covid-19-status/,,27,,,,19,,,,,,,,,,216,7650 SOUTH NEWCASTLE ROAD,95215,STOCKTON,SAN JOAQUIN,37.8911829,-121.1978213,6077,10000796
143,state,California,OH CLOSE YOUTH CORRECTIONAL FACILITY,2021-02-08,https://www.cdcr.ca.gov/covid19/cdcr-cchcs-covid-19-status/,,29,,,,27,,,,,,,,,,169,7650 SOUTH NEWCASTLE ROAD,95213,STOCKTON,SAN JOAQUIN,37.89852126,-121.1976947,6077,10000793
144,county,California,ORANGE COUNTY JAILS,2021-02-08,https://ocsheriff.gov/about-ocsd/covid-19/covid-19-oc-jails,2296,,,,2283,,,,7924,,257,,,,13,,550 N FLOWER ST,92702,SANTA ANA,ORANGE,33.7489556,-117.8774523,6059,
145,state,California,PELICAN BAY STATE PRISON,2021-02-08,https://www.cdcr.ca.gov/covid19/cdcr-cchcs-covid-19-status/; https://www.cdcr.ca.gov/covid19/updates/,210,158,0,,200,150,,,,,,,,,5,2648,5905 LAKE EARL DRIVE,95531,CRESCENT CITY,DEL NORTE,41.85480851,-124.1490751,6015,10002309
146,state,California,PINE GROVE JUVENILE PRISON CAMP,2021-02-08,https://www.cdcr.ca.gov/covid19/cdcr-cchcs-covid-19-status/,,12,,,,10,,,,,,,,,,,,,,,,,,
147,state,California,PLEASANT VALLEY STATE PRISON,2021-02-08,https://www.cdcr.ca.gov/covid19/cdcr-cchcs-covid-19-status/; https://www.cdcr.ca.gov/covid19/updates/,1987,417,3,,1972,406,,,,,,,,,2,3131,24863 WEST JAYNE AVENUE,93210,COALINGA,FRESNO,36.13147309,-120.2488996,6019,10000810
148,state,California,RICHARD A MCGEE CORRECTIONAL TRAINING CENTER,2021-02-08,https://www.cdcr.ca.gov/covid19/cdcr-cchcs-covid-19-status/,,100,,,,91,,,,,,,,,,,9850 TWIN CITIES RD,95632,GALT,,38.2890255,-121.3279067,6067,
149,state,California,RIVERSIDE COUNTY WORKSITE LOCATION,2021-01-11,https://www.cdcr.ca.gov/covid19/cdcr-cchcs-covid-19-status/,,18,,,,6,,,,,,,,,,,,,,,,,6065,
150,state,California,RJ DONOVAN CORRECTIONAL FACILITY,2021-02-08,https://www.cdcr.ca.gov/covid19/cdcr-cchcs-covid-19-status/; https://www.cdcr.ca.gov/covid19/updates/,1008,503,16,,988,465,,,,,,,,,3,3845,480 ALTA ROAD,92179,SAN DIEGO,SAN DIEGO,32.58456487,-116.9335763,6073,10000869
151,state,California,SACRAMENTO COUNTY WORKSITE LOCATION,2021-01-11,https://www.cdcr.ca.gov/covid19/cdcr-cchcs-covid-19-status/,,191,,,,87,,,,,,,,,,,,,,,,,6067,
152,state,California,SALINAS VALLEY STATE PRISON,2021-02-08,https://www.cdcr.ca.gov/covid19/cdcr-cchcs-covid-19-status/; https://www.cdcr.ca.gov/covid19/updates/,627,571,4,,581,535,,,,,,,,,36,2917,31625 HIGHWAY 101,93960,SOLEDAD,MONTEREY,36.47885699,-121.3743944,6053,10000821
153,state,California,SAN BERNARDINO COUNTY WORKSITE LOCATION,2021-01-11,https://www.cdcr.ca.gov/covid19/cdcr-cchcs-covid-19-status/,,55,,,,27,,,,,,,,,,,,,,,,,6071,
154,state,California,SAN DIEGO COUNTY WORKSITE LOCATION,2021-01-11,https://www.cdcr.ca.gov/covid19/cdcr-cchcs-covid-19-status/,,4,,,,2,,,,,,,,,,,,,,,,,,
155,federal,California,SAN DIEGO METROPOLITAN CORRECTIONAL CENTER,2021-02-08,https://www.bop.gov/mobile/about/population_statistics.jsp; https://www.bop.gov/coronavirus/,185,,1,0,251,35,,,,,3,,,,,,,,,,,,,
156,state,California,SAN JOAQUIN COUNTY WORKSITE LOCATION,2021-01-11,https://www.cdcr.ca.gov/covid19/cdcr-cchcs-covid-19-status/,,14,,,,5,,,,,,,,,,,,,,,,,,
157,state,California,SANTA BARBARA COUNTY WORKSITE LOCATION,2021-01-11,https://www.cdcr.ca.gov/covid19/cdcr-cchcs-covid-19-status/,,2,,,,2,,,,,,,,,,,,,,,,,,
158,state,California,SIERRA CONSERVATION CENTER,2021-02-08,https://www.cdcr.ca.gov/covid19/cdcr-cchcs-covid-19-status/; https://www.cdcr.ca.gov/covid19/updates/,1337,206,0,,1213,202,,,,,,,,,108,4393,5100 OBYRNES FERRY ROAD,95327,JAMESTOWN,TUOLUMNE,37.89168856,-120.5365401,6109,10001522
159,state,California,SOLANO COUNTY WORKSITE LOCATION,2021-01-11,https://www.cdcr.ca.gov/covid19/cdcr-cchcs-covid-19-status/,,3,,,,2,,,,,,,,,,,,,,,,,,
160,state,California,STANISLAUS COUNTY WORKSITE LOCATION,2021-01-11,https://www.cdcr.ca.gov/covid19/cdcr-cchcs-covid-19-status/,,1,,,,1,,,,,,,,,,,,,,,,,,
161,state,California,SUBSTANCE ABUSE TREATMENT FACILITY,2021-02-08,https://www.cdcr.ca.gov/covid19/cdcr-cchcs-covid-19-status/; https://www.cdcr.ca.gov/covid19/updates/,3010,608,6,,2985,587,,,,,,,,,1,5291,900 QUEBEC AVE,93212,CORCORAN,KINGS,36.05396,-119.5478,6031,10000825
162,federal,California,TERMINAL ISLAND FEDERAL CORRECTIONAL INSTITUTION,2021-02-08,https://www.bop.gov/mobile/about/population_statistics.jsp; https://www.bop.gov/coronavirus/,458,,10,0,527,42,,,,,0,,,,,1185,1299 SEASIDE AVENUE,90731,SAN PEDRO,LOS ANGELES,33.726491,-118.2670631,6037,10000887
163,state,California,TULARE COUNTYWORKSITE LOCATION,2021-01-11,https://www.cdcr.ca.gov/covid19/cdcr-cchcs-covid-19-status/,,2,,,,1,,,,,,,,,,,,,,,,,,
164,state,California,VALLEY STATE PRISON,2021-02-08,https://www.cdcr.ca.gov/covid19/cdcr-cchcs-covid-19-status/; https://www.cdcr.ca.gov/covid19/updates/,1723,263,2,,1664,249,,,,,,,,,42,2999,21633 AVENUE 24,93610,CHOWCHILLA,MADERA,37.10547736,-120.1554719,6039,10000802
165,state,California,VENTURA,2021-02-08,https://www.cdcr.ca.gov/covid19/cdcr-cchcs-covid-19-status/,,71,,,,56,,,,,,,,,,,,,,,,,,
166,state,California,VENTURA COUNTY WORKSITE LOCATION,2021-01-11,https://www.cdcr.ca.gov/covid19/cdcr-cchcs-covid-19-status/,,4,,,,4,,,,,,,,,,,,,,,,,,
167,federal,California,VICTORVILLE MEDIUM I FEDERAL CORRECTIONAL INSTITUTION,2021-02-08,https://www.bop.gov/coronavirus/,658,,2,1,658,69,,,,,0,,,,,,,,,,,,,
168,federal,California,VICTORVILLE MEDIUM II FEDERAL CORRECTIONAL INSTITUTION,2021-02-08,https://www.bop.gov/coronavirus/,450,,1,0,485,50,,,,,1,,,,,1216,13777 AIR EXPRESSWAY BOULEVARD,92394,VICTORVILLE,SAN BERNARDINO,34.56848411,-117.3583145,6071,10000831
169,federal,California,VICTORVILLE UNITED STATES PENITENTIARY,2021-02-08,https://www.bop.gov/mobile/about/population_statistics.jsp; https://www.bop.gov/coronavirus/,517,,0,0,507,65,,,,,1,,,,,,,,,,,,,
171,state,California,WASCO STATE PRISON,2021-02-08,https://www.cdcr.ca.gov/covid19/cdcr-cchcs-covid-19-status/; https://www.cdcr.ca.gov/covid19/updates/,1629,505,1,,1293,485,,,,,,,,,287,4588,701 SCOFIELD AVENUE,93280,WASCO,KERN,35.59431189,-119.4083319,6029,10000847
172,federal,California,WESTERN REGIONAL OFFICE,2021-02-08,https://www.bop.gov/coronavirus/,,,0,0,0,1,,,,,,,,,,,,,,,,,,
174,state,Colorado,ARKANSAS VALLEY CORRECTIONAL FACILITY,2021-02-08,https://www.colorado.gov/pacific/cdoc/covid-19-faq-and-updates,943,,4,,939,,3898,,,,,,,,0,1065,12750 HIGHWAY 96 AT LANE 13,81034,ORDWAY,CROWLEY,38.19146827,-103.8421854,8025,10002228
175,state,Colorado,ARROWHEAD CORRECTIONAL FACILITY,2021-02-08,https://www.colorado.gov/pacific/cdoc/covid-19-faq-and-updates,358,,1,,357,,4091,,,,,,,,0,528,E. US HIGHWAY 50 AND EVANS BLVD,81212,CANON CITY,FREMONT,38.43610328,-105.1590956,8043,10002225
176,state,Colorado,BENT COUNTY CORRECTIONAL FACILITY,2021-02-08,https://www.colorado.gov/pacific/cdoc/covid-19-faq-and-updates,937,,2,,895,,8882,,,,,,,,40,1400,11560 ROAD FF75,81054,LAS ANIMAS,BENT,38.06456309,-103.2047922,8011,10002233
177,state,Colorado,BUENA VISTA CORRECTIONAL COMPLEX,2021-02-08,https://www.colorado.gov/pacific/cdoc/covid-19-faq-and-updates,508,,1,,507,,19584,,,,,,,,0,1212,5125 HWY 24 & 285,81211,BUENA VISTA,CHAFFEE,38.82210118,-106.1147135,8015,10000573
178,state,Colorado,CENTENNIAL CORRECTIONAL FACILITY,2021-02-08,https://www.colorado.gov/pacific/cdoc/covid-19-faq-and-updates,129,,0,,129,,12324,,,,,,,,0,306,E US HIGHWAY 50 EVANS BLVD,81215,CANON CITY,FREMONT,38.43776663,-105.1516726,8043,10002226
179,state,Colorado,COLORADO CORRECTIONAL CENTER,2021-02-08,https://www.colorado.gov/pacific/cdoc/covid-19-faq-and-updates,1,,0,,1,,1718,,,,,,,,0,125,15445 SOUTH GOLDEN ROAD,80401,GOLDEN,JEFFERSON,39.734937360000004,-105.171343,8059,10000563
180,state,Colorado,COLORADO STATE PENITENTIARY,2021-02-08,https://www.colorado.gov/pacific/cdoc/covid-19-faq-and-updates,140,,0,,130,,7217,,,,,,,,10,700,E US HIGHWAY 50 EVANS BLVD,81215,CANON CITY,FREMONT,38.44080528,-105.1580096,8043,10002227
181,state,Colorado,COLORADO TERRITORIAL CORRECTIONAL FACILITY,2021-02-08,https://www.colorado.gov/pacific/cdoc/covid-19-faq-and-updates,575,,4,,571,,6541,,,,,,,,0,951,275 WEST UNITED STATES HIGHWAY 50,81215,CANON CITY,FREMONT,38.43802317,-105.2486951,8043,10000578
182,state,Colorado,CROWLEY COUNTY CORRECTIONAL FACILITY,2021-02-08,https://www.colorado.gov/pacific/cdoc/covid-19-faq-and-updates,707,,1,,585,,20433,,,,,,,,121,1826,6564 HIGHWAY 96,81062,OLNEY SPRINGS,CROWLEY,38.15673868,-103.9573023,8025,10000585
183,state,Colorado,DELTA CORRECTIONAL FACILITY,2021-02-08,https://www.colorado.gov/pacific/cdoc/covid-19-faq-and-updates,155,,0,,155,,1882,,,,,,,,0,703,11363 LOCKHART ROAD,81416,DELTA,DELTA,38.70911617,-108.1486112,8029,10000569
184,state,Colorado,DENVER RECEPTION DIAGNOSTIC CENTER,2021-02-08,https://www.colorado.gov/pacific/cdoc/covid-19-faq-and-updates,34,,1,,27,,7231,,,,,,,,6,584,10900 SMITH ROAD,80239,DENVER,DENVER,39.76677716,-104.8608026,8031,10000560
185,state,Colorado,DENVER WOMENS CORRECTIONAL FACILITY,2021-02-08,https://www.colorado.gov/pacific/cdoc/covid-19-faq-and-updates,68,,0,,68,,10797,,,,,,,,0,921,3600 HAVANA STREET,80239,DENVER,DENVER,39.76510225,-104.860784,8031,10000561
186,federal,Colorado,ENGLEWOOD FEDERAL CORRECTIONAL INSTITUTION,2021-02-08,https://www.bop.gov/mobile/about/population_statistics.jsp; https://www.bop.gov/coronavirus/,663,,0,0,664,69,,,,,0,,,,,637,9595 WEST QUINCY AVE,80123,LITTLETON,JEFFERSON,39.64192027,-105.1055266,8059,10004659
187,federal,Colorado,FLORENCE ADMAX UNITED STATES PENITENTIARY,2021-02-08,https://www.bop.gov/mobile/about/population_statistics.jsp; https://www.bop.gov/coronavirus/,4,,0,0,3,28,,,,,0,,,,,,,,,,38.3590017,-105.0990742,,
188,federal,Colorado,FLORENCE FEDERAL CORRECTIONAL INSTITUTION,2021-02-08,https://www.bop.gov/mobile/about/population_statistics.jsp; https://www.bop.gov/coronavirus/,672,,2,0,648,47,,,,,1,,,,,,,,,,38.3614648,-105.1090225,,
189,federal,Colorado,FLORENCE HIGH UNITED STATES PENITENTIARY,2021-02-08,https://www.bop.gov/mobile/about/population_statistics.jsp; https://www.bop.gov/coronavirus/,84,,0,0,65,41,,,,,0,,,,,,,,,,38.3603393,-105.099264,,
190,state,Colorado,FOUR MILE CORRECTIONAL FACILITY,2021-02-08,https://www.colorado.gov/pacific/cdoc/covid-19-faq-and-updates,401,,0,,401,,2191,,,,,,,,0,519,E US HIGHWAY 50 & EVANS BLVD,81212,CANON CITY,FREMONT,38.42976983,-105.1478509,8043,10000577
191,state,Colorado,FREMONT CORRECTIONAL FACILITY,2021-02-08,https://www.colorado.gov/pacific/cdoc/covid-19-faq-and-updates,769,,4,,764,,16312,,,,,,,,1,1622,E US HIGHWAY 50 EVANS BLVD,81215,CANON CITY,FREMONT,38.4226424,-105.161617,8043,10000576
192,state,Colorado,LA VISTA CORRECTIONAL FACILITY,2021-02-08,https://www.colorado.gov/pacific/cdoc/covid-19-faq-and-updates,11,,0,,11,,2831,,,,,,,,0,694,1401 WEST 17TH STREET,81003,PUEBLO,PUEBLO,38.28484966,-104.6281974,8101,10000586
193,state,Colorado,LIMON CORRECTIONAL FACILITY,2021-02-08,https://www.colorado.gov/pacific/cdoc/covid-19-faq-and-updates,740,,0,,665,,3910,,,,,,,,75,926,49030 STATE HIGHWAY 71 SOUTH,80826,LIMON,LINCOLN,39.21808522,-103.6916854,8073,10000567
194,state,Colorado,RIFLE CORRECTIONAL CENTER,2021-02-08,https://www.colorado.gov/pacific/cdoc/covid-19-faq-and-updates,4,,0,,4,,994,,,,,,,,0,189,200 COUNTY ROAD 219,81650,RIFLE,GARFIELD,39.65016626,-107.7790488,8045,10000557
195,state,Colorado,SAN CARLOS CORRECTIONAL FACILITY,2021-02-08,https://www.colorado.gov/pacific/cdoc/covid-19-faq-and-updates,9,,0,,9,,2114,,,,,,,,0,216,1410 WEST 13TH STREET,81003,PUEBLO,PUEBLO,38.28008753,-104.6317795,8101,10000587
196,state,Colorado,SKYLINE CORRECTIONAL CENTER,2021-01-15,https://www.colorado.gov/pacific/cdoc/covid-19-faq-and-updates,0,,0,,0,,91,,,,,,,,0,250,E US HIGHWAY 50 & EVANS BLVD,81212,CANON CITY,FREMONT,38.43013737,-105.1590536,8043,10000575
197,state,Colorado,STATEWIDE,2021-02-08,https://www.colorado.gov/pacific/cdoc/covid-19-faq-and-updates,,1515,,,,,,,,,,,,,,,,,,,,,,
198,state,Colorado,STERLING CORRECTIONAL FACILITY,2021-02-08,https://www.colorado.gov/pacific/cdoc/covid-19-faq-and-updates,1443,,10,,1410,,22358,,,,,,,,23,2504,12101 HIGHWAY 61,80751,STERLING,LOGAN,40.61123458,-103.1621015,8075,10000554
199,state,Colorado,TRINIDAD CORRECTIONAL FACILITY,2021-02-08,https://www.colorado.gov/pacific/cdoc/covid-19-faq-and-updates,326,,0,,326,,3403,,,,,,,,0,502,21000 HIGHWAY 350 EAST,81059,MODEL,LAS ANIMAS,37.30034613,-104.2866571,8071,10000593
200,state,Colorado,YOUTHFUL OFFENDER SYSTEM,2021-02-08,https://www.colorado.gov/pacific/cdoc/covid-19-faq-and-updates,141,,0,,141,,618,,,,,,,,0,15,1300 WEST 13TH ST,81003,PUEBLO,PUEBLO,38.27955439,-104.6274606,8101,10000588
201,state,Connecticut,BRIDGEPORT CORRECTIONAL CENTER,2021-02-08,https://portal.ct.gov/DOC/Common-Elements/Common-Elements/Health-Information-and-Advisories,338,,,,,,,,,,,,,,,689,1106 NORTH AVE,6604,BRIDGEPORT,FAIRFIELD,41.1906143,-73.20106036,9001,10002400
202,state,Connecticut,BROOKLYN CORRECTIONAL INSTITUTION,2021-02-08,https://portal.ct.gov/DOC/Common-Elements/Common-Elements/Health-Information-and-Advisories,157,,,,,,,,,,,,,,,428,59 HARTFORD RD,6234,BROOKLYN,WINDHAM,41.78416388,-71.95426216,9015,10002399
203,state,Connecticut,CARL ROBINSON CORRECTIONAL INSTITUTION,2021-02-08,https://portal.ct.gov/DOC/Common-Elements/Common-Elements/Health-Information-and-Advisories,300,,,,,,,,,,,,,,,1317,285 SHAKER RD,6082,ENFIELD,HARTFORD,42.0156533,-72.515607,9003,10001605
204,state,Connecticut,CHESHIRE CORRECTIONAL INSTITUTION,2021-02-08,https://portal.ct.gov/DOC/Common-Elements/Common-Elements/Health-Information-and-Advisories,400,,,,,,,,,,,,,,,1147,900 HIGHLAND AVE,6410,CHESHIRE,NEW HAVEN,41.52149124,-72.9017651,9009,10000937
206,state,Connecticut,CORRIGAN RADGOWSKI CORRECTIONAL CENTER,2021-02-08,https://portal.ct.gov/DOC/Common-Elements/Common-Elements/Health-Information-and-Advisories,389,,,,,,,,,,,,,,,734,986 NORWICH-NEW LONDON TURNPIKE,6382,UNCASVILLE,NEW LONDON,41.45418432,-72.11217243,9011,10000931
207,federal,Connecticut,DANBURY FEDERAL CORRECTIONAL INSTITUTION,2021-02-08,https://www.bop.gov/mobile/about/population_statistics.jsp; https://www.bop.gov/coronavirus/,192,,1,0,184,80,,,,,1,,,,,815,ROUTE 37,6811,DANBURY,FAIRFIELD,41.4367642,-73.4675543,9001,10000935
209,state,Connecticut,GARNER CORRECTIONAL INSTITUTION,2021-02-08,https://portal.ct.gov/DOC/Common-Elements/Common-Elements/Health-Information-and-Advisories,96,,,,,,,,,,,,,,,543,50 NUNNAWAUK RD,6470,NEWTOWN,FAIRFIELD,41.40035888,-73.2721123,9001,10000934
210,state,Connecticut,HARTFORD CORRECTIONAL CENTER,2021-02-08,https://portal.ct.gov/DOC/Common-Elements/Common-Elements/Health-Information-and-Advisories,339,,,,,,,,,,,,,,,888,177 WESTON ST,6120,HARTFORD,HARTFORD,41.79362408,-72.66139948,9003,10000926
212,state,Connecticut,MACDOUGALL WALKER CORRECTIONAL INSTITUTION,2021-02-08,https://portal.ct.gov/DOC/Common-Elements/Common-Elements/Health-Information-and-Advisories,633,,,,,,,,,,,,,,,1471,1153 EAST ST S,6080,SUFFIELD,HARTFORD,41.95048033,-72.6367468,9003,10000927
213,state,Connecticut,MANSON YOUTH CORRECTIONAL CENTER,2021-02-08,https://portal.ct.gov/DOC/Common-Elements/Common-Elements/Health-Information-and-Advisories,18,,,,,,,,,,,,,,,283,42 JARVIS ST,6410,CHESHIRE,NEW HAVEN,41.53050021,-72.89979775,9009,10000939
214,state,Connecticut,NEW HAVEN CORRECTIONAL CENTER,2021-02-08,https://portal.ct.gov/DOC/Common-Elements/Common-Elements/Health-Information-and-Advisories,245,,,,,,,,,,,,,,,683,245 WHALLEY AVE,6511,NEW HAVEN,NEW HAVEN,41.31748057,-72.93997131,9009,10005380
216,state,Connecticut,NORTHERN CORRECTIONAL INSTITUTION,2021-02-08,https://portal.ct.gov/DOC/Common-Elements/Common-Elements/Health-Information-and-Advisories,14,,,,,,,,,,,,,,,78,287 BILTON RD,6071,SOMERS,TOLLAND,42.0188064,-72.4948806,9013,10000929
217,state,Connecticut,OSBORN CORRECTIONAL INSTITUTION,2021-02-08,https://portal.ct.gov/DOC/Common-Elements/Common-Elements/Health-Information-and-Advisories,537,,,,,,,,,,,,,,,1253,335 BILTON RD,6071,SOMERS,TOLLAND,42.01640023,-72.49693453,9013,10000928
218,state,Connecticut,STATEWIDE,2021-02-08,https://portal.ct.gov/DOC/Common-Elements/Common-Elements/Health-Information-and-Advisories,,,19,,3634,,,,,,,,,,,,,,,,,,,
219,federal,Connecticut,WATKINSON HOUSE RRC HARTFORD,2021-02-08,https://www.bop.gov/coronavirus/,1,,0,0,2,0,,,,,0,,,,,,,,,,,,9003,
220,state,Connecticut,WILLARD CYBULSKI CORRECTIONAL INSTITUTION,2021-02-08,https://portal.ct.gov/DOC/Common-Elements/Common-Elements/Health-Information-and-Advisories,105,,,,,,,,,,,,,,,1090,391 SHAKER RD,6082,ENFIELD,TOLLAND,42.0167978,-72.5062987,9003,10006149
221,state,Connecticut,YORK CORRECTIONAL INSTITUTION,2021-02-08,https://portal.ct.gov/DOC/Common-Elements/Common-Elements/Health-Information-and-Advisories,248,,,,,,,,,,,,,,,883,201 W MAIN ST,6357,NIANTIC,NEW LONDON,41.32308179,-72.23754189,9011,10000933
222,state,Delaware,DELORES J BAYLOR WOMANS CORRECTIONAL INSTITUTION,2021-02-08,https://doc.delaware.gov/assets/documents/Confirmed_COVID_Cases.pdf,,,0,,,,,,,,,,,,1,394,660 BAYLOR BLVD,19720,NEW CASTLE,NEW CASTLE,39.7039322,-75.58125772,10003,10002260
226,state,Delaware,HOWARD R YOUNG CORRECTIONAL INSTITUTION,2021-02-08,https://doc.delaware.gov/assets/documents/Confirmed_COVID_Cases.pdf,,,0,,,,,,,,,,,,1,1658,1301 E 12TH ST,19802,WILMINGTON,NEW CASTLE,39.7412423,-75.5294058,10003,10000699
227,state,Delaware,JAMES T VAUGHN CORRECTIONAL CENTER,2021-02-08,https://doc.delaware.gov/assets/documents/Confirmed_COVID_Cases.pdf,,,8,,,,,,,,,,,,1,2385,1181 PADDOCK RD,19977,SMYRNA,NEW CASTLE,39.33295451,-75.59958958,10003,10002262
231,state,Delaware,PLUMMER COMMUNITY CORRECTIONS CENTER,2021-02-08,https://doc.delaware.gov/assets/documents/Confirmed_COVID_Cases.pdf,,,0,,,,,,,,,,,,2,130,38 TODDS LN,19802,WILMINGTON,NEW CASTLE,39.75664471,-75.52904371,10003,10000701
234,state,Delaware,STATEWIDE,2021-02-08,https://doc.delaware.gov/assets/documents/Confirmed_COVID_Cases.pdf,1942,710,,,1888,664,,,,,,,,,,,,,,,,,,
236,state,Delaware,SUSSEX COMMUNITY CORRECTIONS CENTER,2021-02-08,https://doc.delaware.gov/assets/documents/Confirmed_COVID_Cases.pdf,,,0,,,,,,,,,,,,2,308,23207 DUPONT BLVD,19947,GEORGETOWN,SUSSEX,38.6596352,-75.3711832,10005,10000708
237,state,Delaware,SUSSEX CORRECTIONAL INSTITUTION,2021-02-08,https://doc.delaware.gov/assets/documents/Confirmed_COVID_Cases.pdf,,,5,,,,,,,,,,,,34,1130,23203 DUPONT BLVD,19947,GEORGETOWN,SUSSEX,38.665915,-75.3801231,10005,10000707
238,federal,District of Columbia,CENTRAL OFFICE HEADQUARTERS,2021-02-08,https://www.bop.gov/coronavirus/,,,0,0,0,10,,,,,,,,,,,,,,,,,,
251,federal,Florida,COLEMAN I UNITED STATES PENITENTIARY,2021-02-08,https://www.bop.gov/mobile/about/population_statistics.jsp; https://www.bop.gov/coronavirus/,72,,0,0,105,15,,,,,1,,,,,1245,846 NORTHEAST 54TH TERRACE,33521,SUMTERVILLE,SUMTER,28.7737905,-82.00445251,12119,10004592
252,federal,Florida,COLEMAN II UNITED STATES PENITENTIARY,2021-02-08,https://www.bop.gov/mobile/about/population_statistics.jsp; https://www.bop.gov/coronavirus/,217,,1,0,216,24,,,,,5,,,,,1374,846 NORTHEAST 54TH TERRACE,33521,SUMTERVILLE,SUMTER,28.7628994,-82.0011646,12119,10004595
253,federal,Florida,COLEMAN LOW FEDERAL CORRECTIONAL INSTITUTION,2021-02-08,https://www.bop.gov/mobile/about/population_statistics.jsp; https://www.bop.gov/coronavirus/,249,,1,1,202,14,,,,,392,,,,,2415,846 NORTHEAST 54TH TERRACE,33521,SUMTERVILLE,SUMTER,28.7692474,-82.010479,12119,10004593
254,federal,Florida,COLEMAN MEDIUM FEDERAL CORRECTIONAL INSTITUTION,2021-02-08,https://www.bop.gov/coronavirus/,333,,3,0,340,9,,,,,60,,,,,1486,846 NORTHEAST 54TH TERRACE,33521,SUMTERVILLE,SUMTER,28.7662507,-82.00753865,12119,10004594
264,federal,Florida,DISMAS CHARITIES OF ORLANDO,2021-02-08,https://www.bop.gov/coronavirus/,2,,0,0,2,0,,,,,0,,,,,,,,,,28.619095,-81.437247,,
276,federal,Florida,HILLSBOROUGH COUNTY RRC TAMPA,2021-02-08,https://www.bop.gov/coronavirus/,3,,0,0,3,0,,,,,0,,,,,,,,,,,,,
280,federal,Florida,JACKSONVILLE RESIDENTIAL REENTRY CENTER,2021-02-08,https://www.bop.gov/coronavirus/,5,,0,0,5,0,,,,,0,,,,,,,,,,30.3383059,-81.712194,,
290,federal,Florida,MARIANNA FEDERAL CORRECTIONAL INSTITUTION,2021-02-08,https://www.bop.gov/mobile/about/population_statistics.jsp; https://www.bop.gov/coronavirus/,263,,0,0,243,37,,,,,0,,,,,,,,,,30.8267247,-85.1907807,,
294,federal,Florida,MIAMI FEDERAL CORRECTIONAL INSTITUTION,2021-02-08,https://www.bop.gov/mobile/about/population_statistics.jsp; https://www.bop.gov/coronavirus/,237,,1,0,229,22,,,,,2,,,,,931,15801 SW 137TH AVE,33177,MIAMI,MIAMI-DADE,25.61832698,-80.41039062,12086,10000542
295,federal,Florida,MIAMI FEDERAL DETENTION CENTER,2021-02-08,https://www.bop.gov/mobile/about/population_statistics.jsp; https://www.bop.gov/coronavirus/,158,,2,0,175,21,,,,,27,,,,,1389,33 NORTHEAST 4TH STREET,33132,MIAMI,MIAMI-DADE,25.7784897,-80.19323747,12086,10004647
301,federal,Florida,PENSACOLA FEDERAL PRISON CAMP,2021-02-08,https://www.bop.gov/mobile/about/population_statistics.jsp; https://www.bop.gov/coronavirus/,62,,0,0,35,12,,,,,0,,,,,,,,,,30.4432945,-87.2377179,,
305,federal,Florida,RIVERSIDE HOUSE MIAMI FL,2021-02-08,https://www.bop.gov/coronavirus/,8,,0,0,8,0,,,,,0,,,,,,,,,,25.775332,-80.21293,,
306,federal,Florida,SALVATION ARMY FORT MYERS FLORIDA,2021-02-08,https://www.bop.gov/coronavirus/,1,,0,0,1,0,,,,,0,,,,,,,,,,,,,
307,federal,Florida,SALVATION ARMY RRC WEST PALM BEACH,2021-02-08,https://www.bop.gov/coronavirus/,12,,0,0,10,0,,,,,0,,,,,,,,,,,,,
313,state,Florida,STATEWIDE,2021-02-08,http://www.dc.state.fl.us/comm/covid-19.html,17767,5234,205,,17527,4733,,,,,,,,,,,,,,,,,,
316,federal,Florida,TALLAHASSEE FEDERAL CORRECTIONAL INSTITUTION,2021-02-08,https://www.bop.gov/mobile/about/population_statistics.jsp; https://www.bop.gov/coronavirus/,403,,0,0,202,24,,,,,1,,,,,925,501 CAPITAL CIRCLE NE,32301,TALLAHASSEE,LEON,30.44364798,-84.22253719,12073,10000375
323,state,Georgia,APPLING INTEGRATED TREATMENT FACILITY,2021-02-08,http://www.dcor.state.ga.us/content/CVD_Dashboard,15,3,0,0,15,3,,,,,,,,,,191,252 WEST PARK DRIVE,31513,BAXLEY,APPLING,31.8050704,-82.40883899,13001,10004527
324,state,Georgia,ATLANTA TRANSITIONAL CENTER,2021-02-08,http://www.dcor.state.ga.us/content/CVD_Dashboard,17,4,0,0,15,3,,,,,,,,,,281,332 PONCE DE LEON AVE NE,30308,ATLANTA,FULTON,33.77270217,-84.3762642,13121,10001411
325,federal,Georgia,ATLANTA UNITED STATES PENITENTIARY,2021-02-08,https://www.bop.gov/mobile/about/population_statistics.jsp; https://www.bop.gov/coronavirus/,184,,2,0,116,8,,,,,3,,,,,2093,601 MCDONOUGH BLVD SE,30315,ATLANTA,FULTON,33.71070018,-84.36897923,13121,10000285
326,state,Georgia,AUGUSTA STATE MEDICAL PRISON,2021-02-08,http://www.dcor.state.ga.us/content/CVD_Dashboard,245,115,6,0,237,111,,,,,,,,,,1160,3001 GORDON HWY,30813,GROVETOWN,COLUMBIA,33.43287905,-82.18852112,13073,10006153
327,state,Georgia,AUGUSTA TRANSITIONAL CENTER,2021-02-08,http://www.dcor.state.ga.us/content/CVD_Dashboard,15,12,0,0,14,8,,,,,,,,,,226,601 TAYLOR STREET,30906,AUGUSTA,RICHMOND,33.46676876,-81.96605692,13245,10004475
328,state,Georgia,AUTRY STATE PRISON,2021-02-08,http://www.dcor.state.ga.us/content/CVD_Dashboard,106,23,3,0,75,19,,,,,,,,,,1715,3178 MOUNT ZION CHURCH RD,31779,PELHAM,MITCHELL,31.18946471,-84.14510952,13205,10000325
329,state,Georgia,BACON PROBATION DETENTION CENTER,2021-02-08,http://www.dcor.state.ga.us/content/CVD_Dashboard,26,16,0,0,3,16,,,,,,,,,,232,165 EAST EASTSIDE INDUSTRIAL BOULEVARD,31510,ALMA,BACON,31.53308262,-82.44987705,13005,10004534
330,state,Georgia,BAINBRIDGE PROBATION SUBSTANCE ABUSE TREATMENT,2021-02-08,http://www.dcor.state.ga.us/content/CVD_Dashboard,83,27,0,0,53,25,,,,,,,,,,,235 STATE HOSPITAL ROAD,39817,BAINBRIDGE,DECATUR,30.98252995,-84.63677462,13087,10006339
332,state,Georgia,BALDWIN STATE PRISON,2021-02-08,http://www.dcor.state.ga.us/content/CVD_Dashboard,31,44,2,0,29,36,,,,,,,,,,953,140 LAYING FARM RD,31034,HARDWICK,BALDWIN,33.0250608,-83.2213613,13009,10002129
333,state,Georgia,BLECKLEY PROBATION SUBSTANCE ABUSE TREATMENT CENTER,2021-02-08,http://www.dcor.state.ga.us/content/CVD_Dashboard,66,20,0,0,50,17,,,,,,,,,,,,,,,,,,
334,state,Georgia,BULLOCH COUNTY CORRECTIONAL INSTITUTION,2021-02-08,http://www.dcor.state.ga.us/content/CVD_Dashboard,0,0,0,0,0,0,,,,,,,,,,,,,,,,,,
335,state,Georgia,BURRUSS CORRECTIONAL TRAINING CENTER,2021-02-08,http://www.dcor.state.ga.us/content/CVD_Dashboard,28,23,1,0,27,17,,,,,,,,,,444,1000 INDIAN SPRINGS DR,31029,FORSYTH,MONROE,33.05554556,-83.97538536,13207,10001421
336,state,Georgia,CALHOUN STATE PRISON,2021-02-08,http://www.dcor.state.ga.us/content/CVD_Dashboard,59,32,1,1,57,30,,,,,,,,,,1638,27823 MAIN ST,39866,MORGAN,CALHOUN,31.53975718,-84.6166883,13037,10002146
337,state,Georgia,CARROLL COUNTY CORRECTIONAL INSTITUTION,2021-02-08,http://www.dcor.state.ga.us/content/CVD_Dashboard,18,0,0,0,18,0,,,,,,,,,,249,96 HORSLEY MILL ROAD,30117,CARROLLTON,CARROLL,33.57869711,-85.04659773,13045,10003920
338,state,Georgia,CENTRAL STATE PRISON,2021-02-08,http://www.dcor.state.ga.us/content/CVD_Dashboard,35,51,0,0,34,44,,,,,,,,,,1136,4600 FULTON MILL RD,31208,MACON,BIBB,32.77682714,-83.75181934,13021,10002134
339,state,Georgia,CLARKE COUNTY CORRECTIONAL INSTITUTION,2021-02-08,http://www.dcor.state.ga.us/content/CVD_Dashboard,17,0,0,0,16,0,,,,,,,,,,126,2825 COUNTY FARM ROAD,30601,ATHENS,CLARKE,33.94472297,-83.33031431,13059,10003914
340,state,Georgia,CLAYTON COUNTY CORRECTIONAL INSTITUTION,2021-02-08,http://www.dcor.state.ga.us/content/CVD_Dashboard,15,0,0,0,12,0,,,,,,,,,,,,,,,,,,
341,state,Georgia,CLAYTON TRANSITIONAL CENTER,2021-02-08,http://www.dcor.state.ga.us/content/CVD_Dashboard,7,9,0,0,7,8,,,,,,,,,,379,242 FALCON DR,30297,FOREST PARK,CLAYTON,33.62430193,-84.3976813,13063,10002121
342,state,Georgia,COASTAL STATE PRISON,2021-02-08,http://www.dcor.state.ga.us/content/CVD_Dashboard,71,25,6,0,64,18,,,,,,,,,,1638,200 GULF STREAM RD,31418,GARDEN CITY,CHATHAM,32.13759217,-81.18656693,13051,10000314
343,state,Georgia,COFFEE CORRECTIONAL FACILITY,2021-02-08,http://www.dcor.state.ga.us/content/CVD_Dashboard,235,0,5,0,229,0,,,,,,,,,,2657,1153 NORTH LIBERTY STREET,31554,NICHOLLS,COFFEE,31.53063543,-82.63791259,13069,10002144
344,state,Georgia,COLQUITT COUNTY CORRECTIONAL INSTITUTION,2021-02-08,http://www.dcor.state.ga.us/content/CVD_Dashboard,11,0,0,0,11,0,,,,,,,,,,191,200 SOUTH VANDENBERG DRIVE,31768,MOULTRIE,COLQUITT,31.12973082,-83.70786594,13071,10004548
345,state,Georgia,COLUMBUS TRANSITIONAL CENTER,2021-02-08,http://www.dcor.state.ga.us/content/CVD_Dashboard,8,5,0,0,6,5,,,,,,,,,,139,3900 SCHATULGA ROAD,31907,COLUMBUS,MUSCOGEE,32.49407873,-84.86892761,13215,10001426
346,state,Georgia,COLWELL PROBATION DETENTION CENTER,2021-02-08,http://www.dcor.state.ga.us/content/CVD_Dashboard,25,6,0,0,24,6,,,,,,,,,,,,,,,,,,
347,state,Georgia,COWETA COUNTY CORRECTIONAL INSTITUTION,2021-02-08,http://www.dcor.state.ga.us/content/CVD_Dashboard,84,0,0,0,84,0,,,,,,,,,,215,101 SELT ROAD,30263,NEWNAN,COWETA,33.39536115,-84.82112952,13077,10004478
348,federal,Georgia,CSC DISMAS CHARITIES RRC ATLANTA,2021-02-08,https://www.bop.gov/coronavirus/,5,,0,0,3,0,,,,,0,,,,,,,,,,,,,
349,federal,Georgia,D RAY JAMES CORRECTIONAL INSTITUTION,2021-02-01,https://www.bop.gov/coronavirus/,,,3,0,194,0,,,,,,,,,,1826,3262 HIGHWAY 252,31537,FOLKSTON,CHARLTON,30.87400142,-81.97896384,13049,10000327
350,state,Georgia,DECATUR COUNTY CORRECTIONAL INSTITUTION,2021-02-08,http://www.dcor.state.ga.us/content/CVD_Dashboard,2,0,0,0,2,0,,,,,,,,,,195,1153 AIRPORT ROAD,39817,BAINBRIDGE,DECATUR,30.90775178,-84.60333237,13087,10003940
351,state,Georgia,DODGE STATE PRISON,2021-02-08,http://www.dcor.state.ga.us/content/CVD_Dashboard,39,32,3,1,34,27,,,,,,,,,,1228,2971 OLD BETHEL CHURCH ROAD,31012,CHESTER,DODGE,32.3942334,-83.16745955,13091,10002138
352,state,Georgia,DOOLY STATE PRISON,2021-02-08,http://www.dcor.state.ga.us/content/CVD_Dashboard,22,24,3,0,16,23,,,,,,,,,,1661,1412 PLUNKETT ROAD,31091,UNADILLA,HOUSTON,32.28092423,-83.71567596,13093,10006154
353,state,Georgia,EFFINGHAM COUNTY CORRECTIONAL INSTITUTION,2021-02-08,http://www.dcor.state.ga.us/content/CVD_Dashboard,49,0,0,0,47,0,,,,,,,,,,,,,,,,,,
354,state,Georgia,EMANUEL PROBATION DETENTION CENTER,2021-02-08,http://www.dcor.state.ga.us/content/CVD_Dashboard,12,8,0,0,2,4,,,,,,,,,,,121 CASA DRIVE,30471,TWIN CITY,EMANUEL,32.57167374,-82.16113585,13107,10004497
355,state,Georgia,EMANUEL WOMENS FACILITY,2021-02-08,http://www.dcor.state.ga.us/content/CVD_Dashboard,29,24,0,0,28,20,,,,,,,,,,395,714 GUMLOG ROAD,30401,SWAINSBORO,EMANUEL,32.61303825,-82.3564078,13107,10004496
356,state,Georgia,FLOYD COUNTY CORRECTIONAL INSTITUTION,2021-02-08,http://www.dcor.state.ga.us/content/CVD_Dashboard,0,0,0,0,0,0,,,,,,,,,,,,,,,,,,
357,state,Georgia,GEORGIA DIAGNOSTIC AND CLASSIFICATION PRISON,2021-02-08,http://www.dcor.state.ga.us/content/CVD_Dashboard,218,68,6,0,158,58,,,,,,,,,,3371,2978 STATE HWYY 36 W PRISON BLVD,30233,JACKSON,BUTTS,33.22107373,-84.06161828,13035,10000298
358,state,Georgia,GEORGIA DIAGNOSTIC AND CLASSIFICATION PRISON SPECIAL MANAGEMENT UNIT,2021-02-08,http://www.dcor.state.ga.us/content/CVD_Dashboard,0,12,0,0,0,12,,,,,,,,,,3371,2978 STATE HWYY 36 W PRISON BLVD,30233,JACKSON,BUTTS,33.22107373,-84.06161828,13035,10000298
359,state,Georgia,GEORGIA STATE PRISON,2021-02-08,http://www.dcor.state.ga.us/content/CVD_Dashboard,31,40,3,0,28,38,,,,,,,,,,1454,300 1ST AVENUE SOUTH,30453,REIDSVILLE,TATTNALL,32.00512895,-82.16473427,13267,10002141
360,state,Georgia,GWINNETT COUNTY CORRECTIONAL INSTITUTION,2021-02-08,http://www.dcor.state.ga.us/content/CVD_Dashboard,71,0,0,0,18,0,,,,,,,,,,,,,,,,,,
361,state,Georgia,HALL COUNTY CORRECTIONAL INSTITUTION,2021-02-08,http://www.dcor.state.ga.us/content/CVD_Dashboard,3,0,0,0,3,0,,,,,,,,,,194,1698 BARBER ROAD,30507,GAINESVILLE,HALL,34.24037727,-83.81411093,13139,10006723
362,state,Georgia,HANCOCK STATE PRISON,2021-02-08,http://www.dcor.state.ga.us/content/CVD_Dashboard,128,23,0,0,127,20,,,,,,,,,,1143,701 PRISON BLVD,31087,SPARTA,HANCOCK,33.24549405,-82.95092313,13141,10000297
363,state,Georgia,HARRIS COUNTY CORRECTIONAL INSTITUTION,2021-02-08,http://www.dcor.state.ga.us/content/CVD_Dashboard,3,0,0,0,3,0,,,,,,,,,,154,9982 SR 116,31811,HAMILTON,HARRIS,32.76447267,-84.86400695,13145,10003931
364,state,Georgia,HAYS STATE PRISON,2021-02-08,http://www.dcor.state.ga.us/content/CVD_Dashboard,43,36,0,0,43,34,,,,,,,,,,1065,777 UNDERWOOD DRIVE,30753,TRION,CHATTOOGA,34.50768663,-85.31195302,13055,10000284
365,state,Georgia,HELMS FACILITY,2021-02-08,http://www.dcor.state.ga.us/content/CVD_Dashboard,0,5,0,0,0,5,,,,,,,,,,28,1275 CONSTITUTION ROAD SE,30316,ATLANTA,DEKALB,33.68857362,-84.33823463,13089,10001415
366,state,Georgia,HUDSON TRANSITIONAL CENTER,2021-02-08,http://www.dcor.state.ga.us/content/CVD_Dashboard,2,1,0,0,2,1,,,,,,,,,,,,,,,,,,
367,state,Georgia,JACKSON COUNTY CORRECTIONAL INSTITUTION,2021-02-08,http://www.dcor.state.ga.us/content/CVD_Dashboard,0,0,0,0,0,0,,,,,,,,,,154,265 I.W. DAVIS ROAD,30549,JEFFERSON,JACKSON,34.15197172,-83.55731447,13157,10003907
368,state,Georgia,JEFFERSON COUNTY CORRECTIONAL INSTITUTION,2021-02-08,http://www.dcor.state.ga.us/content/CVD_Dashboard,4,0,0,0,4,0,,,,,,,,,,147,1159 CLARKS MILL ROAD,30434,LOUISVILLE,JEFFERSON,33.02109834,-82.40712914,13163,10004482
369,state,Georgia,JENKINS CORRECTIONAL CENTER,2021-02-08,http://www.dcor.state.ga.us/content/CVD_Dashboard,31,0,4,0,27,0,,,,,,,,,,,,,,,,,,
370,state,Georgia,JOHNSON STATE PRISON,2021-02-08,http://www.dcor.state.ga.us/content/CVD_Dashboard,89,24,2,0,85,18,,,,,,,,,,1583,290 DONOVAN-HARRISON ROAD,31096,WRIGHTSVILLE,JOHNSON,32.74353362,-82.70234985,13167,10000303
371,state,Georgia,LEE ARRENDALE STATE PRISON,2021-02-08,http://www.dcor.state.ga.us/content/CVD_Dashboard,103,44,0,0,99,33,,,,,,,,,,1596,2023 GAINESVILLE HWY,30510,ALTO,HABERSHAM,34.45106681,-83.59596645,13137,10002102
372,state,Georgia,LEE ARRENDALE TRANSITIONAL CENTER,2021-02-08,http://www.dcor.state.ga.us/content/CVD_Dashboard,1,3,0,0,1,3,,,,,,,,,,,,,,,,,,
373,state,Georgia,LEE STATE PRISON,2021-02-08,http://www.dcor.state.ga.us/content/CVD_Dashboard,28,47,2,0,24,47,,,,,,,,,,740,153 PINEWOOD DRIVE,31763,LEESBURG,LEE,31.76369451,-84.19354919,13177,10000323
374,state,Georgia,LONG UNIT,2021-02-08,http://www.dcor.state.ga.us/content/CVD_Dashboard,9,17,1,0,8,17,,,,,,,,,,,,,,,,,,
375,state,Georgia,MACON STATE PRISON,2021-02-08,http://www.dcor.state.ga.us/content/CVD_Dashboard,35,61,2,0,30,48,,,,,,,,,,1703,2728 SOUTH 49 HWY,31068,OGLETHORPE,MACON,32.25930659,-84.09144003,13193,10002137
376,state,Georgia,MACON TRANSITIONAL CENTER,2021-02-08,http://www.dcor.state.ga.us/content/CVD_Dashboard,9,4,1,0,8,4,,,,,,,,,,157,200 HENRY ST,31206,MACON,BIBB,32.81494127,-83.63770702,13021,10001423
377,state,Georgia,MCEVER PDC,2021-02-08,http://www.dcor.state.ga.us/content/CVD_Dashboard,33,16,0,0,32,13,,,,,,,,,,,2100 KINGS CHAPEL ROAD,31069,PERRY,HOUSTON,32.46494728,-83.69501268,13153,10004500
378,federal,Georgia,MCRAE CORRECTIONAL INSTITUTION,2021-02-08,https://www.bop.gov/mobile/about/population_statistics.jsp; https://www.bop.gov/coronavirus/,,,1,0,24,0,,,,,,,,,,1601,112 JIM HAMMOCK DRIVE,31055,MCRAE,TELFAIR,32.05007042,-82.8715772,13271,10000315
379,state,Georgia,METRO REENTRY FACILITY,2021-02-08,http://www.dcor.state.ga.us/content/CVD_Dashboard,4,21,0,0,3,18,,,,,,,,,,229,1303 CONSTITUTION ROAD,30316,ATLANTA,DEKALB,33.687261,-84.336355,13089,10001414
380,state,Georgia,METRO TRANSITIONAL CENTER,2021-02-08,http://www.dcor.state.ga.us/content/CVD_Dashboard,10,11,0,0,10,11,,,,,,,,,,229,1303 CONSTITUTION ROAD,30316,ATLANTA,DEKALB,33.6885252,-84.336397,13089,10001414
381,state,Georgia,MITCHELL COUNTY CORRECTIONAL INSTITUTION,2021-02-08,http://www.dcor.state.ga.us/content/CVD_Dashboard,3,0,0,0,3,0,,,,,,,,,,144,4838 STATE HWY 37 E,31730,CAMILLA,MITCHELL,31.2324018,-84.180085,13205,10002149
382,state,Georgia,MONTGOMERY STATE PRISON,2021-02-08,http://www.dcor.state.ga.us/content/CVD_Dashboard,22,27,1,0,21,25,,,,,,,,,,418,650 MOUNT VERNON ALSTON ROAD,30445,MOUNT VERNON,MONTGOMERY,32.16187443,-82.56612123,13209,10000308
383,state,Georgia,MUSCOGEE COUNTY CORRECTIONAL INSTITUTION,2021-02-08,http://www.dcor.state.ga.us/content/CVD_Dashboard,4,0,0,0,4,0,,,,,,,,,,,,,,,,,,
384,state,Georgia,NORTHWEST RESIDENTIAL SUBSTANCE ABUSE TREATMENT,2021-02-08,http://www.dcor.state.ga.us/content/CVD_Dashboard,18,0,0,0,18,0,,,,,,,,,,,,,,,,,,
385,state,Georgia,PATTEN PROBATION DETENTION CENTER,2021-02-08,http://www.dcor.state.ga.us/content/CVD_Dashboard,15,12,0,0,11,12,,,,,,,,,,,1009 NORTH 10TH AVENUE,31635,LAKELAND,LANIER,31.03988304,-83.0617537,13173,10004551
386,state,Georgia,PAULDING RESIDENTIAL SUBSTANCE ABUSE TREATMENT,2021-02-08,http://www.dcor.state.ga.us/content/CVD_Dashboard,50,27,0,0,28,27,,,,,,,,,,150,1295 N INDUSTRIAL BLVD,30132,DALLAS,PAULDING,33.94976674,-84.81466644,13223,10002108
387,state,Georgia,PHILLIPS STATE PRISON,2021-02-08,http://www.dcor.state.ga.us/content/CVD_Dashboard,112,48,1,0,111,41,,,,,,,,,,1048,2989 WEST ROCK QUARRY ROAD,30519,BUFORD,GWINNETT,34.0942918,-83.9105205,13135,10002106
388,state,Georgia,PHILLIPS TRANSITIONAL CENTER,2021-02-08,http://www.dcor.state.ga.us/content/CVD_Dashboard,9,3,0,0,9,3,,,,,,,,,,194,2989 W ROCK QUARRY ROAD,30519,BUFORD,GWINNETT,34.09554623,-83.90946974,13135,10002105
389,state,Georgia,PULASKI STATE PRISON,2021-02-08,http://www.dcor.state.ga.us/content/CVD_Dashboard,92,55,1,0,90,50,,,,,,,,,,1162,373 UPPER RIVER ROAD,31036,HAWKINSVILLE,PULASKI,32.3115199,-83.45723464,13235,10000307
390,state,Georgia,RICHMOND COUNTY CORRECTIONAL INSTITUTION,2021-02-08,http://www.dcor.state.ga.us/content/CVD_Dashboard,12,0,0,0,12,0,,,,,,,,,,280,2314 TOBACCO RD,30906,AUGUSTA,RICHMOND,33.37332514,-82.0392013,13245,10001419
391,state,Georgia,RIVERBEND CORRECTIONAL FACILITY,2021-02-08,http://www.dcor.state.ga.us/content/CVD_Dashboard,18,0,3,0,15,0,,,,,,,,,,1497,196 LAYING FARM ROAD,31061,MILLEDGEVILLE,BALDWIN,33.02808425,-83.219548,13009,10006322
392,state,Georgia,ROGERS STATE PRISON,2021-02-08,http://www.dcor.state.ga.us/content/CVD_Dashboard,19,27,0,0,18,23,,,,,,,,,,1398,1978 GEORGIA HIGHWAY 147,30453,REIDSVILLE,TATTNALL,32.00090161,-82.17994887,13267,10000310
393,state,Georgia,RUTLEDGE STATE PRISON,2021-02-08,http://www.dcor.state.ga.us/content/CVD_Dashboard,26,26,2,0,24,22,,,,,,,,,,601,7175 MANOR ROAD,31907,COLUMBUS,MUSCOGEE,32.49582796,-84.86617971,13215,10000304
394,state,Georgia,SCREVEN COUNTY CORRECTIONAL INSTITUTION,2021-02-08,http://www.dcor.state.ga.us/content/CVD_Dashboard,0,0,0,0,0,0,,,,,,,,,,148,859 ROCKYFORD ROAD,30467,SYLVANIA,SCREVEN,32.750259990000004,-81.67027866,13251,10005184
395,state,Georgia,SMITH STATE PRISON,2021-02-08,http://www.dcor.state.ga.us/content/CVD_Dashboard,26,20,1,0,24,20,,,,,,,,,,1514,9676 UNITED STATES HIGHWAY 301 NORTH,30427,GLENNVILLE,TATTNALL,31.97310836,-81.91578361,13267,10000309
396,state,Georgia,SMITH TRANSITIONAL CENTER,2021-02-08,http://www.dcor.state.ga.us/content/CVD_Dashboard,10,3,0,0,10,3,,,,,,,,,,199,8631 UNITED STATES HIGHWAY 301 NORTH,30417,CLAXTON,EVANS,32.17946064,-81.89434266,13109,10004515
397,federal,Georgia,SOUTHEAST REGIONAL OFFICE,2021-02-08,https://www.bop.gov/coronavirus/,,,0,0,0,1,,,,,,,,,,,,,,,,,13121,
398,state,Georgia,SPALDING COUNTY CORRECTIONAL INSTITUTION,2021-02-08,http://www.dcor.state.ga.us/content/CVD_Dashboard,0,0,0,0,0,0,,,,,,,,,,376,295 JUSTICE BLVD,30223,GRIFFIN,SPALDING,33.23601744,-84.29297557,13255,10002125
399,state,Georgia,SUMTER COUNTY CORRECTIONAL INSTITUTION,2021-02-08,http://www.dcor.state.ga.us/content/CVD_Dashboard,0,0,0,0,0,0,,,,,,,,,,,,,,,,,,
400,state,Georgia,TELFAIR STATE PRISON,2021-02-08,http://www.dcor.state.ga.us/content/CVD_Dashboard,79,30,6,0,72,26,,,,,,,,,,1370,210 LONGBRIDGE ROAD,31037,HELENA,TELFAIR,32.08798443,-82.90954913,13271,10000316
401,state,Georgia,TERRELL COUNTY CORRECTIONAL INSTITUTION,2021-02-08,http://www.dcor.state.ga.us/content/CVD_Dashboard,0,0,0,0,0,0,,,,,,,,,,144,3110 ALBANY HIGHWAY,39842,DAWSON,TERRELL,31.7420575,-84.41413376,13273,10004524
402,state,Georgia,TREUTLEN PROBATION DETENTION CENTER,2021-02-08,http://www.dcor.state.ga.us/content/CVD_Dashboard,55,23,0,0,29,23,,,,,,,,,,,1 SESSIONS STREET,30457,SOPERTON,TREUTLEN,32.3624615,-82.60238104,13283,10005191
403,state,Georgia,TURNER RESIDENTIAL SUBSTANCE ABUSE TREATMENT,2021-02-08,http://www.dcor.state.ga.us/content/CVD_Dashboard,35,15,0,0,34,11,,,,,,,,,,,514 SOUTH RAILROAD AVE,31790,SYCAMORE,TURNER,31.6621587,-83.63393731,13287,10005201
404,state,Georgia,VALDOSTA STATE PRISON,2021-02-08,http://www.dcor.state.ga.us/content/CVD_Dashboard,42,81,0,0,35,73,,,,,,,,,,1000,3259 VALTECH RD,31601,VALDOSTA,LOWNDES,30.85995723,-83.34575403,13185,10000328
405,state,Georgia,VALDOSTA TRANSITIONAL CENTER,2021-02-08,http://www.dcor.state.ga.us/content/CVD_Dashboard,6,13,0,0,5,13,,,,,,,,,,164,263 GILL HARBIN INDUSTRIAL BLVD.,31601,VALDOSTA,LOWNDES,30.80565871,-83.2675069,13185,10001432
406,state,Georgia,WALKER STATE PRISON,2021-02-08,http://www.dcor.state.ga.us/content/CVD_Dashboard,64,30,1,0,63,30,,,,,,,,,,406,97 KEVIN LANE,30739,ROCK SPRING,WALKER,34.8087205,-85.26194184,13295,10000283
407,state,Georgia,WARE STATE PRISON,2021-02-08,http://www.dcor.state.ga.us/content/CVD_Dashboard,32,62,4,0,27,61,,,,,,,,,,1485,3620 NORTH HARRIS ROAD,31501,WAYCROSS,WARE,31.25673084,-82.39335661,13299,10002147
408,state,Georgia,WASHINGTON STATE PRISON,2021-02-08,http://www.dcor.state.ga.us/content/CVD_Dashboard,27,7,0,0,27,7,,,,,,,,,,1334,13262 HWY 24 E,31018,DAVISBORO,WASHINGTON,32.98872379,-82.59490798,13303,10002126
409,state,Georgia,WEST CENTRAL INTEGRATED TREATMENT FACILITY,2021-02-08,http://www.dcor.state.ga.us/content/CVD_Dashboard,41,28,0,0,41,26,,,,,,,,,,,1070 COUNTY FARM ROAD,30295,ZEBULON,PIKE,33.11609815,-84.3610402,13231,10004487
410,state,Georgia,WHEELER CORRECTIONAL FACILITY,2021-02-08,http://www.dcor.state.ga.us/content/CVD_Dashboard,172,0,13,0,159,0,,,,,,,,,,2636,195 NORTH BROAD STREET,30411,ALAMO,WHEELER,32.1504927,-82.79500753,13309,10002142
411,state,Georgia,WHITWORTH WOMENS FACILITY,2021-02-08,http://www.dcor.state.ga.us/content/CVD_Dashboard,21,22,1,0,19,21,,,,,,,,,,,,,,,,,,
412,state,Georgia,WILCOX STATE PRISON,2021-02-08,http://www.dcor.state.ga.us/content/CVD_Dashboard,67,35,3,0,62,32,,,,,,,,,,1789,470 SOUTH BROAD STREET,31001,ABBEVILLE,WILCOX,31.98502256,-83.30017247,13315,10000318
413,state,Georgia,WOMENS PROBATION DETENTION CENTER,2021-02-08,http://www.dcor.state.ga.us/content/CVD_Dashboard,12,9,0,0,6,8,,,,,,,,,,,,,,,,,,
414,state,Hawaii,HALAWA CORRECTIONAL FACILITY,2021-02-08,https://dps.hawaii.gov/blog/2020/03/17/coronavirus-covid-19-information-and-resources/,546,,6,,540,,3083,,2527,,,,,,3,852,99-902 MOANALUA RD,96701,AIEA,HONOLULU,21.37379134,-157.8989822,15003,10000124
415,state,Hawaii,HAWAII COMMUNITY CORRECTIONAL CENTER,2021-02-08,https://dps.hawaii.gov/blog/2020/03/17/coronavirus-covid-19-information-and-resources/,1,,0,,1,,285,,284,,0,,0,,0,515,60 PUNAHELE STREET,96720,HILO,HAWAII,19.71830866,-155.0989632,15001,10003694
416,federal,Hawaii,HONOLULU FEDERAL DETENTION CENTER,2021-02-08,https://www.bop.gov/mobile/about/population_statistics.jsp; https://www.bop.gov/coronavirus/,8,,0,0,6,4,,,,,0,,,,,,,,,,,,,
417,state,Hawaii,KAUAI COMMUNITY CORRECTIONAL CENTER,2021-02-08,https://dps.hawaii.gov/blog/2020/03/17/coronavirus-covid-19-information-and-resources/,0,,0,,0,,67,,67,,0,,0,,0,159,3-5351 KUHIO HIGHWAY,96766,LIHUE,KAUAI,22.02515252,-159.3428192,15007,10003692
418,state,Hawaii,KULANI CORRECTIONAL FACILITY,2021-02-08,https://dps.hawaii.gov/blog/2020/03/17/coronavirus-covid-19-information-and-resources/,0,,0,,0,,236,,236,,0,,0,,0,184,HC 01 STAINBACK HWY,96720,HILO,HAWAII,19.54917893,-155.3011053,15001,10000128
419,state,Hawaii,MAUI COMMUNITY CORRECTIONAL CENTER,2021-02-08,https://dps.hawaii.gov/blog/2020/03/17/coronavirus-covid-19-information-and-resources/,8,,0,,0,,302,,293,,0,,91,,8,452,600 WAIALE DR,96793,WAILUKU,MAUI,20.87701605,-156.4983753,15009,10000127
422,state,Hawaii,OHAU COMMUNITY CORRECTIONAL CENTER,2021-02-08,https://dps.hawaii.gov/blog/2020/03/17/coronavirus-covid-19-information-and-resources/,457,,0,,450,,6148,,5673,,0,,0,,0,1268,2199 KAMEHAMEHA HIGHWAY,96819,HONOLULU,HONOLULU,21.32989382,-157.884874,15003,10003691
423,state,Hawaii,SAGUARO CORRECTIONAL CENTER,2021-02-08,https://dps.hawaii.gov/blog/2020/03/17/coronavirus-covid-19-information-and-resources/,657,,2,,655,,3012,,2355,,,,0,,0,1617,1250 EAST ARICA ROAD,85131,ELOY,PINAL,32.80930398,-111.5264356,4021,10003973
425,state,Hawaii,WAIAWA CORRECTIONAL FACILITY,2021-02-08,https://dps.hawaii.gov/blog/2020/03/17/coronavirus-covid-19-information-and-resources/,213,,0,,213,,878,,662,,,,0,,0,202,94-560 KAMEHAMEHA HWY,96797,WAIPAHU,HONOLULU,21.44465003,-157.9609092,15003,10001191
426,state,Hawaii,WOMENS COMMUNITY CORRECTIONAL CENTER,2021-02-08,https://dps.hawaii.gov/blog/2020/03/17/coronavirus-covid-19-information-and-resources/,0,,0,,0,,266,,266,,0,,0,,0,278,42-477 KALANIANAOLE HWY,96734,KAILUA,HONOLULU,21.37802504,-157.7484499,15003,10000126
428,state,Idaho,CENTRAL OFFICE,2021-02-08,https://www.idoc.idaho.gov/content/careers/covid-19,,24,,,,23,,,,,,,,,,,,,,,,,,
429,state,Idaho,DISTRICT 1,2021-02-08,https://www.idoc.idaho.gov/content/careers/covid-19,,4,,,,4,,,,,,,,,,,,,,,,,,
430,state,Idaho,DISTRICT 3,2021-02-08,https://www.idoc.idaho.gov/content/careers/covid-19,,6,,,,6,,,,,,,,,,,,,,,,,,
431,state,Idaho,DISTRICT 4,2021-02-08,https://www.idoc.idaho.gov/content/careers/covid-19,,15,,,,15,,,,,,,,,,,,,,,,,,
432,state,Idaho,DISTRICT 5,2021-02-08,https://www.idoc.idaho.gov/content/careers/covid-19,,8,,,,8,,,,,,,,,,,,,,,,,,
434,state,Idaho,EAST BOISE COMMUNITY REENTRY CENTER,2021-02-08,https://www.idoc.idaho.gov/content/careers/covid-19,,5,,,,5,,,,,,,,,,109,2366 OLD PENITENTIARY RD,83712,BOISE,ADA,43.60314093,-116.1638439,16001,10001184
435,state,Idaho,IDAHO CORRECTIONAL INSTITUTION OROFINO,2021-02-08,https://www.idoc.idaho.gov/content/careers/covid-19,,43,,,,43,,,,,,,,,,576,381 WEST HOSPITAL DRIVE,83544,OROFINO,CLEARWATER,46.49197836,-116.2607095,16035,10001172
436,state,Idaho,IDAHO FALLS COMMUNITY REENTRY CENTER,2021-02-08,https://www.idoc.idaho.gov/content/careers/covid-19,,5,,,,5,,,,,,,,,,95,3955 BOMBARDIER AVE,83402,IDAHO FALLS,BONNEVILLE,43.46230015,-112.0639693,16019,10001186
437,state,Idaho,IDAHO MAXIMUM SECURITY INSTIUTION,2021-02-08,https://www.idoc.idaho.gov/content/careers/covid-19,,38,,,,37,,,,,,,,,,1473,13500 S PLEASANT VALLEY RD,83634,KUNA,ADA,43.47938786,-116.2189574,16001,10001181
438,state,Idaho,IDAHO STATE CORRECTIONAL CENTER,2021-02-08,https://www.idoc.idaho.gov/content/careers/covid-19,,90,,,,89,,,,,,,,,,2181,14601 S PLEASANT VALLEY RD,83634,KUNA,ADA,43.47119944,-116.2375874,16001,10001183
439,state,Idaho,IDAHO STATE CORRECTIONAL INSTITUTION,2021-02-08,https://www.idoc.idaho.gov/content/careers/covid-19,,96,,,,96,,,,,,,,,,1473,13500 S PLEASANT VALLEY RD,83634,KUNA,ADA,43.47938786,-116.2189574,16001,10001181
441,state,Idaho,NORTH IDAHO CORRRECTIONAL INSTIUTION,2021-02-08,https://www.idoc.idaho.gov/content/careers/covid-19,,15,,,,14,,,,,,,,,,409,236 RADAR RD,83522,COTTONWOOD,IDAHO,46.07917307,-116.4280588,16049,10001173
442,state,Idaho,POCATELLO WOMENS CORRECTIONAL CENTER,2021-02-08,https://www.idoc.idaho.gov/content/careers/covid-19,,8,,,,8,,,,,,,,,,323,1451 FORE RD,83204,POCATELLO,BANNOCK,42.84256222,-112.4506302,16005,10001187
443,state,Idaho,SAINT ANTHONY WORK CAMP,2021-02-08,https://www.idoc.idaho.gov/content/careers/covid-19,,18,,,,18,,,,,,,,,,253,125 N 8TH W,83445,ST ANTHONY,FREMONT,43.96809846,-111.6935417,16043,10001176
444,state,Idaho,SOUTH BOISE WOMENS CORRECTIONAL CENTER,2021-02-08,https://www.idoc.idaho.gov/content/careers/covid-19,,22,,,,22,,,,,,,,,,293,13200 S PLEASANT VALLEY RD,83634,KUNA,ADA,43.48338,-116.23392,16001,10001185
445,state,Idaho,SOUTH IDAHO CORRECTIONAL INSTIUTION,2021-02-08,https://www.idoc.idaho.gov/content/careers/covid-19,,31,,,,31,,,,,,,,,,1473,13500 S PLEASANT VALLEY RD,83634,KUNA,ADA,43.47938786,-116.2189574,16001,10001181
446,state,Idaho,STATEWIDE,2021-02-08,https://www.idoc.idaho.gov/content/careers/covid-19,4047,,5,,,,,,18537,,160,,,,894,,,,,,,,,
447,state,Idaho,TREASURE VALLEY COMMUNITY REENTRY CENTER,2021-02-08,https://www.idoc.idaho.gov/content/careers/covid-19,,1,,,,1,,,,,,,,,,102,14195 S PLEASANT VALLEY RD,83634,KUNA,ADA,43.6574178,-116.6678165,16001,10004339
448,federal,Illinois,ALPHA HOUSE OF SPRINGFIELD,2021-02-08,https://www.bop.gov/coronavirus/,3,,0,0,3,0,,,,,0,,,,,,,,,,,,,
449,state,Illinois,BIG MUDDY RIVER CORRECTIONAL CENTER,2021-02-08,https://www2.illinois.gov/idoc/facilities/Pages/Covid19Response.aspx,331,94,,,241,90,7468,,,,,,,,90,1218,251 NORTH ILLINOIS HIGHWAY 37,62846,INA,JEFFERSON,38.13064497,-88.90835135,17081,10002259
451,state,Illinois,CENTRALIA CORRECTIONAL CENTER,2021-02-08,https://www2.illinois.gov/idoc/facilities/Pages/Covid19Response.aspx,126,142,,,115,136,10698,,,,,,,,11,1209,9330 SHATTUC ROAD,62801,CENTRALIA,CLINTON,38.55384409,-89.19170102,17027,10000683
453,federal,Illinois,CHICAGO METROPOLITAN CORRECTIONAL CENTER,2021-02-08,https://www.bop.gov/mobile/about/population_statistics.jsp; https://www.bop.gov/coronavirus/,211,,0,0,291,28,,,,,0,,,,,668,71 WEST VAN BUREN STREET,60605,CHICAGO,COOK,41.87658453,-87.63048213,17031,10001470
455,state,Illinois,CROSSROADS ADULT TRANSITION CENTER,2021-02-08,https://www2.illinois.gov/idoc/facilities/Pages/Covid19Response.aspx,5,1,,,5,1,0,,,,,,,,0,325,3210 WEST ARTHINGTON STREET,60624,CHICAGO,COOK,41.87048357,-87.70635938,17031,10000635
456,state,Illinois,DANVILLE CORRECTIONAL CENTER,2021-02-08,https://www2.illinois.gov/idoc/facilities/Pages/Covid19Response.aspx,962,152,,,934,146,11790,,,,,,,,28,1605,3820 EAST MAIN STREET,61834,DANVILLE,VERMILION,40.12956679,-87.53645593,17183,10000662
457,state,Illinois,DECATUR CORRECTIONAL CENTER,2021-02-08,https://www2.illinois.gov/idoc/facilities/Pages/Covid19Response.aspx,84,48,,,83,47,3040,,,,,,,,1,535,2310 EAST MOUND ROAD,62524,DECATUR,MACON,39.89511506,-88.92662636,17115,10000669
458,state,Illinois,DIXON CORRECTIONAL INSTITUTE,2021-02-08,https://www2.illinois.gov/idoc/facilities/Pages/Covid19Response.aspx,578,252,,,576,248,18403,,,,,,,,2,2051,2600 NORTH BRINTON AVENUE,61021,DIXON,LEE,41.8737451,-89.47817317,17103,10000642
459,state,Illinois,EAST MOLINE CORRECTIONAL CENTER,2021-02-08,https://www2.illinois.gov/idoc/facilities/Pages/Covid19Response.aspx,348,75,,,346,67,8499,,,,,,,,2,1175,100 HILLCREST ROAD,61244,EAST MOLINE,ROCK ISLAND,41.53372905,-90.41912151,17161,10000644
460,state,Illinois,ELGIN TREATMENT CENTER,2021-02-08,https://www2.illinois.gov/idoc/facilities/Pages/Covid19Response.aspx,0,18,,,0,17,158,,,,,,,,0,18,750 SOUTH STATE STREET,60123,ELGIN,KANE,42.02130557,-88.28448575,17089,10006979
461,state,Illinois,FOX VALLEY ADULT TRANSITION CENTER,2021-02-08,https://www2.illinois.gov/idoc/facilities/Pages/Covid19Response.aspx,4,9,,,4,9,122,,,,,,,,0,127,1329 N LAKE ST,60506,AURORA,KANE,41.78792125,-88.3202916,17089,10000638
462,state,Illinois,GENERAL OFFICE,2021-02-08,https://www2.illinois.gov/idoc/facilities/Pages/Covid19Response.aspx,0,27,,,0,25,0,,,,,,,,0,,,,,,,,,
463,state,Illinois,GRAHAM CORRECTIONAL CENTER,2021-02-08,https://www2.illinois.gov/idoc/facilities/Pages/Covid19Response.aspx,704,177,,,697,176,8171,,,,,,,,7,1803,12078 ILLINOIS ROUTE 185,62049,HILLSBORO,MONTGOMERY,39.12648969,-89.47493262,17135,10000674
464,federal,Illinois,GREENVILLE FCI,2021-02-08,https://www.bop.gov/mobile/about/population_statistics.jsp; https://www.bop.gov/coronavirus/,741,,0,0,760,64,,,,,0,,,,,,,,,,,,,
465,state,Illinois,HILL CORRECTIONAL CENTER,2021-02-08,https://www2.illinois.gov/idoc/facilities/Pages/Covid19Response.aspx,364,80,,,355,79,12107,,,,,,,,9,1643,600 SOUTH LINWOOD ROAD,61401,GALESBURG,KNOX,40.93974548,-90.40695799,17095,10000653
466,state,Illinois,ILLINOIS RIVER CORRECTIONAL CENTER,2021-02-08,https://www2.illinois.gov/idoc/facilities/Pages/Covid19Response.aspx,216,110,,,214,108,12808,,,,,,,,2,1770,1300 WEST LOCUST STREET,61520,CANTON,FULTON,40.55672719,-90.08258486,17057,10000660
467,state,Illinois,JACKSONVILLE CORRECTIONAL CENTER,2021-02-08,https://www2.illinois.gov/idoc/facilities/Pages/Covid19Response.aspx,473,167,,,473,165,3387,,,,,,,,0,965,2268 EAST MORTON AVENUE,62650,JACKSONVILLE,MORGAN,39.72668976,-90.17561449,17137,10000671
468,state,Illinois,JOLIET TREATMENT CENTER,2021-02-08,https://www2.illinois.gov/idoc/facilities/Pages/Covid19Response.aspx,7,76,,,7,72,1782,,,,,,,,0,196,2848 WEST MCDONOUGH,60436,JOLIET,WILL,41.51234669,-88.15264614,17197,10000646
469,state,Illinois,KEWANEE LIFE SKILLS REENTRY CENTER,2021-02-08,https://www2.illinois.gov/idoc/facilities/Pages/Covid19Response.aspx,15,48,,,15,46,738,,,,,,,,0,278,2021 KENTVILLE ROAD,61443,KEWANEE,HENRY,41.25333209,-89.89171233,17073,10004677
470,state,Illinois,LAWRENCE CORRECTIONAL CENTER,2021-02-08,https://www2.illinois.gov/idoc/facilities/Pages/Covid19Response.aspx,953,204,,,950,199,11361,,,,,,,,3,2042,10940 LAWRENCE ROAD,62466,SUMNER,LAWRENCE,38.72823,-87.90591,17101,10000682
471,state,Illinois,LINCOLN CORRECTIONAL CENTER,2021-02-08,https://www2.illinois.gov/idoc/facilities/Pages/Covid19Response.aspx,275,83,,,275,83,3289,,,,,,,,0,964,1098 1350TH STREET,62656,LINCOLN,LOGAN,40.11823756,-89.38908259,17107,10000664
472,state,Illinois,LOGAN CORRECTIONAL CENTER,2021-02-08,https://www2.illinois.gov/idoc/facilities/Pages/Covid19Response.aspx,593,221,,,586,210,12337,,,,,,,,7,1588,1096 1350TH STREET,62656,LINCOLN,LOGAN,40.1140649,-89.3881401,17107,10000665
473,federal,Illinois,MARION UNITED STATES PENITENTIARY,2021-02-08,https://www.bop.gov/mobile/about/population_statistics.jsp; https://www.bop.gov/coronavirus/,779,,2,0,787,52,,,,,0,,,,,1129,4500 PRISON ROAD,62959,MARION,WILLIAMSON,37.66315314,-88.98406132,17199,10000694
474,state,Illinois,MENARD CORRECTIONAL CENTER,2021-02-08,https://www2.illinois.gov/idoc/facilities/Pages/Covid19Response.aspx,229,281,,,227,279,20705,,,,,,,,2,1834,711 KASKASKIA STREET,62259,MENARD,RANDOLPH,37.912685690000004,-89.84197817,17157,10000687
476,state,Illinois,MURPHYSBORO CORRECTIONAL CENTER,2021-02-08,https://www2.illinois.gov/idoc/facilities/Pages/Covid19Response.aspx,55,35,,,55,32,505,,,,,,,,0,171,,,,,,,,
477,state,Illinois,NORTH LAWNDALE ADULT TRANSITION CENTER,2021-02-08,https://www2.illinois.gov/idoc/facilities/Pages/Covid19Response.aspx,7,6,,,6,6,0,,,,,,,,1,200,2839 WEST FILLMORE STREET,60612,CHICAGO,COOK,41.868038,-87.697785,17031,10000636
478,state,Illinois,PAROLE,2021-02-08,https://www2.illinois.gov/idoc/facilities/Pages/Covid19Response.aspx,0,50,,,0,41,0,,,,,,,,0,,,,,,,,,
479,federal,Illinois,PEKIN FEDERAL CORRECTIONAL INSTITUTION,2021-02-08,https://www.bop.gov/mobile/about/population_statistics.jsp; https://www.bop.gov/coronavirus/,812,,0,0,791,70,,,,,2,,,,,,,,,,,,,
480,state,Illinois,PEORIA ADULT TRANSITION CENTER,2021-02-08,https://www2.illinois.gov/idoc/facilities/Pages/Covid19Response.aspx,14,18,,,11,16,348,,,,,,,,3,244,,,,,,,,
481,state,Illinois,PINCKNEYVILLE CORRECTIONAL CENTER,2021-02-08,https://www2.illinois.gov/idoc/facilities/Pages/Covid19Response.aspx,852,166,,,770,160,10355,,,,,,,,82,1901,5835 STATE ROUTE 154,62274,PINCKNEYVILLE,PERRY,38.0866456,-89.3272605,17145,10000688
482,state,Illinois,PONTIAC CORRECTIONAL CENTER,2021-02-08,https://www2.illinois.gov/idoc/facilities/Pages/Covid19Response.aspx,314,315,,,310,306,11992,,,,,,,,4,1160,700 WEST LINCOLN STREET,61764,PONTIAC,LIVINGSTON,40.86928355,-88.63603689,17105,10000655
483,state,Illinois,ROBINSON CORRECTIONAL CENTER,2021-02-08,https://www2.illinois.gov/idoc/facilities/Pages/Covid19Response.aspx,380,89,,,380,81,10008,,,,,,,,0,1121,13423 EAST 1150TH AVENUE,62454,ROBINSON,CRAWFORD,39.01935425,-87.69758953,17033,10000678
485,state,Illinois,SHAWNEE CORRECTIONAL CENTER,2021-02-08,https://www2.illinois.gov/idoc/facilities/Pages/Covid19Response.aspx,276,97,,,274,93,9857,,,,,,,,2,1576,6665 STATE ROUTE 146 EAST,62995,VIENNA,JOHNSON,37.40038459,-88.77535417,17087,10000695
486,state,Illinois,SHERIDAN CORRECTIONAL CENTER,2021-02-08,https://www2.illinois.gov/idoc/facilities/Pages/Covid19Response.aspx,373,120,,,366,118,11477,,,,,,,,7,1670,4017 EAST 2603 ROAD,60551,SHERIDAN,LA SALLE,41.51604912,-88.68465975,17099,10000652
487,state,Illinois,SOUTHWESTERN ILLINOIS CORRECTIONAL CENTER,2021-02-08,https://www2.illinois.gov/idoc/facilities/Pages/Covid19Response.aspx,47,97,,,46,90,2145,,,,,,,,1,598,950 KINGSHIGHWAY ST,62203,EAST ST LOUIS,ST CLAIR,38.61691302,-90.0908182,17163,10000685
488,state,Illinois,STATEVILLE CORRECTIONAL CENTER,2021-02-08,https://www2.illinois.gov/idoc/facilities/Pages/Covid19Response.aspx,302,176,,,302,172,12376,,,,,,,,0,1262,16830 SOUTH BROADWAY STREET,60434,JOLIET,WILL,41.57873778,-88.09456267,17197,10000647
489,state,Illinois,STATEVILLE NORTHERN RECEPTION AND CLASSIFICATION CENTER,2021-02-08,https://www2.illinois.gov/idoc/facilities/Pages/Covid19Response.aspx,325,143,,,314,132,14843,,,,,,,,11,1173,16830 SOUTH BROADWAY STREET,60434,JOLIET,WILL,41.57873778,-88.09456267,17197,10000647
490,state,Illinois,TAYLORVILLE CORRECTIONAL CENTER,2021-02-08,https://www2.illinois.gov/idoc/facilities/Pages/Covid19Response.aspx,455,99,,,454,98,5977,,,,,,,,1,1028,1144 ILLINOIS ROUTE 29,62568,TAYLORVILLE,CHRISTIAN,39.51525785,-89.2264661,17021,10000673
491,federal,Illinois,THOMSON UNITED STATES PENITENTIARY,2021-02-08,https://www.bop.gov/coronavirus/,483,,0,1,525,85,,,,,0,,,,,703,1100 ONE MILE ROAD,61285,THOMSON,CARROLL,41.97296619,-90.10929881,17015,10000633
492,state,Illinois,VANDALIA CORRECTIONAL CENTER,2021-02-08,https://www2.illinois.gov/idoc/facilities/Pages/Covid19Response.aspx,493,138,,,493,133,2243,,,,,,,,0,1068,ROUTE 51 NORTH,62471,VANDALIA,FAYETTE,39.01089284,-89.09608515,17051,10000677
493,state,Illinois,VIENNA CORRECTIONAL CENTER,2021-02-08,https://www2.illinois.gov/idoc/facilities/Pages/Covid19Response.aspx,92,107,,,92,100,5309,,,,,,,,0,920,6695 STATE ROUTE 146 EAST,62995,VIENNA,JOHNSON,37.40562486,-88.7701425,17087,10004734
494,state,Illinois,WESTERN ILLINOIS CORRECTIONAL CENTER,2021-02-08,https://www2.illinois.gov/idoc/facilities/Pages/Covid19Response.aspx,211,105,,,205,103,14385,,,,,,,,6,1633,2500 RT. 99 SOUTH,62353,MOUNT STERLING,BROWN,39.96285696,-90.75396657,17009,10000667
495,state,Indiana,BRANCHVILLE CORRECTIONAL FACILITY,2021-02-08,https://www.in.gov/idoc/3780.htm,229,66,1,0,227,65,503,248,,,,,0,,1,1387,21390 OLD STATE RD 37,47514,BRANCHVILLE,PERRY,38.15137828,-86.59980056,18123,10001075
497,state,Indiana,CENTRAL OFFICE,2021-02-08,https://www.in.gov/idoc/3780.htm,,40,,0,,38,,131,,,,,,,,,,,,,,,,
498,state,Indiana,CHAIN OLAKES CORRECTIONAL FACILITY,2021-02-08,https://www.in.gov/idoc/3780.htm,83,5,0,0,83,5,166,16,,,,,2,,0,135,3516 E 75 SOUTH,46701,ALBION,NOBLE,41.33701028,-85.35310253,18113,10004895
500,state,Indiana,CORRECTIONAL INDUSTRIAL FACILITY,2021-02-08,https://www.in.gov/idoc/3780.htm,135,104,3,0,132,101,452,385,,,,,19,,0,1458,5124 W REFORMATORY RD,46064,PENDLETON,MADISON,39.97598494,-85.77135909,18095,10001060
501,state,Indiana,EDINBURGH CORRECTIONAL FACILITY,2021-02-08,https://www.in.gov/idoc/3780.htm,16,23,0,0,16,23,107,83,,,,,0,,0,340,"P.O. BOX 470, 23RD & SCHOOLHOUSE RD",46124,EDINBURGH,JOHNSON,39.35145302,-86.0386027,18081,10004920
502,state,Indiana,HERITAGE TRAIL CORRECTIONAL FACILITY,2021-02-08,https://www.in.gov/idoc/3780.htm,55,33,0,0,54,32,224,67,,,,,0,,1,857,501 WEST MAIN STREET,46168,PLAINFIELD,HENDRICKS,39.69366223,-86.40761718,18063,10006309
503,state,Indiana,INDIANA STATE PRISON,2021-02-08,https://www.in.gov/idoc/3780.htm,72,107,2,0,70,106,349,413,,,,,0,,0,2364,1 PARK ROW,46360,MICHIGAN CITY,LAPORTE,41.70343089,-86.9173169,18091,10005599
504,state,Indiana,INDIANA WOMENS PRISON,2021-02-08,https://www.in.gov/idoc/3780.htm,129,44,0,1,127,39,689,122,,,,,13,,2,696,2596 GIRLS SCHOOL ROAD,46214,INDIANAPOLIS,MARION,39.80094018,-86.29189795,18097,10001065
505,state,Indiana,LAPORTE JUVENILE CORRECTIONAL FACILITY,2021-02-08,https://www.in.gov/idoc/3780.htm,16,12,0,0,16,12,129,46,,,,,6,,0,21,"809 STATE ST, SUITE 201A",46350,LA PORTE,LAPORTE,41.61206231,-86.72292259,18091,10001053
507,state,Indiana,LOGANSPORT JUVENILE CORRECTIONAL FACILITY,2021-02-08,https://www.in.gov/idoc/3780.htm,13,37,0,0,13,36,243,91,,,,,0,,0,23,1118 S STATE RD 25,46947,LOGANSPORT,CASS,40.74154606,-86.40152309,18017,10004903
508,state,Indiana,MADISON CORRECTIONAL FACILITY,2021-02-08,https://www.in.gov/idoc/3780.htm,133,29,0,0,98,28,638,259,,,,,196,,35,709,1130 MSH 4TH STREET,47250,MADISON,JEFFERSON,38.74778116,-85.40047051,18077,10006545
509,state,Indiana,MIAMI CORRECTIONAL FACILITY,2021-02-08,https://www.in.gov/idoc/3780.htm,248,89,10,1,231,79,943,188,,,,,39,,7,3111,3038 W 850 S,46914,BUNKER HILL,MIAMI,40.6459301,-86.13530041,18103,10001059
510,state,Indiana,NEW CASTLE CORRECTIONAL FACILITY,2021-02-08,https://www.in.gov/idoc/3780.htm,356,103,10,0,346,96,1192,316,,,,,0,,0,3130,1000 VAN NUYS RD,47362,NEW CASTLE,HENRY,39.96237788,-85.37022541,18065,10004913
511,state,Indiana,PENDLETON CORRECTIONAL FACILITY,2021-02-08,https://www.in.gov/idoc/3780.htm,163,87,4,0,159,74,641,373,,,,,14,,0,1862,4490 W REFORMATORY RD,46064,PENDLETON,MADISON,39.98338112,-85.76085702,18095,10001061
512,state,Indiana,PENDLETON JUVENILE CORRECTIONAL FACILITY,2021-02-08,https://www.in.gov/idoc/3780.htm,57,62,0,0,57,59,292,270,,,,,1,,0,200,9310 S STATE RD 67,46064,PENDLETON,MADISON,39.96907067,-85.77458045,18095,10001062
513,state,Indiana,PLAINFIELD CORRECTIONAL FACILITY,2021-02-08,https://www.in.gov/idoc/3780.htm,137,104,8,0,127,101,611,402,,,,,14,,2,1499,737 MOON RD,46168,PLAINFIELD,HENDRICKS,39.68899972,-86.41604046,18063,10001067
515,state,Indiana,PUTNAMVILLE CORRECTIONAL FACILITY,2021-02-08,https://www.in.gov/idoc/3780.htm,256,107,3,1,253,102,1479,543,,,,,39,,0,2163,1946 W US HWY 40,46135,GREENCASTLE,PUTNAM,39.56503726,-86.88666488,18133,10001071
516,state,Indiana,RECEPTION AND DIAGNOSTIC CENTER,2021-02-08,https://www.in.gov/idoc/3780.htm,385,79,0,0,378,77,4139,281,,,,,162,,7,655,737 MOON RD,46168,PLAINFIELD,HENDRICKS,39.68899972,-86.41604046,18063,10001067
517,state,Indiana,ROCKVILLE CORRECTIONAL FACILITY,2021-02-08,https://www.in.gov/idoc/3780.htm,319,77,0,0,314,70,1488,297,,,,,119,,5,1139,811 W 50 N,47872,ROCKVILLE,PARKE,39.77431571,-87.25434717,18121,10001063
519,state,Indiana,SOUTH BEND REENTRY CENTER,2021-02-08,https://www.in.gov/idoc/3780.htm,27,6,0,0,27,6,227,23,,,,,0,,0,186,,,,,,,,
521,federal,Indiana,TERRE HAUTE FEDERAL CORRECTIONAL INSTITUTION,2021-02-08,https://www.bop.gov/mobile/about/population_statistics.jsp; https://www.bop.gov/coronavirus/,504,,3,0,451,112,,,,,5,,,,,,,,,,,,,
522,federal,Indiana,TERRE HAUTE UNITED STATES PENITENTIARY,2021-02-08,https://www.bop.gov/mobile/about/population_statistics.jsp; https://www.bop.gov/coronavirus/,679,,2,0,693,18,,,,,1,,,,,1355,4700 BUREAU RD S,47802,TERRE HAUTE,VIGO,39.40758139,-87.45452498,18167,10004923
524,state,Indiana,WABASH VALLEY CORRECTIONAL FACILITY,2021-02-08,https://www.in.gov/idoc/3780.htm,272,185,2,1,270,180,1086,658,,,,,31,,0,2102,6908 S OLD US HWY 41,47838,CARLISLE,SULLIVAN,38.97792912,-87.40030287,18153,10001072
525,state,Indiana,WESTVILLE CORRECTIONAL FACILITY,2021-02-08,https://www.in.gov/idoc/3780.htm,272,185,6,0,266,169,885,621,,,,,0,,0,2989,5501 S 1100 W,46391,WESTVILLE,LAPORTE,41.52575257,-86.90808495,18091,10001051
526,state,Iowa,ANAMOSA STATE PENITENTIARY,2021-02-08,https://doc.iowa.gov/COVID19,868,154,6,,868,154,,,,,,,,,0,969,406 N HIGH ST,52205,ANAMOSA,JONES,42.11129071,-91.29127202,19105,10001082
527,state,Iowa,CLARINDA CORRECTIONAL FACILITY,2021-02-08,https://doc.iowa.gov/COVID19,599,62,1,,599,62,,,,,,,,,0,987,2000 NORTH 16TH STREET,51632,CLARINDA,PAGE,40.76249094,-95.03582563,19145,10001099
528,state,Iowa,FORT DODGE CORRECTIONAL FACILITY,2021-02-08,https://doc.iowa.gov/COVID19,560,90,4,,557,90,,,,,,,,,3,1252,1550 L STREET,50501,FORT DODGE,WEBSTER,42.48489252,-94.19609253,19187,10001077
529,state,Iowa,IOWA CORRECTIONAL INSTIUTION FOR WOMEN,2021-02-08,https://doc.iowa.gov/COVID19,22,37,0,,21,37,,,,,,,,,1,711,420 MILL STREET SOUTHWEST,50169,MITCHELLVILLE,POLK,41.66299579,-93.3661037,19153,10001087
530,state,Iowa,IOWA MEDICAL AND CLASSIFICATION CENTER,2021-02-08,https://doc.iowa.gov/COVID19,498,108,5,,496,107,,,,,,,,,2,894,2700 CORAL RIDGE AVE,52241,CORALVILLE,JOHNSON,41.71369597,-91.61182585,19103,10001091
531,state,Iowa,IOWA STATE PENITENTIARY,2021-02-08,https://doc.iowa.gov/COVID19,229,96,2,,229,94,,,,,,,,,0,688,2111 330TH AVENUE,52627,FORT MADISON,LEE,40.65361883,-91.30326789,19111,10001100
532,state,Iowa,MT PLEASANT CORRECTIONAL FACILITY,2021-02-08,https://doc.iowa.gov/COVID19,781,60,0,,780,60,,,,,,,,,1,1018,1200 EAST WASHINGTON STREET,52641,MOUNT PLEASANT,HENRY,40.95581384,-91.53617358,19087,10001096
533,state,Iowa,NEWTON CORRECTIONAL FACILITY,2021-02-08,https://doc.iowa.gov/COVID19,513,44,0,,512,43,,,,,,,,,1,924,307 SOUTH 60TH AVENUE WEST,50208,NEWTON,JASPER,41.627170219999996,-93.05696851,19099,10001090
534,state,Iowa,NORTH CENTRAL,2021-02-08,https://doc.iowa.gov/COVID19,389,34,0,,389,34,,,,,,,,,0,485,313 LANEDALE,50579,ROCKWELL CITY,CALHOUN,42.39222762,-94.60437667,19025,10001080
535,county,Iowa,POLK COUNTY JAIL,2021-02-08,https://www.polkcountyiowa.gov/county-sheriff/news-press-releases/,6,5,,,,,2297,335,,,,,,,,911,1985 NE 51ST PL,50309,DES MOINES,POLK,41.65332,-93.58793,19153,10001085
536,state,Iowa,STATEWIDE,2021-02-08,https://doc.iowa.gov/COVID19,,,,2,,,,,,,,,,,,,,,,,,,,
538,state,Kansas,EL DORADO CORRECTIONAL FACILITY,2021-02-08,https://www.kansas_statewide.gov/corrections/sites/kansas_statewide.gov.corrections/files/inline-files/MDOC%20COVID19WebDashboard11-9-2020.pdf; https://www.doc.ks.gov/kdoc-coronavirus-updates/kdoc-covid-19-status,971,232,2,1,,,,,,,,,,,17,2026,1737 SOUTHEAST UNITED STATES HIGHWAY 54,67042,EL DORADO,BUTLER,37.80325673,-96.81713261,20015,10001045
539,state,Kansas,ELLSWORTH CORRECTIONAL FACILITY,2021-02-08,https://www.kansas_statewide.gov/corrections/sites/kansas_statewide.gov.corrections/files/inline-files/MDOC%20COVID19WebDashboard11-9-2020.pdf; https://www.doc.ks.gov/kdoc-coronavirus-updates/kdoc-covid-19-status,584,90,3,0,,,,,,,,,,,5,909,1607 STATE STREET,67439,ELLSWORTH,ELLSWORTH,38.74301147,-98.23215008,20053,10001040
541,state,Kansas,HUTCHINSON CORRECTIONAL FACILITY,2021-02-08,https://www.kansas_statewide.gov/corrections/sites/kansas_statewide.gov.corrections/files/inline-files/MDOC%20COVID19WebDashboard11-9-2020.pdf; https://www.doc.ks.gov/kdoc-coronavirus-updates/kdoc-covid-19-status,1375,284,3,1,,,,,,,,,,,11,1898,500 REFORMATORY STREET,67504,HUTCHINSON,RENO,38.04458476,-97.91073579,20155,10001043
542,state,Kansas,KANSAS JUVENILE CORRECTIONAL COMPLEX,2021-02-08,https://www.kansas_statewide.gov/corrections/sites/kansas_statewide.gov.corrections/files/inline-files/MDOC%20COVID19WebDashboard11-9-2020.pdf; https://www.doc.ks.gov/kdoc-coronavirus-updates/kdoc-covid-19-status,20,67,0,0,,,,,,,,,,,0,185,1430 NORTHWEST 25TH STREET,66618,TOPEKA,SHAWNEE,39.09678729,-95.68423367,20177,10001034
543,state,Kansas,LANSING CORRECTIONAL FACILITY,2021-02-08,https://www.kansas_statewide.gov/corrections/sites/kansas_statewide.gov.corrections/files/inline-files/MDOC%20COVID19WebDashboard11-9-2020.pdf; https://www.doc.ks.gov/kdoc-coronavirus-updates/kdoc-covid-19-status,1009,187,5,2,,,,,,,,,,,6,1683,301 EAST KANSAS AVE,66043,LANSING,LEAVENWORTH,39.25190411,-94.89130455,20103,10001030
544,state,Kansas,LARNED CORRECTIONAL FACILITY,2021-02-08,https://www.kansas_statewide.gov/corrections/sites/kansas_statewide.gov.corrections/files/inline-files/MDOC%20COVID19WebDashboard11-9-2020.pdf; https://www.doc.ks.gov/kdoc-coronavirus-updates/kdoc-covid-19-status,353,74,1,0,,,,,,,,,,,0,571,1318 STATE HIGHWAY 264,67550,LARNED,PAWNEE,38.17710787,-99.15101294,20145,10001830
545,federal,Kansas,LEAVENWORTH UNITED STATES PENITENTIARY,2021-02-08,https://www.bop.gov/mobile/about/population_statistics.jsp; https://www.bop.gov/coronavirus/,753,,2,0,732,5,,,,,1,,,,,1360,1300 METROPOLITAN AVENUE,66048,LEAVENWORTH,LEAVENWORTH,39.33105504,-94.93580759,20103,10001029
546,state,Kansas,NORTON CORRECTIONAL FACILITY,2021-02-08,https://www.kansas_statewide.gov/corrections/sites/kansas_statewide.gov.corrections/files/inline-files/MDOC%20COVID19WebDashboard11-9-2020.pdf; https://www.doc.ks.gov/kdoc-coronavirus-updates/kdoc-covid-19-status,765,125,0,0,,,,,,,,,,,0,971,ROAD EAST 4 AND UNITED STATES HIGHWAY 36,67654,NORTON,NORTON,39.84416321,-99.81637284,20137,10001028
549,state,Kansas,TOPEKA CORRECTIONAL FACILITY,2021-02-08,https://www.kansas_statewide.gov/corrections/sites/kansas_statewide.gov.corrections/files/inline-files/MDOC%20COVID19WebDashboard11-9-2020.pdf; https://www.doc.ks.gov/kdoc-coronavirus-updates/kdoc-covid-19-status,388,96,0,1,,,,,,,,,,,156,899,815 SOUTHEAST RICE ROAD,66607,TOPEKA,SHAWNEE,39.04069275,-95.6254707,20177,10001033
550,state,Kansas,WICHITA WORK RELEASE,2021-02-08,https://www.kansas_statewide.gov/corrections/sites/kansas_statewide.gov.corrections/files/inline-files/MDOC%20COVID19WebDashboard11-9-2020.pdf; https://www.doc.ks.gov/kdoc-coronavirus-updates/kdoc-covid-19-status,81,24,0,0,,,,,,,,,,,0,251,401 SOUTH EMPORIA STREET,67202,WICHITA,SEDGWICK,37.68209659,-97.33329523,20173,10001048
551,state,Kansas,WINFIELD CORRECTIONAL FACILITY,2021-02-08,https://www.kansas_statewide.gov/corrections/sites/kansas_statewide.gov.corrections/files/inline-files/MDOC%20COVID19WebDashboard11-9-2020.pdf; https://www.doc.ks.gov/kdoc-coronavirus-updates/kdoc-covid-19-status,402,68,0,0,,,,,,,,,,,144,612,1806 PINECREST CIRCLE,67156,WINFIELD,COWLEY,37.26426587,-96.97365125,20035,10001050
552,federal,Kentucky,ASHLAND FEDERAL CORRECTIONAL INSTITUTION,2021-02-08,https://www.bop.gov/mobile/about/population_statistics.jsp; https://www.bop.gov/coronavirus/,338,,6,0,344,56,,,,,0,,,,,,,,,,,,,
553,state,Kentucky,BELL COUNTY FORESTRY CAMP,2021-02-08,https://corrections.ky.gov/Facilities/Pages/covid19.aspx,187,26,0,0,,,,,,,,,,,0,300,560 CORRECTIONAL DR,40977,PINEVILLE,BELL,36.6689938,-83.85169233,21013,10000122
554,federal,Kentucky,BIG SANDY UNITED STATES PENITENTIARY,2021-02-08,https://www.bop.gov/mobile/about/population_statistics.jsp; https://www.bop.gov/coronavirus/,101,,0,0,78,86,,,,,2,,,,,,,,,,,,,
555,state,Kentucky,BLACKBURN CORRECTIONAL COMPLEX,2021-02-08,https://corrections.ky.gov/Facilities/Pages/covid19.aspx,229,35,1,0,,,,,,,,,,,14,317,3111 SPURR RD,40511,LEXINGTON,FAYETTE,38.11315935,-84.53720452,21067,10003650
556,federal,Kentucky,DISMAS CHARITIES INC RRC LEXINGTON,2021-02-08,https://www.bop.gov/coronavirus/,11,,0,0,5,0,,,,,0,,,,,,,,,,,,,
557,federal,Kentucky,DISMAS OF MANCHESTER RRC,2021-02-08,https://www.bop.gov/coronavirus/,11,,0,0,10,0,,,,,0,,,,,,,,,,,,,
558,state,Kentucky,EASTERN KENTUCKY CORRECTIONAL COMPLEX,2021-02-08,https://corrections.ky.gov/Facilities/Pages/covid19.aspx,1159,177,1,0,,,,,,,,,,,120,1891,200 ROAD TO JUSTICE,41472,WEST LIBERTY,MORGAN,37.90388911,-83.26930995,21175,10000110
559,state,Kentucky,GREEN RIVER CORRECTIONAL COMPLEX,2021-02-08,https://corrections.ky.gov/Facilities/Pages/covid19.aspx,368,70,3,0,,,,,,,,,,,0,958,1200 RIVER RD,42330,CENTRAL CITY,MUHLENBERG,37.3143803,-87.11341674,21177,10000117
560,state,Kentucky,KENTUCKY CORRECTIONAL INSTITUTION FOR WOMEN,2021-02-08,https://corrections.ky.gov/Facilities/Pages/covid19.aspx,403,62,0,0,,,,,,,,,,,0,711,3000 ASH AVE,40056,PEWEE VALLEY,SHELBY,38.2854756,-85.45711972,21211,10000106
561,state,Kentucky,KENTUCKY STATE PENITENTIARY,2021-02-08,https://corrections.ky.gov/Facilities/Pages/covid19.aspx,1,29,1,0,,,,,,,,,,,0,848,266 WATER ST,42038,EDDYVILLE,LYON,37.04927104,-88.07574221,21143,10000120
562,state,Kentucky,KENTUCKY STATE REFORMATORY,2021-02-08,https://corrections.ky.gov/Facilities/Pages/covid19.aspx,534,84,28,2,,,,,,,,,,,0,978,3001 W HWY 146,40032,LAGRANGE,OLDHAM,38.40389133,-85.41658269,21185,10000103
563,state,Kentucky,LEE ADJUSTMENT CENTER,2021-02-08,https://corrections.ky.gov/Facilities/Pages/covid19.aspx,698,65,1,0,,,,,,,,,,,0,840,168 LEE ADJUSTMENT CENTER DRIVE,41311,BEATTYVILLE,LEE,37.6066831,-83.70579564,21129,10000115
564,federal,Kentucky,LEXINGTON FEDERAL MEDICAL CENTER,2021-02-08,https://www.bop.gov/mobile/about/population_statistics.jsp; https://www.bop.gov/coronavirus/,747,,9,0,738,70,,,,,0,,,,,1270,3301 LEESTOWN RD,40511,LEXINGTON,FAYETTE,38.10569332,-84.56039514,21067,10000109
565,state,Kentucky,LITTLE SANDY CORRECTIONAL COMPLEX,2021-02-07,https://corrections.ky.gov/Facilities/Pages/covid19.aspx,576,57,1,0,,,,,,,,,,,0,1039,505 PRISON CONNECTOR,41171,SANDY HOOK,ELLIOTT,38.13392033,-83.08100422,21063,10000107
566,state,Kentucky,LUTHER LUCKETT CORRECTIONAL COMPLEX,2021-02-08,https://corrections.ky.gov/Facilities/Pages/covid19.aspx,987,101,1,1,,,,,,,,,,,5,1173,1612 DAWKINS RD,40031,LAGRANGE,OLDHAM,38.41243087,-85.42599085,21185,10000101
567,federal,Kentucky,MANCHESTER FEDERAL CORRECTIONAL INSTITUTION,2021-02-08,https://www.bop.gov/mobile/about/population_statistics.jsp; https://www.bop.gov/coronavirus/,499,,0,0,553,118,,,,,0,,,,,,,,,,,,,
568,federal,Kentucky,MCCREARY UNITED STATES PENITENTIARY,2021-02-08,https://www.bop.gov/mobile/about/population_statistics.jsp; https://www.bop.gov/coronavirus/,144,,1,0,124,58,,,,,3,,,,,1336,330 FEDERAL WAY,42635,PINE KNOT,MCCREARY,36.68845863,-84.38720276,21147,10004330
569,state,Kentucky,NORTHPOINT TRAINING CENTER,2021-02-08,https://corrections.ky.gov/Facilities/Pages/covid19.aspx,936,102,6,1,,,,,,,,,,,1,1245,710 WALTER REED RD,40310,BURGIN,BOYLE,37.71002092,-84.74635681,21021,10000116
570,state,Kentucky,ROEDERER CORRECTIONAL COMPLEX,2021-02-08,https://corrections.ky.gov/Facilities/Pages/covid19.aspx,693,75,0,1,,,,,,,,,,,74,1227,P.O. BOX 69,40031,LAGRANGE,OLDHAM,38.40312799,-85.42976305,21185,10000102
572,state,Kentucky,WESTERN KENTUCKY CORRECTIONAL COMPLEX,2021-02-08,https://corrections.ky.gov/Facilities/Pages/covid19.aspx,66,29,0,0,,,,,,,,,,,0,664,374 NEW BETHEL CHURCH RD,42411,FREDONIA,LYON,37.13645979,-88.04014801,21143,10000121
573,state,Louisiana,ALLEN CORRECTIONAL CENTER,2021-02-08,https://doc.louisiana.gov/doc-covid-19-testing/,266,35,0,0,264,35,2321,167,,,,,,,0,1579,3751 LAUDERDALE WOODYARD RD,70648,KINDER,ALLEN,30.56148319,-92.78967268,22003,10000967
574,state,Louisiana,DAVID WADE CORRECTIONAL CENTER,2021-02-08,https://doc.louisiana.gov/doc-covid-19-testing/,87,89,0,0,82,88,290,167,,,,,,,0,1227,670 BELL HILL RD,71040,HOMER,CLAIBORNE,32.90173088,-93.01954439,22027,10000948
575,state,Louisiana,DIXON CORRECTIONAL INSTITUTE,2021-02-08,https://doc.louisiana.gov/doc-covid-19-testing/,896,93,9,0,879,90,3218,368,,,,,,,5,1778,5568 STATE HWY 68,70748,JACKSON,EAST FELICIANA,30.81323901,-91.20751374,22037,10004094
576,state,Louisiana,ELAYN HUNT CORRECTIONAL CENTER,2021-02-08,https://doc.louisiana.gov/doc-covid-19-testing/,229,113,2,0,226,106,1878,231,,,,,,,0,1999,6925 HWY 74,70776,ST GABRIEL,IBERVILLE,30.26563691,-91.08621341,22047,10000972
578,state,Louisiana,LOUISIANA CORRECTIONAL INSTITUTE FOR WOMEN HUNT,2021-02-08,https://doc.louisiana.gov/doc-covid-19-testing/,168,96,2,0,148,91,541,250,,,,,,,0,573,7205 STATE HWY 74,70776,ST GABRIEL,IBERVILLE,30.263188800000002,-91.07374348,22047,10000974
579,state,Louisiana,LOUISIANA CORRECTIONAL INSTITUTE FOR WOMEN JETSON,2021-02-08,https://doc.louisiana.gov/doc-covid-19-testing/,185,,0,,180,,605,,,,,,,,0,,,,,,30.2603498,-91.0746222,,
580,state,Louisiana,LOUISIANA STATE PENITENTIARY,2021-02-08,https://doc.louisiana.gov/doc-covid-19-testing/,567,263,17,4,542,237,4668,639,,,,,,,6,6073,17544 TUNICA TRACE,70712,ANGOLA,WEST FELICIANA,30.95976935,-91.59732559,22125,10000963
581,federal,Louisiana,OAKDALE I FEDERAL CORRECTIONAL INSTITUTION,2021-02-08,https://www.bop.gov/mobile/about/population_statistics.jsp; https://www.bop.gov/coronavirus/,184,,7,0,224,21,,,,,0,,,,,874,2105 EAST WHATLEY ROAD,71463,OAKDALE,ALLEN,30.82059582,-92.64063826,22003,10000968
582,federal,Louisiana,OAKDALE II FEDERAL CORRECTIONAL INSTITUTION,2021-02-08,https://www.bop.gov/mobile/about/population_statistics.jsp; https://www.bop.gov/coronavirus/,311,,1,0,202,6,,,,,1,,,,,874,2105 EAST WHATLEY ROAD,71463,OAKDALE,ALLEN,30.82059582,-92.64063826,22003,10000968
584,federal,Louisiana,POLLOCK FEDERAL CORRECTIONAL INSTITUTION,2021-02-08,https://www.bop.gov/coronavirus/,620,,0,0,438,1,,,,,0,,,,,1436,1000 AIRBASE RD,71467,POLLOCK,GRANT,31.46692823,-92.44637064,22043,10000956
585,federal,Louisiana,POLLOCK UNITED STATES PENITENTIARY,2021-02-08,https://www.bop.gov/mobile/about/population_statistics.jsp; https://www.bop.gov/coronavirus/,566,,0,0,527,3,,,,,0,,,,,,,,,,31.4651594,-92.4350473,,
586,state,Louisiana,RAYBURN CORRECTIONAL CENTER,2021-02-08,https://doc.louisiana.gov/doc-covid-19-testing/,134,98,2,0,119,98,3474,250,,,,,,,3,1313,27268 STATE HWY 21 N,70426,ANGIE,WASHINGTON,30.92169823,-89.81584273,22117,10002416
