Facility.ID,Jurisdiction,State,Name,Date,source,Residents.Confirmed,Staff.Confirmed,Residents.Deaths,Staff.Deaths,Residents.Recovered,Staff.Recovered,Residents.Tadmin,Staff.Tested,Residents.Negative,Staff.Negative,Residents.Pending,Staff.Pending,Residents.Quarantine,Staff.Quarantine,Residents.Active,Population.Feb20,Address,Zipcode,City,County,Latitude,Longitude,County.FIPS,HIFLD.ID
,state,Alabama,ALABAMA CORRECTIONS ACADEMY,2021-01-11,http://www.doc.alabama.gov/covid19news,0,18,0,0,0,14,,,,,0,,,,,,,,,,,,,
1,state,Alabama,ALABAMA HEADQUARTERS,2021-01-11,http://www.doc.alabama.gov/covid19news,0,42,0,0,0,28,,,,,0,,,,,,,,,,,,,
2,state,Alabama,ALABAMA TREATMENT AND EDUCATION FACILITY,2021-01-11,http://www.doc.alabama.gov/covid19news,6,2,0,0,5,2,,,,,1,,,,,281,102 INDUSTRIAL PARKWAY,35051,COLUMBIANA,SHELBY,33.18100499,-86.62401724,1117,10006524
3,state,Alabama,ALEX CITY COMMUNITY BASED FACILITY,2021-01-11,http://www.doc.alabama.gov/covid19news,1,7,0,0,1,6,,,,,0,,,,,201,HIGHWAY 22 WEST,35011,ALEX CITY,COOSA,32.90447114,-86.00896897,1037,10003721
4,federal,Alabama,ALICEVILLE FEDERAL CORRECTIONAL INSTITUTION,2021-01-11,https://www.bop.gov/mobile/about/population_statistics.jsp; https://www.bop.gov/coronavirus/,62,,0,0,44,9,,,,,5,,,,,1267,11070 HIGHWAY 14,35442,ALICEVILLE,PICKENS,33.17626974,-88.19304609,10107,10006173
5,state,Alabama,BIBB CORRECTIONAL FACILITY,2021-01-11,http://www.doc.alabama.gov/covid19news,163,50,3,0,160,19,,,,,0,,,,,1808,565 BIBB LANE,35034,BRENT,BIBB,32.92242,-87.16458,1007,10001954
6,state,Alabama,BIRMINGHAM COMMUNITY BASED FACILITY,2021-01-11,http://www.doc.alabama.gov/covid19news,17,28,0,0,17,22,,,,,0,,,,,239,1216 25TH ST N,35234,BIRMINGHAM,JEFFERSON,33.53104632,-86.80836181,1073,10001204
7,state,Alabama,BULLOCK CORRECTIONAL FACILITY,2021-01-11,http://www.doc.alabama.gov/covid19news,126,53,2,0,67,37,,,,,5,,,,,1343,104 BULLOCK DR,36089,UNION SPRINGS,BULLOCK,32.14940285,-85.67232013,1011,10001223
8,state,Alabama,CAMDEN COMMUNITY BASED FACILITY,2021-01-11,http://www.doc.alabama.gov/covid19news,0,3,0,0,0,1,,,,,0,,,,,93,1780 ALABAMA HWY 221,36726,CAMDEN,WILCOX,31.99483708,-87.33312321,1131,10000142
9,state,Alabama,CHILDERSBURG COMMUNITY BASED FACILITY,2021-01-11,http://www.doc.alabama.gov/covid19news,5,14,0,0,5,9,,,,,0,,,,,368,13501 PLANT RD,35014,ALPINE,TALLADEGA,33.36493323,-86.33219762,1121,10001209
11,state,Alabama,DONALDSON CORRECTIONAL FACILITY,2021-01-11,http://www.doc.alabama.gov/covid19news,34,26,2,0,13,6,,,,,1,,,,,1386,100 WARRIOR LN,35023,BESSEMER,JEFFERSON,33.51366663,-87.18478369,1073,10000132
12,state,Alabama,DRAPER QUARANTINE INTAKE FACILITY,2021-01-11,http://www.doc.alabama.gov/covid19news,83,0,0,0,82,0,,,,,0,,,,,,,,,,,,,
13,state,Alabama,EASTERLING CORRECTIONAL FACILITY,2021-01-11,http://www.doc.alabama.gov/covid19news,56,28,1,0,55,14,,,,,0,,,,,1229,200 WALLACE DR,36017,CLIO,BARBOUR,31.68938149,-85.58555889,1005,10000144
14,state,Alabama,ELBA COMMUNITY BASED FACILITY,2021-01-11,http://www.doc.alabama.gov/covid19news,1,8,0,0,1,2,,,,,0,,,,,130,1620 BOSWELL ST,36323,ELBA,COFFEE,31.41312386,-86.08373748,1031,10001226
15,state,Alabama,ELMORE CORRECTIONAL FACILITY,2021-01-11,http://www.doc.alabama.gov/covid19news,27,18,0,0,27,18,,,,,0,,,,,1161,3520 MARION SPILLWAY ROAD,36025,ELMORE,ELMORE,32.57430479,-86.32080582,1051,10001214
16,state,Alabama,FOUNTAIN CORRECTIONAL FACILITY,2021-01-11,http://www.doc.alabama.gov/covid19news,21,38,1,0,19,28,,,,,1,,,,,1136,9677 AL HWY 21 N,36503,ATMORE,ESCAMBIA,31.15658,-87.46372,1053,10001957
17,state,Alabama,FRANK LEE COMMUNITY BASED FACILITY,2021-01-11,http://www.doc.alabama.gov/covid19news,3,18,0,0,3,10,,,,,0,,,,,285,5305 INGRAM RD.,36022,DEATSVILLE,ELMORE,32.58235451,-86.39221844,1051,10003728
18,state,Alabama,HAMILTON AGED AND INFIRMED,2021-01-11,http://www.doc.alabama.gov/covid19news,44,37,12,0,31,31,,,,,0,,,,,243,223 SASSER DR,35570,HAMILTON,MARION,34.12434611,-87.99171938,1093,10001197
19,state,Alabama,HAMILTON COMMUNITY BASED FACILITY,2021-01-11,http://www.doc.alabama.gov/covid19news,8,21,2,0,6,2,,,,,0,,,,,220,1826 BEXAR AVE E,35570,HAMILTON,MARION,34.14329559,-87.95895958,1093,10001199
20,state,Alabama,HOLMAN CORRECTIONAL FACILITY,2021-01-11,http://www.doc.alabama.gov/covid19news,37,29,1,0,34,23,,,,,4,,,,,700,866 ROSS RD,36503,ATMORE,ESCAMBIA,31.13438612,-87.4498642,1053,10000149
22,state,Alabama,KILBY CORRECTIONAL FACILITY,2021-01-11,http://www.doc.alabama.gov/covid19news,10,37,1,0,9,37,,,,,0,,,,,1231,12201 WARES FERRY RD,36117,MONTGOMERY,MONTGOMERY,32.38835654,-86.1009811,1101,10001221
23,state,Alabama,LIMESTONE CORRECTIONAL FACILITY,2021-01-11,http://www.doc.alabama.gov/covid19news,136,83,4,0,124,30,,,,,5,,,,,2107,28779 NICK DAVIS RD,35749,HARVEST,LIMESTONE,34.81254392,-86.80413307,1083,10000129
24,state,Alabama,LOXLEY COMMUNITY BASED FACILITY,2021-01-11,http://www.doc.alabama.gov/covid19news,106,14,0,0,106,14,,,,,1,,,,,356,14880 COUNTY RD 64,36551,LOXLEY,BALDWIN,30.6153358,-87.77030984,1003,10000146
25,state,Alabama,MOBILE COMMUNITY BASED FACILITY,2021-01-11,http://www.doc.alabama.gov/covid19news,0,8,0,0,0,6,,,,,0,,,,,192,2423 N BELTLINE HWY,36610,PRITCHARD,MOBILE,30.73788106,-88.10905742,1097,10000150
26,federal,Alabama,MONTGOMERY FEDERAL PRISON CAMP,2021-01-11,https://www.bop.gov/mobile/about/population_statistics.jsp; https://www.bop.gov/coronavirus/,103,,0,0,62,2,,,,,0,,,,,858,MAXWELL AIR FORCE BASE,36112,MONTGOMERY,MONTGOMERY,32.39424124,-86.35915818,1101,10000141
27,state,Alabama,MONTGOMERY WOMENS FACILITY,2021-01-11,http://www.doc.alabama.gov/covid19news,1,10,0,0,1,5,,,,,0,,,,,274,12085 WARES FERRY RD,36117,MONTGOMERY,MONTGOMERY,,,1101,10001222
28,state,Alabama,NORTH ALABAMA COMMUNITY BASED FACILITY,2021-01-11,http://www.doc.alabama.gov/covid19news,85,27,0,0,85,25,,,,,0,,,,,555,1401 STATE HIGHWAY 20 WEST,35601,DECATUR,MORGAN,34.61756728,-87.00562813,1103,10003698
29,state,Alabama,RED EAGLE COMMUNITY BASED FACILITY,2021-01-11,http://www.doc.alabama.gov/covid19news,0,3,0,0,0,1,,,,,0,,,,,333,1290 RED EAGLE RD,36110,MONTGOMERY,MONTGOMERY,32.46559439,-86.23690422,1101,10001218
33,state,Alabama,ST CLAIR CORRECTIONAL FACILITY,2021-01-11,http://www.doc.alabama.gov/covid19news,103,52,16,0,85,39,,,,,0,,,,,964,1000 SAINT CLAIR ROAD,35146,SPRINGVILLE,ST CLAIR,33.74558817,-86.38437373,1115,10003710
35,state,Alabama,STATON CORRECTIONAL FACILITY,2021-01-11,http://www.doc.alabama.gov/covid19news,44,54,7,0,35,35,,,,,0,,,,,1303,2690 MARION SPILLWAY RD,36025,ELMORE,ELMORE,32.577215700000004,-86.33248852,1051,10000140
37,federal,Alabama,TALLADEGA FEDERAL CORRECTIONAL INSTITUTION,2021-01-11,https://www.bop.gov/mobile/about/population_statistics.jsp; https://www.bop.gov/coronavirus/,254,,2,0,235,10,,,,,0,,,,,793,565 EAST RENFROE ROAD,35160,TALLADEGA,TALLADEGA,33.42063528,-86.14008892,1121,10000136
39,state,Alabama,TUTWILER PRISON FOR WOMEN,2021-01-11,http://www.doc.alabama.gov/covid19news,16,53,1,2,15,42,,,,,0,,,,,565,8966 US HWY 231 N,36092,WETUMPKA,ELMORE,32.5640382,-86.1940048,1051,10001216
40,state,Alabama,TUTWILER QUARANTINE INTAKE FACILITY,2021-01-11,http://www.doc.alabama.gov/covid19news,12,0,0,0,12,0,,,,,0,,,,,,,,,,,,,
41,state,Alabama,VENTRESS CORRECTIONAL FACILITY,2021-01-11,http://www.doc.alabama.gov/covid19news,19,32,1,0,16,26,,,,,0,,,,,1245,379 ALABAMA HWY 239 N,36016,CLAYTON,BARBOUR,31.88902864,-85.49299808,1005,10000143
45,state,Alaska,STATEWIDE,2021-01-11,https://doc.alaska.gov/covid-19,2180,,,,,,17741,,13836,,1317,,,,,,,,,,,,,
47,state,Arizona,CENTRAL ARIZONA CORRECTIONAL FACILITY,2021-01-11,https://corrections.az.gov/adcrr-covid-19-dashboard?order=title_field&sort=asc,67,,3,,64,,,,1131,,0,,,,,1273,1401 E DIVERSION DAM RD,85132,FLORENCE,PINAL,33.03731012,-111.3727528,4021,10000618
51,state,Arizona,DOUGLAS STATE PRISON,2021-01-11,https://corrections.az.gov/adcrr-covid-19-dashboard?order=title_field&sort=asc,1057,,0,,847,,,,1065,,0,,,,,2086,6911 N BDI BLVD,85607,DOUGLAS,COCHISE,31.46242829,-109.5912299,4003,10000632
52,state,Arizona,EYMAN STATE PRISON,2021-01-11,https://corrections.az.gov/adcrr-covid-19-dashboard?order=title_field&sort=asc,1272,,4,,823,,,,4131,,0,,,,,5693,4374 E BUTTE AVE,85132,FLORENCE,PINAL,33.03691871,-111.3264441,4021,10000615
53,state,Arizona,FLORENCE STATE PRISON,2021-01-11,https://corrections.az.gov/adcrr-covid-19-dashboard?order=title_field&sort=asc,333,,13,,289,,,,2858,,0,,,,,3924,1305 E. BUTTE AVE,85132,FLORENCE,PINAL,33.02816949,-111.3707281,4021,10003976
54,state,Arizona,FLORENCE WEST STATE PRISON,2021-01-11,https://corrections.az.gov/adcrr-covid-19-dashboard?order=title_field&sort=asc,2,,0,,2,,,,471,,0,,,,,742,"915 EAST DIVERSION DAM ROAD, PO BOX 1599",85132,FLORENCE,PINAL,33.037233,-111.376527,4021,10006312
55,state,Arizona,KINGMAN STATE PRISON,2021-01-11,https://corrections.az.gov/adcrr-covid-19-dashboard?order=title_field&sort=asc,90,,1,,58,,,,2593,,0,,,,,3360,4626 WEST ENGLISH DRIVE,86414,GOLDEN VALLEY,MOHAVE,35.02891497,-114.1796097,4015,10003957
56,state,Arizona,LEWIS STATE PRISON,2021-01-11,https://corrections.az.gov/adcrr-covid-19-dashboard?order=title_field&sort=asc,779,,2,,755,,,,3449,,0,,,,,4623,26700 S HWY 85,85326,BUCKEYE,MARICOPA,33.2085241,-112.6514629,4013,10000605
57,state,Arizona,MARANA STATE PRISON,2021-01-11,https://corrections.az.gov/adcrr-covid-19-dashboard?order=title_field&sort=asc,9,,0,,9,,,,331,,0,,,,,487,12610 W SILVERBELL RD,85653,MARANA,PIMA,32.41791032,-111.2412161,4019,10000626
58,county,Arizona,MARICOPA COUNTY JAIL,2021-01-11,https://www.maricopa.gov/5574/COVID-19-in-County-Jails,1920,,0,,,,24099,,,,,,,,57,,,,,,,,,
59,state,Arizona,MARICOPA REEENTRY CENTER,2021-01-11,https://corrections.az.gov/adcrr-covid-19-dashboard?order=title_field&sort=asc,0,,0,,0,,,,0,,0,,,,,62,24601 N 29TH AVE,85027,PHOENIX,MARICOPA,33.70669655,-112.1194385,4013,10002246
60,state,Arizona,PERRYVILLE STATE PRISON,2021-01-11,https://corrections.az.gov/adcrr-covid-19-dashboard?order=title_field&sort=asc,181,,0,,140,,,,4243,,0,,,,,4336,2105 N CITRUS RD,85395,GOODYEAR,MARICOPA,33.47038654,-112.4377658,4013,10000606
61,federal,Arizona,PHOENIX FEDERAL CORRECTIONAL INSTITUTION,2021-01-11,https://www.bop.gov/mobile/about/population_statistics.jsp; https://www.bop.gov/coronavirus/,498,,1,0,427,41,,,,,6,,,,,,,,,,,,,
62,state,Arizona,PHOENIX STATE PRISON,2021-01-11,https://corrections.az.gov/adcrr-covid-19-dashboard?order=title_field&sort=asc,510,,0,,452,,,,3651,,0,,,,,544,2500 E VAN BUREN ST,85008,PHOENIX,MARICOPA,33.45312989,-112.0250399,4013,10002245
63,state,Arizona,PHOENIX WEST STATE PRISON,2021-01-11,https://corrections.az.gov/adcrr-covid-19-dashboard?order=title_field&sort=asc,41,,1,,38,,,,330,,0,,,,,498,3402 W COCOPAH ST,85009,PHOENIX,MARICOPA,33.43277711,-112.1326085,4013,10002244
64,state,Arizona,PIMA REENTRY CENTER,2021-01-11,https://corrections.az.gov/adcrr-covid-19-dashboard?order=title_field&sort=asc,0,,0,,0,,,,0,,0,,,,,72,1275 W STARR PASS BLVD,85713,TUCSON,PIMA,32.2037634,-110.9909333,4019,10000630
65,state,Arizona,RED ROCK STATE PRISON,2021-01-11,https://corrections.az.gov/adcrr-covid-19-dashboard?order=title_field&sort=asc,103,,0,,85,,,,1568,,0,,,,,1956,1750 EAST ARICA ROAD,85131,ELOY,PINAL,32.81056,-111.5196,4021,10003974
66,federal,Arizona,SAFFORD FEDERAL CORRECTIONAL INSTITUTION,2021-01-11,https://www.bop.gov/mobile/about/population_statistics.jsp; https://www.bop.gov/coronavirus/,642,,0,0,498,3,,,,,0,,,,,,,,,,,,,
67,state,Arizona,SAFFORD STATE PRISON,2021-01-11,https://corrections.az.gov/adcrr-covid-19-dashboard?order=title_field&sort=asc,310,,0,,135,,,,1193,,0,,,,,1579,896 S COOK RD,85546,SAFFORD,GRAHAM,32.82810149,-109.5636396,4009,10002248
68,state,Arizona,STATEWIDE,2021-01-11,https://corrections.az.gov/adcrr-covid-19-dashboard?order=title_field&sort=asc,,2091,,,,1661,,,,,,,,,,,,,,,,,,
69,federal,Arizona,TUCSON FEDERAL CORRECTIONAL INSTITUTION,2021-01-11,https://www.bop.gov/mobile/about/population_statistics.jsp; https://www.bop.gov/coronavirus/,146,,0,0,141,20,,,,,0,,,,,630,8901 S WILMOT RD,85706,TUCSON,PIMA,32.08957049,-110.8562398,4019,10000624
70,state,Arizona,TUCSON STATE PRISON,2021-01-11,https://corrections.az.gov/adcrr-covid-19-dashboard?order=title_field&sort=asc,1584,,11,,1469,,,,3862,,0,,,,,5132,10000 S WILMOT RD,85734,TUCSON,PIMA,32.06640097,-110.8663122,4019,10000628
71,federal,Arizona,TUCSON UNITED STATES PENITENTIARY,2021-01-11,https://www.bop.gov/mobile/about/population_statistics.jsp; https://www.bop.gov/coronavirus/,757,,8,0,665,31,,,,,12,,,,,1385,9300 S WILMOT RD,85756,TUCSON,PIMA,32.08384226,-110.867108,4019,10000627
72,state,Arizona,WINSLOW STATE PRISON,2021-01-11,https://corrections.az.gov/adcrr-covid-19-dashboard?order=title_field&sort=asc,157,,0,,112,,,,1134,,0,,,,,1295,2100 S HWY 87,86047,WINSLOW,NAVAJO,34.98471625,-110.7210891,4017,10000595
73,state,Arizona,YUMA STATE PRISON,2021-01-11,https://corrections.az.gov/adcrr-covid-19-dashboard?order=title_field&sort=asc,1537,,7,,1291,,,,3087,,0,,,,,4876,7125 E JUAN SANCHEZ BLVD,85349,SAN LUIS,YUMA,32.48750181,-114.6397153,4027,10000622
79,federal,Arkansas,FORREST CITY LOW FEDERAL CORRECTIONAL INSTITUTION,2021-01-11,https://www.bop.gov/coronavirus/,729,,0,0,684,4,,,,,0,,,,,1821,1400 DALE BUMPERS ROAD,72335,FORREST CITY,ST FRANCIS,34.98233926,-90.80306156,5123,10003614
80,federal,Arkansas,FORREST CITY MEDIUM FEDERAL CORRECTIONAL INSTITUTION,2021-01-11,https://www.bop.gov/coronavirus/,328,,1,0,292,5,,,,,2,,,,,1821,1400 DALE BUMPERS ROAD,72335,FORREST CITY,ST FRANCIS,34.98233926,-90.80306156,5123,10003614
81,state,Arkansas,STATEWIDE,2021-01-11,https://doc.arkansas.gov/covid-19-updates/,9186,,,,8763,,,,,,,,,,423,,,,,,,,,
82,federal,California,ATWATER UNITED STATES PENITENTIARY,2021-01-11,https://www.bop.gov/mobile/about/population_statistics.jsp; https://www.bop.gov/coronavirus/,273,,0,0,179,21,,,,,15,,,,,,,,,,,,,
83,state,California,AVENAL STATE PRISON,2021-01-11,https://www.cdcr.ca.gov/covid19/cdcr-cchcs-covid-19-status/; https://www.cdcr.ca.gov/covid19/updates/,3092,481,8,,2984,436,,,,,,,,,17,4204,1 KINGS WAY,93204,AVENAL,KINGS,35.97394934,-120.1231018,6031,10000826
88,state,California,CALIFORNIA CITY CORRECTIONAL FACILITY,2021-01-11,https://www.cdcr.ca.gov/covid19/cdcr-cchcs-covid-19-status/; https://www.cdcr.ca.gov/covid19/updates/,924,206,0,,706,175,,,,,,,,,210,2424,22844 VIRGINIA BLVD,93505,CALIFORNIA CITY,KERN,35.1532512,-117.8588801,6029,10000852
89,state,California,CALIFORNIA CORRECTIONAL CENTER,2021-01-11,https://www.cdcr.ca.gov/covid19/cdcr-cchcs-covid-19-status/; https://www.cdcr.ca.gov/covid19/updates/,1224,254,0,,1044,193,,,,,,,,,141,4049,711-045 CENTER ROAD,96127,SUSANVILLE,LASSEN,40.40195801,-120.5167302,6035,10000773
90,state,California,CALIFORNIA CORRECTIONAL INSTITUTION,2021-01-11,https://www.cdcr.ca.gov/covid19/cdcr-cchcs-covid-19-status/; https://www.cdcr.ca.gov/covid19/updates/,1245,568,4,,1099,522,,,,,,,,,68,3696,24900 HWY 202,93561,TEHACHAPI,KERN,35.10991489,-118.5703307,6029,10001530
91,state,California,CALIFORNIA HEALTH CARE FACILITY,2021-01-11,https://www.cdcr.ca.gov/covid19/updates/,565,,8,,314,,,,,,,,,,237,2849,7707 AUSTIN ROAD,95215,STOCKTON,SAN JOAQUIN,37.8947278,-121.1848441,6077,10000799
,state,California,CALIFORNIA HEALTH CARE FACILITY CHCF STOCKTON,2021-01-11,https://www.cdcr.ca.gov/covid19/cdcr-cchcs-covid-19-status/,,558,,,,380,,,,,,,,,,,,,,,,,,
92,state,California,CALIFORNIA INSTITUTION FOR MEN,2021-01-11,https://www.cdcr.ca.gov/covid19/cdcr-cchcs-covid-19-status/; https://www.cdcr.ca.gov/covid19/updates/,1496,532,27,,1399,445,,,,,,,,,31,3627,14901 CENTRAL AVENUE,91710,CHINO,SAN BERNARDINO,33.98471223,-117.6823919,6071,10000836
93,state,California,CALIFORNIA INSTITUTION FOR WOMEN,2021-01-11,https://www.cdcr.ca.gov/covid19/cdcr-cchcs-covid-19-status/; https://www.cdcr.ca.gov/covid19/updates/,437,289,1,,424,227,,,,,,,,,2,1619,16756 CHINO-CORONA ROAD,92880,CORONA,SAN BERNARDINO,33.94974531,-117.636365,6071,10002341
94,state,California,CALIFORNIA MEDICAL FACILITY,2021-01-11,https://www.cdcr.ca.gov/covid19/cdcr-cchcs-covid-19-status/; https://www.cdcr.ca.gov/covid19/updates/,582,295,2,,242,178,,,,,,,,,333,2512,1600 CALIFORNIA DRIVE,95696,VACAVILLE,SOLANO,38.32851019,-121.9791645,6095,10000785
95,state,California,CALIFORNIA MENS COLONY,2021-01-11,https://www.cdcr.ca.gov/covid19/cdcr-cchcs-covid-19-status/; https://www.cdcr.ca.gov/covid19/updates/,1960,391,2,,815,203,,,,,,,,,1127,3758,COLONY DRIVE,93409,SAN LUIS OBISPO,SAN LUIS OBISPO,35.32457413,-120.6989005,6079,10002345
96,state,California,CALIFORNIA REHABILITATION CENTER,2021-01-11,https://www.cdcr.ca.gov/covid19/cdcr-cchcs-covid-19-status/; https://www.cdcr.ca.gov/covid19/updates/,1925,433,1,,1768,284,,,,,,,,,101,3802,3195 WESTERN AVENUE,92860,NORCO,RIVERSIDE,33.92691794,-117.5759442,6065,10000856
97,state,California,CALIFORNIA STATE PRISON CORCORAN,2021-01-11,https://www.cdcr.ca.gov/covid19/cdcr-cchcs-covid-19-status/; https://www.cdcr.ca.gov/covid19/updates/,801,626,2,,621,519,,,,,,,,,173,3043,4001 KING AVENUE,93212,CORCORAN,KINGS,36.06081823,-119.549121,6031,10000824
98,state,California,CALIFORNIA STATE PRISON LOS ANGELES,2021-01-11,https://www.cdcr.ca.gov/covid19/cdcr-cchcs-covid-19-status/; https://www.cdcr.ca.gov/covid19/updates/,1449,540,10,,1364,366,,,,,,,,,67,3218,44750 60TH STREET WEST,93536,LANCASTER,LOS ANGELES,34.69359649,-118.2276136,6037,10002353
99,state,California,CALIFORNIA STATE PRISON SACRAMENTO,2021-01-11,https://www.cdcr.ca.gov/covid19/cdcr-cchcs-covid-19-status/; https://www.cdcr.ca.gov/covid19/updates/,258,274,0,,200,232,,,,,,,,,54,2354,100 PRISON ROAD,95671,REPRESA,SACRAMENTO,38.69444411,-121.1539037,6067,10002322
100,state,California,CALIFORNIA STATE PRISON SAN QUENTIN,2021-01-11,https://www.cdcr.ca.gov/covid19/cdcr-cchcs-covid-19-status/; https://www.cdcr.ca.gov/covid19/updates/,2240,411,28,,2152,394,,,,,,,,,3,4032,MAIN STREET,94964,SAN QUENTIN,MARIN,37.94003982,-122.4903665,6041,10000790
101,state,California,CALIFORNIA STATE PRISON SOLANO,2021-01-11,https://www.cdcr.ca.gov/covid19/cdcr-cchcs-covid-19-status/; https://www.cdcr.ca.gov/covid19/updates/,744,190,1,,470,135,,,,,,,,,265,4306,2100 PEABODY ROAD,95687,VACAVILLE,SOLANO,38.32077652,-121.9752369,6095,10002323
,state,California,CALIFORNIA SUBSTANCE ABUSE TREATMENT FACILITY AND STATE PRISON CORCORAN SATF-CSP CORCORAN,2021-01-11,https://www.cdcr.ca.gov/covid19/cdcr-cchcs-covid-19-status/,,531,,,,464,,,,,,,,,,,,,,,,,,
102,state,California,CALIPATRIA STATE PRISON,2021-01-11,https://www.cdcr.ca.gov/covid19/cdcr-cchcs-covid-19-status/; https://www.cdcr.ca.gov/covid19/updates/,930,320,1,,566,278,,,,,,,,,351,3109,7018 BLAIR ROAD,92233,CALIPATRIA,IMPERIAL,33.16569337,-115.484344,6025,10002347
,state,California,CDCRCCHCS WORKSITE LOCATION HUMBOLDT COUNTY,2021-01-11,https://www.cdcr.ca.gov/covid19/cdcr-cchcs-covid-19-status/,,1,,,,0,,,,,,,,,,,,,,,,,,
,state,California,CDCRCCHCS WORKSITE LOCATION SAN FRANCISCO COUNTY,2021-01-11,https://www.cdcr.ca.gov/covid19/cdcr-cchcs-covid-19-status/,,3,,,,1,,,,,,,,,,,,,,,,,,
,state,California,CDCRCCHCS WORKSITE LOCATION YOLO COUNTY,2021-01-11,https://www.cdcr.ca.gov/covid19/cdcr-cchcs-covid-19-status/,,2,,,,2,,,,,,,,,,,,,,,,,,
,state,California,CDCRCCHCS WORKSITE LOCATIONALAMEDA COUNTY,2021-01-11,https://www.cdcr.ca.gov/covid19/cdcr-cchcs-covid-19-status/,,1,,,,0,,,,,,,,,,,,,,,,,,
,state,California,CDCRCCHCS WORKSITE LOCATIONMERCED COUNTY,2021-01-11,https://www.cdcr.ca.gov/covid19/cdcr-cchcs-covid-19-status/,,1,,,,0,,,,,,,,,,,,,,,,,,
111,state,California,CENTINELA STATE PRISON,2021-01-11,https://www.cdcr.ca.gov/covid19/cdcr-cchcs-covid-19-status/; https://www.cdcr.ca.gov/covid19/updates/,833,381,1,,755,295,,,,,,,,,67,3475,2302 BROWN ROAD,92251,IMPERIAL,IMPERIAL,32.82339731,-115.7890555,6025,10002348
112,state,California,CENTRAL CALIFORNIA WOMENS FACILITY,2021-01-11,https://www.cdcr.ca.gov/covid19/cdcr-cchcs-covid-19-status/; https://www.cdcr.ca.gov/covid19/updates/,619,224,0,,204,150,,,,,,,,,414,2814,23370 ROAD 22,93610,CHOWCHILLA,MADERA,37.09368073,-120.1527098,6039,10000801
113,state,California,CHUCKAWALLA VALLEY STATE PRISON,2021-01-11,https://www.cdcr.ca.gov/covid19/cdcr-cchcs-covid-19-status/; https://www.cdcr.ca.gov/covid19/updates/,1779,242,9,,1742,213,,,,,,,,,0,2773,19025 WILEY'S WELL ROAD,92225,BLYTHE,RIVERSIDE,33.56257951,-114.9095058,6065,10002346
115,state,California,CORRECTIONAL TRAINING FACILITY,2021-01-11,https://www.cdcr.ca.gov/covid19/cdcr-cchcs-covid-19-status/; https://www.cdcr.ca.gov/covid19/updates/,2479,288,12,,2073,224,,,,,,,,,368,5063,SOLEDAD PRISON ROAD,93960,SOLEDAD,MONTEREY,36.46964789,-121.3822324,6053,10000817
116,state,California,DEUEL VOCATIONAL INSTITUTION,2021-01-11,https://www.cdcr.ca.gov/covid19/cdcr-cchcs-covid-19-status/; https://www.cdcr.ca.gov/covid19/updates/,207,237,0,,105,188,,,,,,,,,102,2052,23500 KASSON ROAD,95304,TRACY,SAN JOAQUIN,37.74805759,-121.3306264,6077,10000794
117,federal,California,DUBLIN FEDERAL CORRECTIONAL INSTITUTION,2021-01-11,https://www.bop.gov/mobile/about/population_statistics.jsp; https://www.bop.gov/coronavirus/,302,,0,0,295,7,,,,,2,,,,,1019,,94568,DUBLIN,ALAMEDA,,,6001,10005303
120,state,California,FOLSOM STATE PRISON,2021-01-11,https://www.cdcr.ca.gov/covid19/cdcr-cchcs-covid-19-status/; https://www.cdcr.ca.gov/covid19/updates/,1352,185,2,,1338,147,,,,,,,,,0,2871,300 PRISON ROAD,95671,REPRESA,SACRAMENTO,38.69538339,-121.1630324,6067,10000780
,state,California,FRESNO COUNTY WORKSITE LOCATION,2021-01-11,https://www.cdcr.ca.gov/covid19/cdcr-cchcs-covid-19-status/,,18,,,,9,,,,,,,,,,,,,,,,,,
123,federal,California,GEO CARE EL MONTE,2021-01-11,https://www.bop.gov/coronavirus/,6,,0,0,3,0,,,,,0,,,,,,,,,,,,,
127,federal,California,HERLONG FEDERAL CORRECTIONAL INSTITUTION,2021-01-11,https://www.bop.gov/mobile/about/population_statistics.jsp; https://www.bop.gov/coronavirus/,264,,0,0,245,11,,,,,2,,,,,,,,,,,,,
128,state,California,HIGH DESERT STATE PRISON,2021-01-11,https://www.cdcr.ca.gov/covid19/cdcr-cchcs-covid-19-status/; https://www.cdcr.ca.gov/covid19/updates/,1946,506,2,,1884,446,,,,,,,,,54,3161,475-750 RICE CANYON ROAD,96127,SUSANVILLE,LASSEN,40.4034569,-120.5258579,6035,10002310
,state,California,IMPERIAL COUNTY WORKSITE LOCATION,2021-01-11,https://www.cdcr.ca.gov/covid19/cdcr-cchcs-covid-19-status/,,9,,,,6,,,,,,,,,,,,,,,,,,
129,state,California,IRONWOOD STATE PRISON,2021-01-11,https://www.cdcr.ca.gov/covid19/cdcr-cchcs-covid-19-status/; https://www.cdcr.ca.gov/covid19/updates/,953,317,1,,686,247,,,,,,,,,259,2896,19005 WILEY'S WELL ROAD,92225,BLYTHE,RIVERSIDE,33.56098104,-114.9260354,6065,10000861
,state,California,KERN COUNTY WORKSITE LOCATION,2021-01-11,https://www.cdcr.ca.gov/covid19/cdcr-cchcs-covid-19-status/,,19,,,,13,,,,,,,,,,,,,,,,,,
131,state,California,KERN VALLEY STATE PRISON,2021-01-11,https://www.cdcr.ca.gov/covid19/cdcr-cchcs-covid-19-status/; https://www.cdcr.ca.gov/covid19/updates/,854,491,4,,785,296,,,,,,,,,59,3551,3000 WEST CECIL AVENUE,93216,DELANO,KERN,35.76647437,-119.3253627,6029,10000844
132,federal,California,LOMPOC FEDERAL CORRECTIONAL INSTITUTION,2021-01-11,https://www.bop.gov/mobile/about/population_statistics.jsp; https://www.bop.gov/coronavirus/,648,,3,0,667,19,,,,,0,,,,,1257,3600 GUARD RD,93436,LOMPOC,SANTA BARBARA,34.67675537,-120.4994621,6083,10000863
133,federal,California,LOMPOC UNITED STATES PENITENTIARY,2021-01-11,https://www.bop.gov/mobile/about/population_statistics.jsp; https://www.bop.gov/coronavirus/,253,,2,0,159,28,,,,,8,,,,,947,3901 KLEIN BLVD,93436,LOMPOC,SANTA BARBARA,34.67918746,-120.5054801,6083,10000864
134,state,California,LOS ANGELES COUNTY WORKSITE LOCATION,2021-01-11,https://www.cdcr.ca.gov/covid19/cdcr-cchcs-covid-19-status/,,76,,,,44,,,,,,,,,,,,,,,,,6037,
135,county,California,LOS ANGELES JAILS,2021-01-11,https://lasd.org/covid19updates/,4075,2556,,,3637,,41491,,41053,,,,2973,1935,73,,,,,,34.0591,-118.2321,6037,
136,federal,California,LOS ANGELES MTROPOLITAN DETENTION CENTER,2021-01-11,https://www.bop.gov/mobile/about/population_statistics.jsp; https://www.bop.gov/coronavirus/,352,,1,0,322,56,,,,,21,,,,,713,535 NORTH ALAMEDA STREET,90012,LOS ANGELES,LOS ANGELES,34.0536306,-118.238468,6037,10000892
,state,California,MENDOCINO COUNTY WORKSITE LOCATION,2021-01-11,https://www.cdcr.ca.gov/covid19/cdcr-cchcs-covid-19-status/,,2,,,,2,,,,,,,,,,,,,,,,,,
137,federal,California,MENDOTA FEDERAL CORRECTIONAL INSTITUTION,2021-01-11,https://www.bop.gov/mobile/about/population_statistics.jsp; https://www.bop.gov/coronavirus/,75,,0,0,15,23,,,,,13,,,,,,,,,,,,,
138,state,California,MONTEREY COUNTY WORKSITE LOCATION,2021-01-11,https://www.cdcr.ca.gov/covid19/cdcr-cchcs-covid-19-status/,,3,,,,3,,,,,,,,,,,,,,,,,,
139,state,California,MULE CREEK STATE PRISON,2021-01-11,https://www.cdcr.ca.gov/covid19/cdcr-cchcs-covid-19-status/; https://www.cdcr.ca.gov/covid19/updates/,1552,361,4,,1311,274,,,,,,,,,234,4007,4001 STATE HIGHWAY 104,95640,IONE,AMADOR,38.37074335,-120.9534458,6005,10000782
140,state,California,NA CHADERJIAN YOUTH CORRECTIONAL FACILITY,2021-01-11,https://www.cdcr.ca.gov/covid19/cdcr-cchcs-covid-19-status/,,37,,,,28,,,,,,,,,,216,7650 SOUTH NEWCASTLE ROAD,95215,STOCKTON,SAN JOAQUIN,37.8911829,-121.1978212,6077,10000796
141,state,California,NORTH KERN STATE PRISON,2021-01-11,https://www.cdcr.ca.gov/covid19/cdcr-cchcs-covid-19-status/; https://www.cdcr.ca.gov/covid19/updates/,772,548,1,,490,486,,,,,,,,,270,4355,2737 WEST CECIL AVENUE,93215,DELANO,KERN,35.78188512,-119.3098757,6029,10000841
142,state,California,NORTHERN CALIFORNIA YOUTH CORRECTIONAL CENTER,2021-01-11,https://www.cdcr.ca.gov/covid19/cdcr-cchcs-covid-19-status/,,26,,,,13,,,,,,,,,,216,7650 SOUTH NEWCASTLE ROAD,95215,STOCKTON,SAN JOAQUIN,37.8911829,-121.1978213,6077,10000796
143,state,California,OH CLOSE YOUTH CORRECTIONAL FACILITY,2021-01-11,https://www.cdcr.ca.gov/covid19/cdcr-cchcs-covid-19-status/,,27,,,,23,,,,,,,,,,169,7650 SOUTH NEWCASTLE ROAD,95213,STOCKTON,SAN JOAQUIN,37.89852126,-121.1976947,6077,10000793
144,county,California,ORANGE COUNTY JAILS,2021-01-11,https://ocsheriff.gov/about-ocsd/covid-19/covid-19-oc-jails,2211,,,,1922,,,,6044,,1167,,,,289,,,,,,,,,
,state,California,ORANGE COUNTY WORKSITE LOCATION,2021-01-11,https://www.cdcr.ca.gov/covid19/cdcr-cchcs-covid-19-status/,,9,,,,6,,,,,,,,,,,,,,,,,,
145,state,California,PELICAN BAY STATE PRISON,2021-01-11,https://www.cdcr.ca.gov/covid19/cdcr-cchcs-covid-19-status/; https://www.cdcr.ca.gov/covid19/updates/,197,143,0,,175,125,,,,,,,,,17,2648,5905 LAKE EARL DRIVE,95531,CRESCENT CITY,DEL NORTE,41.85480851,-124.1490751,6015,10002309
,state,California,PINE GROVE,2021-01-11,https://www.cdcr.ca.gov/covid19/cdcr-cchcs-covid-19-status/,,12,,,,3,,,,,,,,,,,,,,,,,,
147,state,California,PLEASANT VALLEY STATE PRISON,2021-01-11,https://www.cdcr.ca.gov/covid19/cdcr-cchcs-covid-19-status/; https://www.cdcr.ca.gov/covid19/updates/,1982,385,3,,1932,285,,,,,,,,,37,3131,24863 WEST JAYNE AVENUE,93210,COALINGA,FRESNO,36.13147309,-120.2488996,6019,10000810
148,state,California,RICHARD A MCGEE CORRECTIONAL TRAINING CENTER,2021-01-11,https://www.cdcr.ca.gov/covid19/cdcr-cchcs-covid-19-status/,,84,,,,80,,,,,,,,,,,9850 TWIN CITIES RD,95632,GALT,,38.2890255,-121.3279067,6067,
149,state,California,RIVERSIDE COUNTY WORKSITE LOCATION,2021-01-11,https://www.cdcr.ca.gov/covid19/cdcr-cchcs-covid-19-status/,,18,,,,6,,,,,,,,,,,,,,,,,6065,
150,state,California,RJ DONOVAN CORRECTIONAL FACILITY,2021-01-11,https://www.cdcr.ca.gov/covid19/cdcr-cchcs-covid-19-status/; https://www.cdcr.ca.gov/covid19/updates/,997,457,10,,783,284,,,,,,,,,201,3845,480 ALTA ROAD,92179,SAN DIEGO,SAN DIEGO,32.58456487,-116.9335763,6073,10000869
,county,California,SACRAMENTO COUNTY JAIL,2021-01-11,https://www.sacsheriff.com/pages/covid19.php,418,,0,,,,8300,,,,,,,,187,,,,,,,,,
151,state,California,SACRAMENTO COUNTY WORKSITE LOCATION,2021-01-11,https://www.cdcr.ca.gov/covid19/cdcr-cchcs-covid-19-status/,,191,,,,87,,,,,,,,,,,,,,,,,6067,
152,state,California,SALINAS VALLEY STATE PRISON,2021-01-11,https://www.cdcr.ca.gov/covid19/cdcr-cchcs-covid-19-status/; https://www.cdcr.ca.gov/covid19/updates/,511,513,1,,333,300,,,,,,,,,173,2917,31625 HIGHWAY 101,93960,SOLEDAD,MONTEREY,36.47885699,-121.3743944,6053,10000821
153,state,California,SAN BERNARDINO COUNTY WORKSITE LOCATION,2021-01-11,https://www.cdcr.ca.gov/covid19/cdcr-cchcs-covid-19-status/,,55,,,,27,,,,,,,,,,,,,,,,,6071,
,county,California,SAN DIEGO COUNTY JAILS,2021-01-11,https://www.sdsheriff.net/,1059,425,,1,807,255,,,,,,,111,,252,,,,,,,,,
154,state,California,SAN DIEGO COUNTY WORKSITE LOCATION,2021-01-11,https://www.cdcr.ca.gov/covid19/cdcr-cchcs-covid-19-status/,,4,,,,2,,,,,,,,,,,,,,,,,,
155,federal,California,SAN DIEGO METROPOLITAN CORRECTIONAL CENTER,2021-01-11,https://www.bop.gov/mobile/about/population_statistics.jsp; https://www.bop.gov/coronavirus/,187,,1,0,250,26,,,,,6,,,,,,,,,,,,,
156,state,California,SAN JOAQUIN COUNTY WORKSITE LOCATION,2021-01-11,https://www.cdcr.ca.gov/covid19/cdcr-cchcs-covid-19-status/,,14,,,,5,,,,,,,,,,,,,,,,,,
,state,California,SAN LUIS OBISPO COUNTY WORKSITE LOCATION,2021-01-11,https://www.cdcr.ca.gov/covid19/cdcr-cchcs-covid-19-status/,,0,,,,0,,,,,,,,,,,,,,,,,,
,state,California,SAN QUENTIN STATE PRISON,2021-01-11,https://www.cdcr.ca.gov/covid19/cdcr-cchcs-covid-19-status/,,411,,,,394,,,,,,,,,,,,,,,,,,
157,state,California,SANTA BARBARA COUNTY WORKSITE LOCATION,2021-01-11,https://www.cdcr.ca.gov/covid19/cdcr-cchcs-covid-19-status/,,2,,,,2,,,,,,,,,,,,,,,,,,
,county,California,SANTA CLARA COUNTY JAIL,2021-01-11,https://countysheriff.sccgov.org/covid-19/covid-19-dashboard,,,,,,,,,,,,,,,,,,,,,,,,
,state,California,SANTA CLARA COUNTY WORKSITE LOCATION,2021-01-11,https://www.cdcr.ca.gov/covid19/cdcr-cchcs-covid-19-status/,,4,,,,3,,,,,,,,,,,,,,,,,,
,county,California,SANTA RITA JAIL,2021-01-11,https://www.alamedacountysheriff.org/dc_srj_visiting.php,,,0,,357,,,,,,,,,,12,,,,,,,,,
158,state,California,SIERRA CONSERVATION CENTER,2021-01-11,https://www.cdcr.ca.gov/covid19/cdcr-cchcs-covid-19-status/; https://www.cdcr.ca.gov/covid19/updates/,1176,172,0,,950,142,,,,,,,,,214,4393,5100 OBYRNES FERRY ROAD,95327,JAMESTOWN,TUOLUMNE,37.89168856,-120.5365401,6109,10001522
159,state,California,SOLANO COUNTY WORKSITE LOCATION,2021-01-11,https://www.cdcr.ca.gov/covid19/cdcr-cchcs-covid-19-status/,,3,,,,2,,,,,,,,,,,,,,,,,,
160,state,California,STANISLAUS COUNTY WORKSITE LOCATION,2021-01-11,https://www.cdcr.ca.gov/covid19/cdcr-cchcs-covid-19-status/,,1,,,,1,,,,,,,,,,,,,,,,,,
,state,California,STATEWIDE,2021-01-11,https://www.cdcr.ca.gov/covid19/updates/,,,,,,,115835,,,,,,,,,,,,,,,,,
161,state,California,SUBSTANCE ABUSE TREATMENT FACILITY,2021-01-11,https://www.cdcr.ca.gov/covid19/updates/,2998,,6,,2934,,,,,,,,,,40,5291,,,,,,,,
162,federal,California,TERMINAL ISLAND FEDERAL CORRECTIONAL INSTITUTION,2021-01-11,https://www.bop.gov/mobile/about/population_statistics.jsp; https://www.bop.gov/coronavirus/,470,,10,0,542,26,,,,,0,,,,,1185,1299 SEASIDE AVENUE,90731,SAN PEDRO,LOS ANGELES,33.726491,-118.2670631,6037,10000887
163,state,California,TULARE COUNTYWORKSITE LOCATION,2021-01-11,https://www.cdcr.ca.gov/covid19/cdcr-cchcs-covid-19-status/,,2,,,,1,,,,,,,,,,,,,,,,,,
164,state,California,VALLEY STATE PRISON,2021-01-11,https://www.cdcr.ca.gov/covid19/cdcr-cchcs-covid-19-status/; https://www.cdcr.ca.gov/covid19/updates/,1576,223,1,,1405,156,,,,,,,,,156,2999,21633 AVENUE 24,93610,CHOWCHILLA,MADERA,37.10547736,-120.1554719,6039,10000802
165,state,California,VENTURA,2021-01-11,https://www.cdcr.ca.gov/covid19/cdcr-cchcs-covid-19-status/,,54,,,,36,,,,,,,,,,,,,,,,,,
166,state,California,VENTURA COUNTY WORKSITE LOCATION,2021-01-11,https://www.cdcr.ca.gov/covid19/cdcr-cchcs-covid-19-status/,,4,,,,4,,,,,,,,,,,,,,,,,,
167,federal,California,VICTORVILLE MEDIUM I FEDERAL CORRECTIONAL INSTITUTION,2021-01-11,https://www.bop.gov/coronavirus/,666,,2,1,580,29,,,,,2,,,,,,,,,,,,,
168,federal,California,VICTORVILLE MEDIUM II FEDERAL CORRECTIONAL INSTITUTION,2021-01-11,https://www.bop.gov/coronavirus/,425,,0,0,420,38,,,,,2,,,,,1216,13777 AIR EXPRESSWAY BOULEVARD,92394,VICTORVILLE,SAN BERNARDINO,34.56848411,-117.3583145,6071,10000831
169,federal,California,VICTORVILLE UNITED STATES PENITENTIARY,2021-01-11,https://www.bop.gov/mobile/about/population_statistics.jsp; https://www.bop.gov/coronavirus/,429,,0,0,319,37,,,,,24,,,,,,,,,,,,,
171,state,California,WASCO STATE PRISON,2021-01-11,https://www.cdcr.ca.gov/covid19/cdcr-cchcs-covid-19-status/; https://www.cdcr.ca.gov/covid19/updates/,1286,443,0,,1037,278,,,,,,,,,204,4588,701 SCOFIELD AVENUE,93280,WASCO,KERN,35.59431189,-119.4083319,6029,10000847
172,federal,California,WESTERN REGIONAL OFFICE,2021-01-11,https://www.bop.gov/coronavirus/,,,0,0,0,1,,,,,,,,,,,,,,,,,,
174,state,Colorado,ARKANSAS VALLEY CORRECTIONAL FACILITY,2021-01-11,https://www.colorado.gov/pacific/cdoc/covid-19-faq-and-updates,943,,4,,936,,3746,,,,,,,,3,1065,12750 HIGHWAY 96 AT LANE 13,81034,ORDWAY,CROWLEY,38.19146827,-103.8421854,8025,10002228
175,state,Colorado,ARROWHEAD CORRECTIONAL FACILITY,2021-01-11,https://www.colorado.gov/pacific/cdoc/covid-19-faq-and-updates,358,,1,,354,,4050,,,,,,,,3,528,E. US HIGHWAY 50 AND EVANS BLVD,81212,CANON CITY,FREMONT,38.43610328,-105.1590956,8043,10002225
176,state,Colorado,BENT COUNTY CORRECTIONAL FACILITY,2021-01-11,https://www.colorado.gov/pacific/cdoc/covid-19-faq-and-updates,868,,2,,723,,7393,,,,,,,,143,1400,11560 ROAD FF75,81054,LAS ANIMAS,BENT,38.06456309,-103.2047922,8011,10002233
177,state,Colorado,BUENA VISTA CORRECTIONAL COMPLEX,2021-01-11,https://www.colorado.gov/pacific/cdoc/covid-19-faq-and-updates,502,,1,,435,,17389,,,,,,,,66,1212,5125 HWY 24 & 285,81211,BUENA VISTA,CHAFFEE,38.82210118,-106.1147135,8015,10000573
178,state,Colorado,CENTENNIAL CORRECTIONAL FACILITY,2021-01-11,https://www.colorado.gov/pacific/cdoc/covid-19-faq-and-updates,121,,0,,109,,10754,,,,,,,,12,306,E US HIGHWAY 50 EVANS BLVD,81215,CANON CITY,FREMONT,,,8043,10002226
179,state,Colorado,COLORADO CORRECTIONAL CENTER,2021-01-11,https://www.colorado.gov/pacific/cdoc/covid-19-faq-and-updates,1,,0,,1,,1419,,,,,,,,0,125,15445 SOUTH GOLDEN ROAD,80401,GOLDEN,JEFFERSON,39.734937360000004,-105.171343,8059,10000563
180,state,Colorado,COLORADO STATE PENITENTIARY,2021-01-11,https://www.colorado.gov/pacific/cdoc/covid-19-faq-and-updates,123,,0,,96,,5002,,,,,,,,27,700,E US HIGHWAY 50 EVANS BLVD,81215,CANON CITY,FREMONT,,,8043,10002227
181,state,Colorado,COLORADO TERRITORIAL CORRECTIONAL FACILITY,2021-01-11,https://www.colorado.gov/pacific/cdoc/covid-19-faq-and-updates,571,,3,,549,,6130,,,,,,,,19,951,275 WEST UNITED STATES HIGHWAY 50,81215,CANON CITY,FREMONT,38.43802317,-105.2486951,8043,10000578
182,state,Colorado,CROWLEY COUNTY CORRECTIONAL FACILITY,2021-01-11,https://www.colorado.gov/pacific/cdoc/covid-19-faq-and-updates,520,,1,,494,,16218,,,,,,,,25,1826,6564 HIGHWAY 96,81062,OLNEY SPRINGS,CROWLEY,38.15673868,-103.9573023,8025,10000585
183,state,Colorado,DELTA CORRECTIONAL FACILITY,2021-01-11,https://www.colorado.gov/pacific/cdoc/covid-19-faq-and-updates,142,,0,,100,,1681,,,,,,,,42,703,11363 LOCKHART ROAD,81416,DELTA,DELTA,38.70911617,-108.1486112,8029,10000569
184,state,Colorado,DENVER RECEPTION DIAGNOSTIC CENTER,2021-01-11,https://www.colorado.gov/pacific/cdoc/covid-19-faq-and-updates,21,,0,,10,,5944,,,,,,,,11,584,10900 SMITH ROAD,80239,DENVER,DENVER,,,8031,10000560
185,state,Colorado,DENVER WOMENS CORRECTIONAL FACILITY,2021-01-11,https://www.colorado.gov/pacific/cdoc/covid-19-faq-and-updates,68,,0,,65,,9029,,,,,,,,3,921,3600 HAVANA STREET,80239,DENVER,DENVER,39.76510225,-104.860784,8031,10000561
186,federal,Colorado,ENGLEWOOD FEDERAL CORRECTIONAL INSTITUTION,2021-01-11,https://www.bop.gov/mobile/about/population_statistics.jsp; https://www.bop.gov/coronavirus/,686,,0,0,679,69,,,,,14,,,,,637,9595 WEST QUINCY AVE,80123,LITTLETON,JEFFERSON,39.64192027,-105.1055266,8059,10004659
187,federal,Colorado,FLORENCE ADMAX UNITED STATES PENITENTIARY,2021-01-11,https://www.bop.gov/mobile/about/population_statistics.jsp; https://www.bop.gov/coronavirus/,4,,0,0,3,0,,,,,1,,,,,,,,,,,,,
188,federal,Colorado,FLORENCE FEDERAL CORRECTIONAL INSTITUTION,2021-01-11,https://www.bop.gov/mobile/about/population_statistics.jsp; https://www.bop.gov/coronavirus/,625,,1,0,559,5,,,,,16,,,,,,,,,,,,,
189,federal,Colorado,FLORENCE HIGH UNITED STATES PENITENTIARY,2021-01-11,https://www.bop.gov/mobile/about/population_statistics.jsp; https://www.bop.gov/coronavirus/,77,,0,0,40,2,,,,,0,,,,,,,,,,,,,
190,state,Colorado,FOUR MILE CORRECTIONAL FACILITY,2021-01-11,https://www.colorado.gov/pacific/cdoc/covid-19-faq-and-updates,401,,0,,401,,2184,,,,,,,,0,519,E US HIGHWAY 50 & EVANS BLVD,81212,CANON CITY,FREMONT,38.42976983,-105.1478509,8043,10000577
191,state,Colorado,FREMONT CORRECTIONAL FACILITY,2021-01-11,https://www.colorado.gov/pacific/cdoc/covid-19-faq-and-updates,766,,4,,760,,14577,,,,,,,,2,1622,E US HIGHWAY 50 EVANS BLVD,81215,CANON CITY,FREMONT,,,8043,10000576
192,state,Colorado,LA VISTA CORRECTIONAL FACILITY,2021-01-11,https://www.colorado.gov/pacific/cdoc/covid-19-faq-and-updates,10,,0,,10,,2418,,,,,,,,0,694,1401 WEST 17TH STREET,81003,PUEBLO,PUEBLO,38.28484966,-104.6281974,8101,10000586
193,state,Colorado,LIMON CORRECTIONAL FACILITY,2021-01-11,https://www.colorado.gov/pacific/cdoc/covid-19-faq-and-updates,583,,0,,562,,3401,,,,,,,,21,926,49030 STATE HIGHWAY 71 SOUTH,80826,LIMON,LINCOLN,39.21808522,-103.6916854,8073,10000567
194,state,Colorado,RIFLE CORRECTIONAL CENTER,2021-01-11,https://www.colorado.gov/pacific/cdoc/covid-19-faq-and-updates,4,,0,,4,,965,,,,,,,,0,189,200 COUNTY ROAD 219,81650,RIFLE,GARFIELD,39.65016626,-107.7790488,8045,10000557
195,state,Colorado,SAN CARLOS CORRECTIONAL FACILITY,2021-01-11,https://www.colorado.gov/pacific/cdoc/covid-19-faq-and-updates,9,,0,,9,,1968,,,,,,,,0,216,1410 WEST 13TH STREET,81003,PUEBLO,PUEBLO,,,8101,10000587
196,state,Colorado,SKYLINE CORRECTIONAL CENTER,2021-01-11,https://www.colorado.gov/pacific/cdoc/covid-19-faq-and-updates,0,,0,,0,,91,,,,,,,,0,250,E US HIGHWAY 50 & EVANS BLVD,81212,CANON CITY,FREMONT,38.43013737,-105.1590536,8043,10000575
198,state,Colorado,STERLING CORRECTIONAL FACILITY,2021-01-11,https://www.colorado.gov/pacific/cdoc/covid-19-faq-and-updates,1362,,9,,1310,,20559,,,,,,,,43,2504,12101 HIGHWAY 61,80751,STERLING,LOGAN,40.61123458,-103.1621015,8075,10000554
199,state,Colorado,TRINIDAD CORRECTIONAL FACILITY,2021-01-11,https://www.colorado.gov/pacific/cdoc/covid-19-faq-and-updates,305,,0,,33,,3184,,,,,,,,272,502,21000 HIGHWAY 350 EAST,81059,MODEL,LAS ANIMAS,37.30034613,-104.2866571,8071,10000593
200,state,Colorado,YOUTHFUL OFFENDER SYSTEM,2021-01-11,https://www.colorado.gov/pacific/cdoc/covid-19-faq-and-updates,141,,0,,141,,554,,,,,,,,0,15,1300 WEST 13TH ST,81003,PUEBLO,PUEBLO,,,8101,10000588
201,state,Connecticut,BRIDGEPORT CORRECTIONAL CENTER,2021-01-11,https://portal.ct.gov/DOC/Common-Elements/Common-Elements/Health-Information-and-Advisories,285,,,,,,,,,,,,,,,689,1106 NORTH AVE,6604,BRIDGEPORT,FAIRFIELD,41.1906143,-73.20106036,9001,10002400
202,state,Connecticut,BROOKLYN CORRECTIONAL INSTITUTION,2021-01-11,https://portal.ct.gov/DOC/Common-Elements/Common-Elements/Health-Information-and-Advisories,157,,,,,,,,,,,,,,,428,59 HARTFORD RD,6234,BROOKLYN,WINDHAM,41.78416388,-71.95426216,9015,10002399
203,state,Connecticut,CARL ROBINSON CORRECTIONAL INSTITUTION,2021-01-11,https://portal.ct.gov/DOC/Common-Elements/Common-Elements/Health-Information-and-Advisories,291,,,,,,,,,,,,,,,1317,285 SHAKER RD,6082,ENFIELD,HARTFORD,42.0156533,-72.515607,9003,10001605
204,state,Connecticut,CHESHIRE CORRECTIONAL INSTITUTION,2021-01-11,https://portal.ct.gov/DOC/Common-Elements/Common-Elements/Health-Information-and-Advisories,365,,,,,,,,,,,,,,,1147,900 HIGHLAND AVE,6410,CHESHIRE,NEW HAVEN,41.52149124,-72.9017651,9009,10000937
206,state,Connecticut,CORRIGAN RADGOWSKI CORRECTIONAL CENTER,2021-01-11,https://portal.ct.gov/DOC/Common-Elements/Common-Elements/Health-Information-and-Advisories,288,,,,,,,,,,,,,,,734,986 NORWICH-NEW LONDON TURNPIKE,6382,UNCASVILLE,NEW LONDON,41.45418432,-72.11217243,9011,10000931
207,federal,Connecticut,DANBURY FEDERAL CORRECTIONAL INSTITUTION,2021-01-11,https://www.bop.gov/mobile/about/population_statistics.jsp; https://www.bop.gov/coronavirus/,196,,1,0,194,76,,,,,0,,,,,815,ROUTE 37,6811,DANBURY,FAIRFIELD,41.4367642,-73.4675543,9001,10000935
209,state,Connecticut,GARNER CORRECTIONAL INSTITUTION,2021-01-11,https://portal.ct.gov/DOC/Common-Elements/Common-Elements/Health-Information-and-Advisories,87,,,,,,,,,,,,,,,543,50 NUNNAWAUK RD,6470,NEWTOWN,FAIRFIELD,41.40035888,-73.2721123,9001,10000934
210,state,Connecticut,HARTFORD CORRECTIONAL CENTER,2021-01-11,https://portal.ct.gov/DOC/Common-Elements/Common-Elements/Health-Information-and-Advisories,258,,,,,,,,,,,,,,,888,177 WESTON ST,6120,HARTFORD,HARTFORD,41.79362408,-72.66139948,9003,10000926
212,state,Connecticut,MACDOUGALL WALKER CORRECTIONAL INSTITUTION,2021-01-11,https://portal.ct.gov/DOC/Common-Elements/Common-Elements/Health-Information-and-Advisories,626,,,,,,,,,,,,,,,1471,1153 EAST ST S,6080,SUFFIELD,HARTFORD,41.95048033,-72.6367468,9003,10000927
213,state,Connecticut,MANSON YOUTH CORRECTIONAL CENTER,2021-01-11,https://portal.ct.gov/DOC/Common-Elements/Common-Elements/Health-Information-and-Advisories,15,,,,,,,,,,,,,,,283,42 JARVIS ST,6410,CHESHIRE,NEW HAVEN,41.53050021,-72.89979775,9009,10000939
214,state,Connecticut,NEW HAVEN CORRECTIONAL CENTER,2021-01-11,https://portal.ct.gov/DOC/Common-Elements/Common-Elements/Health-Information-and-Advisories,175,,,,,,,,,,,,,,,683,245 WHALLEY AVE,6511,NEW HAVEN,NEW HAVEN,41.31748057,-72.93997131,9009,10005380
216,state,Connecticut,NORTHERN CORRECTIONAL INSTITUTION,2021-01-11,https://portal.ct.gov/DOC/Common-Elements/Common-Elements/Health-Information-and-Advisories,2,,,,,,,,,,,,,,,78,287 BILTON RD,6071,SOMERS,TOLLAND,42.0188064,-72.4948806,9013,10000929
217,state,Connecticut,OSBORN CORRECTIONAL INSTITUTION,2021-01-11,https://portal.ct.gov/DOC/Common-Elements/Common-Elements/Health-Information-and-Advisories,529,,,,,,,,,,,,,,,1253,335 BILTON RD,6071,SOMERS,TOLLAND,42.01640023,-72.49693453,9013,10000928
218,state,Connecticut,STATEWIDE,2021-01-11,https://portal.ct.gov/DOC/Common-Elements/Common-Elements/Health-Information-and-Advisories,,,15,,3017,,,,,,,,,,,,,,,,,,,
220,state,Connecticut,WILLARD CYBULSKI CORRECTIONAL INSTITUTION,2021-01-11,https://portal.ct.gov/DOC/Common-Elements/Common-Elements/Health-Information-and-Advisories,105,,,,,,,,,,,,,,,1090,391 SHAKER RD,6082,ENFIELD,TOLLAND,42.0167978,-72.5062987,9003,10006149
221,state,Connecticut,YORK CORRECTIONAL INSTITUTION,2021-01-11,https://portal.ct.gov/DOC/Common-Elements/Common-Elements/Health-Information-and-Advisories,239,,,,,,,,,,,,,,,883,201 W MAIN ST,6357,NIANTIC,NEW LONDON,41.32308179,-72.23754189,9011,10000933
,state,DC,STATEWIDE,2021-01-11,https://opendata.dc.gov/datasets/dc-covid-19-department-of-corrections/data?orderBy=DATE_REPORTED&orderByAsc=false,228,155,1,1,214,134,,,,,,,158,,,,,,,,,,,
,state,Delaware,COMMUNITY CORRECTIONS TREATMENT CENTER,2021-01-11,https://doc.delaware.gov/assets/documents/Confirmed_COVID_Cases.pdf,,,0,,,,,,,,,,,,0,,,,,,,,,
222,state,Delaware,DELORES J BAYLOR WOMANS CORRECTIONAL INSTITUTION,2021-01-11,https://doc.delaware.gov/assets/documents/Confirmed_COVID_Cases.pdf,,,0,,,,,,,,,,,,2,394,660 BAYLOR BLVD,19720,NEW CASTLE,NEW CASTLE,39.7039322,-75.58125772,10003,10002260
,state,Delaware,HAZEL D PLANT WOMANS TREATMENT FACILITY,2021-01-11,https://doc.delaware.gov/assets/documents/Confirmed_COVID_Cases.pdf,,,0,,,,,,,,,,,,0,,,,,,,,,
226,state,Delaware,HOWARD R YOUNG CORRECTIONAL INSTITUTION,2021-01-11,https://doc.delaware.gov/assets/documents/Confirmed_COVID_Cases.pdf,,,0,,,,,,,,,,,,114,1658,1301 E 12TH ST,19802,WILMINGTON,NEW CASTLE,39.7412423,-75.5294058,10003,10000699
227,state,Delaware,JAMES T VAUGHN CORRECTIONAL CENTER,2021-01-11,https://doc.delaware.gov/assets/documents/Confirmed_COVID_Cases.pdf,,,8,,,,,,,,,,,,28,2385,1181 PADDOCK RD,19977,SMYRNA,NEW CASTLE,39.33295451,-75.59958958,10003,10002262
231,state,Delaware,PLUMMER COMMUNITY CORRECTIONS CENTER,2021-01-11,https://doc.delaware.gov/assets/documents/Confirmed_COVID_Cases.pdf,,,0,,,,,,,,,,,,0,130,38 TODDS LN,19802,WILMINGTON,NEW CASTLE,39.75664471,-75.52904371,10003,10000701
234,state,Delaware,STATEWIDE,2021-01-11,https://doc.delaware.gov/assets/documents/Confirmed_COVID_Cases.pdf,1791,618,,,1589,538,,,,,,,,,,,,,,,,,,
236,state,Delaware,SUSSEX COMMUNITY CORRECTIONS CENTER,2021-01-11,https://doc.delaware.gov/assets/documents/Confirmed_COVID_Cases.pdf,,,0,,,,,,,,,,,,0,308,23207 DUPONT BLVD,19947,GEORGETOWN,SUSSEX,38.6596352,-75.3711832,10005,10000708
237,state,Delaware,SUSSEX CORRECTIONAL INSTITUTION,2021-01-11,https://doc.delaware.gov/assets/documents/Confirmed_COVID_Cases.pdf,,,4,,,,,,,,,,,,46,1130,23203 DUPONT BLVD,19947,GEORGETOWN,SUSSEX,38.665915,-75.3801231,10005,10000707
238,federal,District of Columbia,CENTRAL OFFICE HEADQUARTERS,2021-01-11,https://www.bop.gov/coronavirus/,,,0,0,0,4,,,,,,,,,,,,,,,,,,
251,federal,Florida,COLEMAN I UNITED STATES PENITENTIARY,2021-01-11,https://www.bop.gov/mobile/about/population_statistics.jsp; https://www.bop.gov/coronavirus/,66,,0,0,102,14,,,,,81,,,,,1245,846 NORTHEAST 54TH TERRACE,33521,SUMTERVILLE,SUMTER,28.7737905,-82.00445251,12119,10004592
252,federal,Florida,COLEMAN II UNITED STATES PENITENTIARY,2021-01-11,https://www.bop.gov/mobile/about/population_statistics.jsp; https://www.bop.gov/coronavirus/,222,,1,0,217,22,,,,,32,,,,,1374,846 NORTHEAST 54TH TERRACE,33521,SUMTERVILLE,SUMTER,28.7628994,-82.0011646,12119,10004595
253,federal,Florida,COLEMAN LOW FEDERAL CORRECTIONAL INSTITUTION,2021-01-11,https://www.bop.gov/mobile/about/population_statistics.jsp; https://www.bop.gov/coronavirus/,245,,1,1,201,12,,,,,476,,,,,2415,846 NORTHEAST 54TH TERRACE,33521,SUMTERVILLE,SUMTER,28.7692474,-82.010479,12119,10004593
254,federal,Florida,COLEMAN MEDIUM FEDERAL CORRECTIONAL INSTITUTION,2021-01-11,https://www.bop.gov/coronavirus/,327,,3,0,283,8,,,,,73,,,,,1486,846 NORTHEAST 54TH TERRACE,33521,SUMTERVILLE,SUMTER,28.7662507,-82.00753865,12119,10004594
264,federal,Florida,DISMAS CHARITIES OF ORLANDO,2021-01-11,https://www.bop.gov/coronavirus/,2,,0,0,2,0,,,,,0,,,,,,,,,,,,,
280,federal,Florida,JACKSONVILLE RESIDENTIAL REENTRY CENTER,2021-01-11,https://www.bop.gov/coronavirus/,9,,0,0,9,0,,,,,0,,,,,,,,,,,,,
290,federal,Florida,MARIANNA FEDERAL CORRECTIONAL INSTITUTION,2021-01-11,https://www.bop.gov/mobile/about/population_statistics.jsp; https://www.bop.gov/coronavirus/,186,,0,0,83,32,,,,,0,,,,,,,,,,,,,
294,federal,Florida,MIAMI FEDERAL CORRECTIONAL INSTITUTION,2021-01-11,https://www.bop.gov/mobile/about/population_statistics.jsp; https://www.bop.gov/coronavirus/,242,,1,0,137,20,,,,,3,,,,,931,15801 SW 137TH AVE,33177,MIAMI,MIAMI-DADE,25.61832698,-80.41039062,12086,10000542
295,federal,Florida,MIAMI FEDERAL DETENTION CENTER,2021-01-11,https://www.bop.gov/mobile/about/population_statistics.jsp; https://www.bop.gov/coronavirus/,162,,2,0,178,21,,,,,17,,,,,1389,33 NORTHEAST 4TH STREET,33132,MIAMI,MIAMI-DADE,25.7784897,-80.19323747,12086,10004647
301,federal,Florida,PENSACOLA FEDERAL PRISON CAMP,2021-01-11,https://www.bop.gov/mobile/about/population_statistics.jsp; https://www.bop.gov/coronavirus/,28,,0,0,5,6,,,,,2,,,,,,,,,,,,,
306,federal,Florida,SALVATION ARMY FORT MYERS FLORIDA,2021-01-11,https://www.bop.gov/coronavirus/,1,,0,0,1,0,,,,,0,,,,,,,,,,,,,
312,county,Florida,ST LUCE COUNTY JAIL,2021-01-11,https://www.stluciesheriff.com/288/COVID-19-Information,,,,,,,,,,,,,,,,,,,,,,,,
313,state,Florida,STATEWIDE,2021-01-11,http://www.dc.state.fl.us/comm/covid-19.html,17560,4603,196,,17307,4011,,,,,,,,,,,,,,,,,,
316,federal,Florida,TALLAHASSEE FEDERAL CORRECTIONAL INSTITUTION,2021-01-11,https://www.bop.gov/mobile/about/population_statistics.jsp; https://www.bop.gov/coronavirus/,112,,0,0,136,14,,,,,17,,,,,925,501 CAPITAL CIRCLE NE,32301,TALLAHASSEE,LEON,30.44364798,-84.22253719,12073,10000375
323,state,Georgia,APPLING INTEGRATED TREATMENT FACILITY,2021-01-11,http://www.dcor.state.ga.us/content/CVD_Dashboard,15,3,0,0,15,3,,,,,,,,,,,252 WEST PARK DRIVE,31513,BAXLEY,APPLING,,,13001,10004527
324,state,Georgia,ATLANTA TRANSITIONAL CENTER,2021-01-11,http://www.dcor.state.ga.us/content/CVD_Dashboard,9,2,0,0,9,2,,,,,,,,,,281,332 PONCE DE LEON AVE NE,30308,ATLANTA,FULTON,33.77270217,-84.3762642,13121,10001411
325,federal,Georgia,ATLANTA UNITED STATES PENITENTIARY,2021-01-11,https://www.bop.gov/mobile/about/population_statistics.jsp; https://www.bop.gov/coronavirus/,128,,1,0,80,8,,,,,8,,,,,2093,601 MCDONOUGH BLVD SE,30315,ATLANTA,FULTON,33.71070018,-84.36897923,13121,10000285
326,state,Georgia,AUGUSTA STATE MEDICAL PRISON,2021-01-11,http://www.dcor.state.ga.us/content/CVD_Dashboard,215,104,6,0,194,96,,,,,,,,,,1160,3001 GORDON HWY,30813,GROVETOWN,COLUMBIA,33.43287905,-82.18852112,13073,10006153
327,state,Georgia,AUGUSTA TRANSITIONAL CENTER,2021-01-11,http://www.dcor.state.ga.us/content/CVD_Dashboard,9,10,0,0,5,3,,,,,,,,,,,601 TAYLOR STREET,30906,AUGUSTA,RICHMOND,,,13245,10004475
328,state,Georgia,AUTRY STATE PRISON,2021-01-11,http://www.dcor.state.ga.us/content/CVD_Dashboard,77,16,3,0,74,15,,,,,,,,,,1715,3178 MOUNT ZION CHURCH RD,31779,PELHAM,MITCHELL,31.18946471,-84.14510952,13205,10000325
329,state,Georgia,BACON PROBATION DETENTION CENTER,2021-01-11,http://www.dcor.state.ga.us/content/CVD_Dashboard,3,13,0,0,3,13,,,,,,,,,,232,165 EAST EASTSIDE INDUSTRIAL BOULEVARD,31510,ALMA,BACON,31.53308262,-82.44987705,13005,10004534
330,state,Georgia,BAINBRIDGE PROBATION SUBSTANCE ABUSE TREATMENT,2021-01-11,http://www.dcor.state.ga.us/content/CVD_Dashboard,48,21,0,0,48,19,,,,,,,,,,,235 STATE HOSPITAL ROAD,39817,BAINBRIDGE,DECATUR,30.98252995,-84.63677462,13087,10006339
332,state,Georgia,BALDWIN STATE PRISON,2021-01-11,http://www.dcor.state.ga.us/content/CVD_Dashboard,31,39,2,0,26,35,,,,,,,,,,953,140 LAYING FARM RD,31034,HARDWICK,BALDWIN,33.0250608,-83.2213613,13009,10002129
333,state,Georgia,BLECKLEY PROBATION SUBSTANCE ABUSE TREATMENT CENTER,2021-01-11,http://www.dcor.state.ga.us/content/CVD_Dashboard,35,13,0,0,35,13,,,,,,,,,,,,,,,,,,
334,state,Georgia,BULLOCH COUNTY CORRECTIONAL INSTITUTION,2021-01-11,http://www.dcor.state.ga.us/content/CVD_Dashboard,0,0,0,0,0,0,,,,,,,,,,,,,,,,,,
335,state,Georgia,BURRUSS CORRECTIONAL TRAINING CENTER,2021-01-11,http://www.dcor.state.ga.us/content/CVD_Dashboard,18,17,1,0,13,17,,,,,,,,,,444,1000 INDIAN SPRINGS DR,31029,FORSYTH,MONROE,33.05554556,-83.97538536,13207,10001421
336,state,Georgia,CALHOUN STATE PRISON,2021-01-11,http://www.dcor.state.ga.us/content/CVD_Dashboard,58,30,1,1,56,26,,,,,,,,,,1638,27823 MAIN ST,39866,MORGAN,CALHOUN,31.53975718,-84.6166883,13037,10002146
337,state,Georgia,CARROLL COUNTY CORRECTIONAL INSTITUTION,2021-01-11,http://www.dcor.state.ga.us/content/CVD_Dashboard,3,0,0,0,0,0,,,,,,,,,,,96 HORSLEY MILL ROAD,30117,CARROLLTON,CARROLL,,,13045,10003920
338,state,Georgia,CENTRAL STATE PRISON,2021-01-11,http://www.dcor.state.ga.us/content/CVD_Dashboard,34,34,0,0,32,25,,,,,,,,,,1136,4600 FULTON MILL RD,31208,MACON,BIBB,32.77682714,-83.75181934,13021,10002134
339,state,Georgia,CLARKE COUNTY CORRECTIONAL INSTITUTION,2021-01-11,http://www.dcor.state.ga.us/content/CVD_Dashboard,15,0,0,0,15,0,,,,,,,,,,,2825 COUNTY FARM ROAD,30601,ATHENS,CLARKE,,,13059,10003914
340,state,Georgia,CLAYTON COUNTY CORRECTIONAL INSTITUTION,2021-01-11,http://www.dcor.state.ga.us/content/CVD_Dashboard,0,0,0,0,0,0,,,,,,,,,,,,,,,,,,
341,state,Georgia,CLAYTON TRANSITIONAL CENTER,2021-01-11,http://www.dcor.state.ga.us/content/CVD_Dashboard,7,9,0,0,7,7,,,,,,,,,,379,242 FALCON DR,30297,FOREST PARK,CLAYTON,33.62430193,-84.3976813,13063,10002121
342,state,Georgia,COASTAL STATE PRISON,2021-01-11,http://www.dcor.state.ga.us/content/CVD_Dashboard,70,17,6,0,64,12,,,,,,,,,,1638,200 GULF STREAM RD,31418,GARDEN CITY,CHATHAM,32.13759217,-81.18656693,13051,10000314
343,state,Georgia,COFFEE CORRECTIONAL FACILITY,2021-01-11,http://www.dcor.state.ga.us/content/CVD_Dashboard,235,0,5,0,229,0,,,,,,,,,,2657,1153 NORTH LIBERTY STREET,31554,NICHOLLS,COFFEE,31.53063543,-82.63791259,13069,10002144
344,state,Georgia,COLQUITT COUNTY CORRECTIONAL INSTITUTION,2021-01-11,http://www.dcor.state.ga.us/content/CVD_Dashboard,11,0,0,0,11,0,,,,,,,,,,191,200 SOUTH VANDENBERG DRIVE,31768,MOULTRIE,COLQUITT,31.12973082,-83.70786594,13071,10004548
345,state,Georgia,COLUMBUS TRANSITIONAL CENTER,2021-01-11,http://www.dcor.state.ga.us/content/CVD_Dashboard,4,3,0,0,4,3,,,,,,,,,,139,3900 SCHATULGA ROAD,31907,COLUMBUS,MUSCOGEE,32.49407873,-84.86892761,13215,10001426
346,state,Georgia,COLWELL PROBATION DETENTION CENTER,2021-01-11,http://www.dcor.state.ga.us/content/CVD_Dashboard,0,1,0,0,0,0,,,,,,,,,,,,,,,,,,
347,state,Georgia,COWETA COUNTY CORRECTIONAL INSTITUTION,2021-01-11,http://www.dcor.state.ga.us/content/CVD_Dashboard,84,0,0,0,84,0,,,,,,,,,,,101 SELT ROAD,30263,NEWNAN,COWETA,,,13077,10004478
349,federal,Georgia,D RAY JAMES CORRECTIONAL INSTITUTION,2021-01-11,https://www.bop.gov/coronavirus/,,,3,0,194,0,,,,,,,,,,1826,3262 HIGHWAY 252,31537,FOLKSTON,CHARLTON,30.87400142,-81.97896384,13049,10000327
350,state,Georgia,DECATUR COUNTY CORRECTIONAL INSTITUTION,2021-01-11,http://www.dcor.state.ga.us/content/CVD_Dashboard,2,0,0,0,2,0,,,,,,,,,,,1153 AIRPORT ROAD,39817,BAINBRIDGE,DECATUR,,,13087,10003940
351,state,Georgia,DODGE STATE PRISON,2021-01-11,http://www.dcor.state.ga.us/content/CVD_Dashboard,36,25,3,1,32,21,,,,,,,,,,1228,2971 OLD BETHEL CHURCH ROAD,31012,CHESTER,DODGE,32.3942334,-83.16745955,13091,10002138
352,state,Georgia,DOOLY STATE PRISON,2021-01-11,http://www.dcor.state.ga.us/content/CVD_Dashboard,18,20,2,0,16,19,,,,,,,,,,1661,1412 PLUNKETT ROAD,31091,UNADILLA,HOUSTON,32.28092423,-83.71567596,13093,10006154
353,state,Georgia,EFFINGHAM COUNTY CORRECTIONAL INSTITUTION,2021-01-11,http://www.dcor.state.ga.us/content/CVD_Dashboard,47,0,0,0,47,0,,,,,,,,,,,,,,,,,,
354,state,Georgia,EMANUEL PROBATION DETENTION CENTER,2021-01-11,http://www.dcor.state.ga.us/content/CVD_Dashboard,0,0,0,0,0,0,,,,,,,,,,,121 CASA DRIVE,30471,TWIN CITY,EMANUEL,,,13107,10004497
355,state,Georgia,EMANUEL WOMENS FACILITY,2021-01-11,http://www.dcor.state.ga.us/content/CVD_Dashboard,27,16,0,0,26,12,,,,,,,,,,395,714 GUMLOG ROAD,30401,SWAINSBORO,EMANUEL,32.61303825,-82.3564078,13107,10004496
356,state,Georgia,FLOYD COUNTY CORRECTIONAL INSTITUTION,2021-01-11,http://www.dcor.state.ga.us/content/CVD_Dashboard,0,0,0,0,0,0,,,,,,,,,,,,,,,,,,
357,state,Georgia,GEORGIA DIAGNOSTIC AND CLASSIFICATION PRISON,2021-01-11,http://www.dcor.state.ga.us/content/CVD_Dashboard,152,53,5,0,125,45,,,,,,,,,,3371,2978 STATE HWYY 36 W PRISON BLVD,30233,JACKSON,BUTTS,33.22107373,-84.06161828,13035,10000298
358,state,Georgia,GEORGIA DIAGNOSTIC AND CLASSIFICATION PRISON SPECIAL MANAGEMENT UNIT,2021-01-11,http://www.dcor.state.ga.us/content/CVD_Dashboard,0,12,0,0,0,10,,,,,,,,,,3371,2978 STATE HWYY 36 W PRISON BLVD,30233,JACKSON,BUTTS,33.22107373,-84.06161828,13035,10000298
359,state,Georgia,GEORGIA STATE PRISON,2021-01-11,http://www.dcor.state.ga.us/content/CVD_Dashboard,30,34,3,0,27,27,,,,,,,,,,1454,300 1ST AVENUE SOUTH,30453,REIDSVILLE,TATTNALL,32.00512895,-82.16473427,13267,10002141
360,state,Georgia,GWINNETT COUNTY CORRECTIONAL INSTITUTION,2021-01-11,http://www.dcor.state.ga.us/content/CVD_Dashboard,18,0,0,0,18,0,,,,,,,,,,,,,,,,,,
361,state,Georgia,HALL COUNTY CORRECTIONAL INSTITUTION,2021-01-11,http://www.dcor.state.ga.us/content/CVD_Dashboard,3,0,0,0,3,0,,,,,,,,,,,1698 BARBER ROAD,30507,GAINESVILLE,HALL,,,13139,10006723
362,state,Georgia,HANCOCK STATE PRISON,2021-01-11,http://www.dcor.state.ga.us/content/CVD_Dashboard,90,15,0,0,26,14,,,,,,,,,,1143,701 PRISON BLVD,31087,SPARTA,HANCOCK,33.24549405,-82.95092313,13141,10000297
363,state,Georgia,HARRIS COUNTY CORRECTIONAL INSTITUTION,2021-01-11,http://www.dcor.state.ga.us/content/CVD_Dashboard,3,0,0,0,3,0,,,,,,,,,,,9982 SR 116,31811,HAMILTON,HARRIS,,,13145,10003931
364,state,Georgia,HAYS STATE PRISON,2021-01-11,http://www.dcor.state.ga.us/content/CVD_Dashboard,43,31,0,0,43,28,,,,,,,,,,,777 UNDERWOOD DRIVE,30753,TRION,CHATTOOGA,,,13055,10000284
365,state,Georgia,HELMS FACILITY,2021-01-11,http://www.dcor.state.ga.us/content/CVD_Dashboard,0,4,0,0,0,3,,,,,,,,,,,1275 CONSTITUTION ROAD SE,30316,ATLANTA,DEKALB,,,13089,10001415
366,state,Georgia,HUDSON TRANSITIONAL CENTER,2021-01-11,http://www.dcor.state.ga.us/content/CVD_Dashboard,2,1,0,0,2,1,,,,,,,,,,,,,,,,,,
367,state,Georgia,JACKSON COUNTY CORRECTIONAL INSTITUTION,2021-01-11,http://www.dcor.state.ga.us/content/CVD_Dashboard,0,0,0,0,0,0,,,,,,,,,,,265 I.W. DAVIS ROAD,30549,JEFFERSON,JACKSON,,,13157,10003907
368,state,Georgia,JEFFERSON COUNTY CORRECTIONAL INSTITUTION,2021-01-11,http://www.dcor.state.ga.us/content/CVD_Dashboard,4,0,0,0,4,0,,,,,,,,,,,1159 CLARKS MILL ROAD,30434,LOUISVILLE,JEFFERSON,,,13163,10004482
369,state,Georgia,JENKINS CORRECTIONAL CENTER,2021-01-11,http://www.dcor.state.ga.us/content/CVD_Dashboard,31,0,4,0,27,0,,,,,,,,,,,,,,,,,,
370,state,Georgia,JOHNSON STATE PRISON,2021-01-11,http://www.dcor.state.ga.us/content/CVD_Dashboard,47,15,1,0,46,11,,,,,,,,,,1583,290 DONOVAN-HARRISON ROAD,31096,WRIGHTSVILLE,JOHNSON,32.74353362,-82.70234985,13167,10000303
371,state,Georgia,LEE ARRENDALE STATE PRISON,2021-01-11,http://www.dcor.state.ga.us/content/CVD_Dashboard,65,35,0,0,61,30,,,,,,,,,,1596,2023 GAINESVILLE HWY,30510,ALTO,HABERSHAM,34.45106681,-83.59596645,13137,10002102
372,state,Georgia,LEE ARRENDALE TRANSITIONAL CENTER,2021-01-11,http://www.dcor.state.ga.us/content/CVD_Dashboard,0,3,0,0,0,2,,,,,,,,,,,,,,,,,,
373,state,Georgia,LEE STATE PRISON,2021-01-11,http://www.dcor.state.ga.us/content/CVD_Dashboard,24,38,2,0,22,32,,,,,,,,,,740,153 PINEWOOD DRIVE,31763,LEESBURG,LEE,31.76369451,-84.19354919,13177,10000323
374,state,Georgia,LONG UNIT,2021-01-11,http://www.dcor.state.ga.us/content/CVD_Dashboard,9,17,1,0,8,17,,,,,,,,,,,,,,,,,,
375,state,Georgia,MACON STATE PRISON,2021-01-11,http://www.dcor.state.ga.us/content/CVD_Dashboard,34,46,2,0,30,39,,,,,,,,,,1703,2728 SOUTH 49 HWY,31068,OGLETHORPE,MACON,32.25930659,-84.09144003,13193,10002137
376,state,Georgia,MACON TRANSITIONAL CENTER,2021-01-11,http://www.dcor.state.ga.us/content/CVD_Dashboard,9,4,1,0,8,4,,,,,,,,,,,200 HENRY ST,31206,MACON,BIBB,,,13021,10001423
377,state,Georgia,MCEVER PDC,2021-01-11,http://www.dcor.state.ga.us/content/CVD_Dashboard,26,13,0,0,6,9,,,,,,,,,,,2100 KINGS CHAPEL ROAD,31069,PERRY,HOUSTON,32.46494728,-83.69501268,13153,10004500
378,federal,Georgia,MCRAE CORRECTIONAL INSTITUTION,2021-01-11,https://www.bop.gov/mobile/about/population_statistics.jsp; https://www.bop.gov/coronavirus/,,,1,0,23,0,,,,,,,,,,1601,112 JIM HAMMOCK DRIVE,31055,MCRAE,TELFAIR,32.05007042,-82.8715772,13271,10000315
379,state,Georgia,METRO REENTRY FACILITY,2021-01-11,http://www.dcor.state.ga.us/content/CVD_Dashboard,3,18,0,0,3,16,,,,,,,,,,229,1303 CONSTITUTION ROAD,30316,ATLANTA,DEKALB,33.687261,-84.336355,13089,10001414
380,state,Georgia,METRO TRANSITIONAL CENTER,2021-01-11,http://www.dcor.state.ga.us/content/CVD_Dashboard,9,11,0,0,9,11,,,,,,,,,,229,1303 CONSTITUTION ROAD,30316,ATLANTA,DEKALB,33.6885252,-84.336397,13089,10001414
381,state,Georgia,MITCHELL COUNTY CORRECTIONAL INSTITUTION,2021-01-11,http://www.dcor.state.ga.us/content/CVD_Dashboard,3,0,0,0,3,0,,,,,,,,,,144,4838 STATE HWY 37 E,31730,CAMILLA,MITCHELL,31.2324018,-84.180085,13205,10002149
382,state,Georgia,MONTGOMERY STATE PRISON,2021-01-11,http://www.dcor.state.ga.us/content/CVD_Dashboard,22,23,1,0,21,22,,,,,,,,,,,650 MOUNT VERNON ALSTON ROAD,30445,MOUNT VERNON,MONTGOMERY,,,13209,10000308
383,state,Georgia,MUSCOGEE COUNTY CORRECTIONAL INSTITUTION,2021-01-11,http://www.dcor.state.ga.us/content/CVD_Dashboard,3,0,0,0,2,0,,,,,,,,,,,,,,,,,,
384,state,Georgia,NORTHWEST RESIDENTIAL SUBSTANCE ABUSE TREATMENT,2021-01-11,http://www.dcor.state.ga.us/content/CVD_Dashboard,18,0,0,0,18,0,,,,,,,,,,,,,,,,,,
385,state,Georgia,PATTEN PROBATION DETENTION CENTER,2021-01-11,http://www.dcor.state.ga.us/content/CVD_Dashboard,4,12,0,0,4,11,,,,,,,,,,,1009 NORTH 10TH AVENUE,31635,LAKELAND,LANIER,31.03988304,-83.0617537,13173,10004551
386,state,Georgia,PAULDING RESIDENTIAL SUBSTANCE ABUSE TREATMENT,2021-01-11,http://www.dcor.state.ga.us/content/CVD_Dashboard,17,16,0,0,17,15,,,,,,,,,,150,1295 N INDUSTRIAL BLVD,30132,DALLAS,PAULDING,33.94976674,-84.81466644,13223,10002108
387,state,Georgia,PHILLIPS STATE PRISON,2021-01-11,http://www.dcor.state.ga.us/content/CVD_Dashboard,17,33,0,0,16,28,,,,,,,,,,1048,2989 WEST ROCK QUARRY ROAD,30519,BUFORD,GWINNETT,34.0942918,-83.9105205,13135,10002106
388,state,Georgia,PHILLIPS TRANSITIONAL CENTER,2021-01-11,http://www.dcor.state.ga.us/content/CVD_Dashboard,9,3,0,0,6,3,,,,,,,,,,194,2989 W ROCK QUARRY ROAD,30519,BUFORD,GWINNETT,34.09554623,-83.90946974,13135,10002105
389,state,Georgia,PULASKI STATE PRISON,2021-01-11,http://www.dcor.state.ga.us/content/CVD_Dashboard,91,44,1,0,90,43,,,,,,,,,,1162,373 UPPER RIVER ROAD,31036,HAWKINSVILLE,PULASKI,32.3115199,-83.45723464,13235,10000307
390,state,Georgia,RICHMOND COUNTY CORRECTIONAL INSTITUTION,2021-01-11,http://www.dcor.state.ga.us/content/CVD_Dashboard,12,0,0,0,12,0,,,,,,,,,,,2314 TOBACCO RD,30906,AUGUSTA,RICHMOND,,,13245,10001419
391,state,Georgia,RIVERBEND CORRECTIONAL FACILITY,2021-01-11,http://www.dcor.state.ga.us/content/CVD_Dashboard,18,0,3,0,15,0,,,,,,,,,,1497,196 LAYING FARM ROAD,31061,MILLEDGEVILLE,BALDWIN,,,13009,10006322
392,state,Georgia,ROGERS STATE PRISON,2021-01-11,http://www.dcor.state.ga.us/content/CVD_Dashboard,17,22,0,0,16,20,,,,,,,,,,,1978 GEORGIA HIGHWAY 147,30453,REIDSVILLE,TATTNALL,,,13267,10000310
393,state,Georgia,RUTLEDGE STATE PRISON,2021-01-11,http://www.dcor.state.ga.us/content/CVD_Dashboard,26,22,2,0,24,21,,,,,,,,,,601,7175 MANOR ROAD,31907,COLUMBUS,MUSCOGEE,32.49582796,-84.86617971,13215,10000304
394,state,Georgia,SCREVEN COUNTY CORRECTIONAL INSTITUTION,2021-01-11,http://www.dcor.state.ga.us/content/CVD_Dashboard,0,0,0,0,0,0,,,,,,,,,,,859 ROCKYFORD ROAD,30467,SYLVANIA,SCREVEN,,,13251,10005184
395,state,Georgia,SMITH STATE PRISON,2021-01-11,http://www.dcor.state.ga.us/content/CVD_Dashboard,21,19,1,0,20,19,,,,,,,,,,1514,9676 UNITED STATES HIGHWAY 301 NORTH,30427,GLENNVILLE,TATTNALL,31.97310836,-81.91578361,13267,10000309
396,state,Georgia,SMITH TRANSITIONAL CENTER,2021-01-11,http://www.dcor.state.ga.us/content/CVD_Dashboard,10,2,0,0,10,2,,,,,,,,,,,8631 UNITED STATES HIGHWAY 301 NORTH,30417,CLAXTON,EVANS,,,13109,10004515
397,federal,Georgia,SOUTHEAST REGIONAL OFFICE,2021-01-11,https://www.bop.gov/coronavirus/,,,0,0,0,1,,,,,,,,,,,,,,,,,13121,
398,state,Georgia,SPALDING COUNTY CORRECTIONAL INSTITUTION,2021-01-11,http://www.dcor.state.ga.us/content/CVD_Dashboard,0,0,0,0,0,0,,,,,,,,,,,295 JUSTICE BLVD,30223,GRIFFIN,SPALDING,,,13255,10002125
399,state,Georgia,SUMTER COUNTY CORRECTIONAL INSTITUTION,2021-01-11,http://www.dcor.state.ga.us/content/CVD_Dashboard,0,0,0,0,0,0,,,,,,,,,,,,,,,,,,
400,state,Georgia,TELFAIR STATE PRISON,2021-01-11,http://www.dcor.state.ga.us/content/CVD_Dashboard,77,19,6,0,71,18,,,,,,,,,,,210 LONGBRIDGE ROAD,31037,HELENA,TELFAIR,,,13271,10000316
401,state,Georgia,TERRELL COUNTY CORRECTIONAL INSTITUTION,2021-01-11,http://www.dcor.state.ga.us/content/CVD_Dashboard,0,0,0,0,0,0,,,,,,,,,,,3110 ALBANY HIGHWAY,39842,DAWSON,TERRELL,,,13273,10004524
402,state,Georgia,TREUTLEN PROBATION DETENTION CENTER,2021-01-11,http://www.dcor.state.ga.us/content/CVD_Dashboard,13,22,0,0,13,20,,,,,,,,,,,1 SESSIONS STREET,30457,SOPERTON,TREUTLEN,32.3624615,-82.60238104,13283,10005191
403,state,Georgia,TURNER RESIDENTIAL SUBSTANCE ABUSE TREATMENT,2021-01-11,http://www.dcor.state.ga.us/content/CVD_Dashboard,34,9,0,0,33,8,,,,,,,,,,1,514 SOUTH RAILROAD AVE,31790,SYCAMORE,TURNER,31.6621587,-83.63393731,13287,10005201
404,state,Georgia,VALDOSTA STATE PRISON,2021-01-11,http://www.dcor.state.ga.us/content/CVD_Dashboard,19,68,0,0,19,62,,,,,,,,,,1000,3259 VALTECH RD,31601,VALDOSTA,LOWNDES,30.85995723,-83.34575403,13185,10000328
405,state,Georgia,VALDOSTA TRANSITIONAL CENTER,2021-01-11,http://www.dcor.state.ga.us/content/CVD_Dashboard,2,13,0,0,1,3,,,,,,,,,,164,263 GILL HARBIN INDUSTRIAL BLVD.,31601,VALDOSTA,LOWNDES,30.80565871,-83.2675069,13185,10001432
406,state,Georgia,WALKER STATE PRISON,2021-01-11,http://www.dcor.state.ga.us/content/CVD_Dashboard,64,27,1,0,63,24,,,,,,,,,,,97 KEVIN LANE,30739,ROCK SPRING,WALKER,,,13295,10000283
407,state,Georgia,WARE STATE PRISON,2021-01-11,http://www.dcor.state.ga.us/content/CVD_Dashboard,31,60,4,0,26,58,,,,,,,,,,1485,3620 NORTH HARRIS ROAD,31501,WAYCROSS,WARE,31.25673084,-82.39335661,13299,10002147
408,state,Georgia,WASHINGTON STATE PRISON,2021-01-11,http://www.dcor.state.ga.us/content/CVD_Dashboard,26,7,0,0,26,7,,,,,,,,,,1334,13262 HWY 24 E,31018,DAVISBORO,WASHINGTON,32.98872379,-82.59490798,13303,10002126
409,state,Georgia,WEST CENTRAL INTEGRATED TREATMENT FACILITY,2021-01-11,http://www.dcor.state.ga.us/content/CVD_Dashboard,36,23,0,0,1,14,,,,,,,,,,,1070 COUNTY FARM ROAD,30295,ZEBULON,PIKE,33.11609815,-84.3610402,13231,10004487
410,state,Georgia,WHEELER CORRECTIONAL FACILITY,2021-01-11,http://www.dcor.state.ga.us/content/CVD_Dashboard,171,0,12,0,159,0,,,,,,,,,,2636,195 NORTH BROAD STREET,30411,ALAMO,WHEELER,32.1504927,-82.79500753,13309,10002142
411,state,Georgia,WHITWORTH WOMENS FACILITY,2021-01-11,http://www.dcor.state.ga.us/content/CVD_Dashboard,18,18,1,0,17,16,,,,,,,,,,,,,,,,,,
412,state,Georgia,WILCOX STATE PRISON,2021-01-11,http://www.dcor.state.ga.us/content/CVD_Dashboard,46,26,3,0,41,23,,,,,,,,,,,470 SOUTH BROAD STREET,31001,ABBEVILLE,WILCOX,,,13315,10000318
413,state,Georgia,WOMENS PROBATION DETENTION CENTER,2021-01-11,http://www.dcor.state.ga.us/content/CVD_Dashboard,6,7,0,0,6,7,,,,,,,,,,,,,,,,,,
414,state,Hawaii,HALAWA CORRECTIONAL FACILITY,2021-01-11,https://dps.hawaii.gov/blog/2020/03/17/coronavirus-covid-19-information-and-resources/,535,,0,,340,,2807,,2265,,,,,,198,852,99-902 MOANALUA RD,96701,AIEA,HONOLULU,21.37379134,-157.8989822,15003,10000124
415,state,Hawaii,HAWAII COMMUNITY CORRECTIONAL CENTER,2021-01-11,https://dps.hawaii.gov/blog/2020/03/17/coronavirus-covid-19-information-and-resources/,1,,0,,1,,261,,260,,0,,0,,0,515,60 PUNAHELE STREET,96720,HILO,HAWAII,19.71830866,-155.0989632,15001,10003694
416,federal,Hawaii,HONOLULU FEDERAL DETENTION CENTER,2021-01-11,https://www.bop.gov/mobile/about/population_statistics.jsp; https://www.bop.gov/coronavirus/,7,,0,0,4,3,,,,,4,,,,,,,,,,,,,
417,state,Hawaii,KAUAI COMMUNITY CORRECTIONAL CENTER,2021-01-11,https://dps.hawaii.gov/blog/2020/03/17/coronavirus-covid-19-information-and-resources/,0,,0,,0,,64,,64,,0,,0,,0,159,3-5351 KUHIO HIGHWAY,96766,LIHUE,KAUAI,22.02515252,-159.3428192,15007,10003692
418,state,Hawaii,KULANI CORRECTIONAL FACILITY,2021-01-11,https://dps.hawaii.gov/blog/2020/03/17/coronavirus-covid-19-information-and-resources/,0,,0,,0,,232,,232,,0,,0,,0,184,HC 01 STAINBACK HWY,96720,HILO,HAWAII,19.54917893,-155.3011053,15001,10000128
419,state,Hawaii,MAUI COMMUNITY CORRECTIONAL CENTER,2021-01-11,https://dps.hawaii.gov/blog/2020/03/17/coronavirus-covid-19-information-and-resources/,0,,0,,0,,266,,266,,0,,42,,0,452,600 WAIALE DR,96793,WAILUKU,MAUI,20.87701605,-156.4983753,15009,10000127
422,state,Hawaii,OHAU COMMUNITY CORRECTIONAL CENTER,2021-01-11,https://dps.hawaii.gov/blog/2020/03/17/coronavirus-covid-19-information-and-resources/,457,,0,,448,,5727,,5254,,0,,45,,1,1268,2199 KAMEHAMEHA HIGHWAY,96819,HONOLULU,HONOLULU,21.32989382,-157.884874,15003,10003691
423,state,Hawaii,SAGUARO CORRECTIONAL CENTER,2021-01-11,https://dps.hawaii.gov/blog/2020/03/17/coronavirus-covid-19-information-and-resources/,657,,2,,655,,3012,,2355,,,,0,,0,,1250 EAST ARICA ROAD,85131,ELOY,PINAL,,,4021,10003973
425,state,Hawaii,WAIAWA CORRECTIONAL FACILITY,2021-01-11,https://dps.hawaii.gov/blog/2020/03/17/coronavirus-covid-19-information-and-resources/,213,,0,,213,,877,,661,,,,0,,0,202,94-560 KAMEHAMEHA HWY,96797,WAIPAHU,HONOLULU,21.44465003,-157.9609092,15003,10001191
426,state,Hawaii,WOMENS COMMUNITY CORRECTIONAL CENTER,2021-01-11,https://dps.hawaii.gov/blog/2020/03/17/coronavirus-covid-19-information-and-resources/,0,,0,,0,,252,,252,,0,,0,,0,278,42-477 KALANIANAOLE HWY,96734,KAILUA,HONOLULU,21.37802504,-157.7484499,15003,10000126
428,state,Idaho,CENTRAL OFFICE,2021-01-11,https://www.idoc.idaho.gov/content/careers/covid-19,,22,,,,20,,,,,,,,,,,,,,,,,,
429,state,Idaho,DISTRICT 1,2021-01-11,https://www.idoc.idaho.gov/content/careers/covid-19,,4,,,,3,,,,,,,,,,,,,,,,,,
,state,Idaho,DISTRICT 2,2021-01-11,https://www.idoc.idaho.gov/content/careers/covid-19,,1,,,,1,,,,,,,,,,,,,,,,,,
430,state,Idaho,DISTRICT 3,2021-01-11,https://www.idoc.idaho.gov/content/careers/covid-19,,5,,,,5,,,,,,,,,,,,,,,,,,
431,state,Idaho,DISTRICT 4,2021-01-11,https://www.idoc.idaho.gov/content/careers/covid-19,,15,,,,14,,,,,,,,,,,,,,,,,,
432,state,Idaho,DISTRICT 5,2021-01-11,https://www.idoc.idaho.gov/content/careers/covid-19,,8,,,,6,,,,,,,,,,,,,,,,,,
,state,Idaho,DISTRICT 6,2021-01-11,https://www.idoc.idaho.gov/content/careers/covid-19,,5,,,,5,,,,,,,,,,,,,,,,,,
,state,Idaho,DISTRICT 7,2021-01-11,https://www.idoc.idaho.gov/content/careers/covid-19,,7,,,,7,,,,,,,,,,,,,,,,,,
434,state,Idaho,EAST BOISE COMMUNITY REENTRY CENTER,2021-01-11,https://www.idoc.idaho.gov/content/careers/covid-19,,5,,,,5,,,,,,,,,,109,2366 OLD PENITENTIARY RD,83712,BOISE,ADA,43.60314093,-116.1638439,16001,10001184
435,state,Idaho,IDAHO CORRECTIONAL INSTITUTION OROFINO,2021-01-11,https://www.idoc.idaho.gov/content/careers/covid-19,,42,,,,41,,,,,,,,,,576,381 WEST HOSPITAL DRIVE,83544,OROFINO,CLEARWATER,46.49197836,-116.2607095,16035,10001172
436,state,Idaho,IDAHO FALLS COMMUNITY REENTRY CENTER,2021-01-11,https://www.idoc.idaho.gov/content/careers/covid-19,,5,,,,5,,,,,,,,,,95,3955 BOMBARDIER AVE,83402,IDAHO FALLS,BONNEVILLE,43.46230015,-112.0639693,16019,10001186
437,state,Idaho,IDAHO MAXIMUM SECURITY INSTIUTION,2021-01-11,https://www.idoc.idaho.gov/content/careers/covid-19,,31,,,,31,,,,,,,,,,1473,13500 S PLEASANT VALLEY RD,83634,KUNA,ADA,43.47938786,-116.2189574,16001,10001181
438,state,Idaho,IDAHO STATE CORRECTIONAL CENTER,2021-01-11,https://www.idoc.idaho.gov/content/careers/covid-19,,83,,,,81,,,,,,,,,,2181,14601 S PLEASANT VALLEY RD,83634,KUNA,ADA,43.47119944,-116.2375874,16001,10001183
439,state,Idaho,IDAHO STATE CORRECTIONAL INSTITUTION,2021-01-11,https://www.idoc.idaho.gov/content/careers/covid-19,,89,,,,83,,,,,,,,,,1473,13500 S PLEASANT VALLEY RD,83634,KUNA,ADA,43.47938786,-116.2189574,16001,10001181
,state,Idaho,NAMPA COMMUNITY REENTRY CENTER,2021-01-11,https://www.idoc.idaho.gov/content/careers/covid-19,,2,,,,1,,,,,,,,,,,,,,,,,,
441,state,Idaho,NORTH IDAHO CORRRECTIONAL INSTIUTION,2021-01-11,https://www.idoc.idaho.gov/content/careers/covid-19,,14,,,,13,,,,,,,,,,409,236 RADAR RD,83522,COTTONWOOD,IDAHO,46.07917307,-116.4280588,16049,10001173
442,state,Idaho,POCATELLO WOMENS CORRECTIONAL CENTER,2021-01-11,https://www.idoc.idaho.gov/content/careers/covid-19,,8,,,,6,,,,,,,,,,323,1451 FORE RD,83204,POCATELLO,BANNOCK,42.84256222,-112.4506302,16005,10001187
443,state,Idaho,SAINT ANTHONY WORK CAMP,2021-01-11,https://www.idoc.idaho.gov/content/careers/covid-19,,16,,,,16,,,,,,,,,,253,125 N 8TH W,83445,ST ANTHONY,FREMONT,43.96809846,-111.6935417,16043,10001176
444,state,Idaho,SOUTH BOISE WOMENS CORRECTIONAL CENTER,2021-01-11,https://www.idoc.idaho.gov/content/careers/covid-19,,19,,,,19,,,,,,,,,,293,13200 S PLEASANT VALLEY RD,83634,KUNA,ADA,43.48338,-116.23392,16001,10001185
445,state,Idaho,SOUTH IDAHO CORRECTIONAL INSTIUTION,2021-01-11,https://www.idoc.idaho.gov/content/careers/covid-19,,31,,,,30,,,,,,,,,,1473,13500 S PLEASANT VALLEY RD,83634,KUNA,ADA,43.47938786,-116.2189574,16001,10001181
446,state,Idaho,STATEWIDE,2021-01-11,https://www.idoc.idaho.gov/content/careers/covid-19,3779,,5,,,,,,15034,,113,,,,1454,,,,,,,,,
,state,Idaho,TFCRC,2021-01-11,https://www.idoc.idaho.gov/content/careers/covid-19,,2,,,,1,,,,,,,,,,,,,,,,,,
447,state,Idaho,TREASURE VALLEY COMMUNITY REENTRY CENTER,2021-01-11,https://www.idoc.idaho.gov/content/careers/covid-19,,1,,,,1,,,,,,,,,,102,14195 S PLEASANT VALLEY RD,83634,KUNA,ADA,43.6574178,-116.6678165,16001,10004339
448,federal,Illinois,ALPHA HOUSE OF SPRINGFIELD,2021-01-11,https://www.bop.gov/coronavirus/,3,,0,0,3,0,,,,,0,,,,,,,,,,,,,
449,state,Illinois,BIG MUDDY RIVER CORRECTIONAL CENTER,2021-01-11,https://www2.illinois.gov/idoc/facilities/Pages/Covid19Response.aspx,134,82,,,96,71,859,,,,,,,,38,1218,251 NORTH ILLINOIS HIGHWAY 37,62846,INA,JEFFERSON,,,17081,10002259
451,state,Illinois,CENTRALIA CORRECTIONAL CENTER,2021-01-11,https://www2.illinois.gov/idoc/facilities/Pages/Covid19Response.aspx,105,121,,,83,109,1464,,,,,,,,22,1209,9330 SHATTUC ROAD,62801,CENTRALIA,CLINTON,,,17027,10000683
453,federal,Illinois,CHICAGO METROPOLITAN CORRECTIONAL CENTER,2021-01-11,https://www.bop.gov/mobile/about/population_statistics.jsp; https://www.bop.gov/coronavirus/,244,,0,0,302,29,,,,,1,,,,,668,71 WEST VAN BUREN STREET,60605,CHICAGO,COOK,41.87658453,-87.63048213,17031,10001470
454,county,Illinois,COOK COUNTY JAIL,2021-01-08,https://www.cookcountysheriff.org/covid-19-cases-at-ccdoc/,551,568,7,4,515,520,,,11097,,,,,,,8216,2700 SOUTH CALIFORNIA AVENUE,60608,CHICAGO,COOK,41.8425,-87.6971,17031,10000634
455,state,Illinois,CROSSROADS ADULT TRANSITION CENTER,2021-01-11,https://www2.illinois.gov/idoc/facilities/Pages/Covid19Response.aspx,5,1,,,5,1,0,,,,,,,,0,325,3210 WEST ARTHINGTON STREET,60624,CHICAGO,COOK,41.87048357,-87.70635938,17031,10000635
456,state,Illinois,DANVILLE CORRECTIONAL CENTER,2021-01-11,https://www2.illinois.gov/idoc/facilities/Pages/Covid19Response.aspx,792,139,,,610,124,5925,,,,,,,,182,1605,3820 EAST MAIN STREET,61834,DANVILLE,VERMILION,40.12956679,-87.53645593,17183,10000662
457,state,Illinois,DECATUR CORRECTIONAL CENTER,2021-01-11,https://www2.illinois.gov/idoc/facilities/Pages/Covid19Response.aspx,82,47,,,68,45,1180,,,,,,,,14,535,2310 EAST MOUND ROAD,62524,DECATUR,MACON,,,17115,10000669
,state,Illinois,DIXON CORRECTIONAL INSTITUTION,2021-01-11,https://www2.illinois.gov/idoc/facilities/Pages/Covid19Response.aspx,572,243,,,558,236,9075,,,,,,,,14,,,,,,,,,
459,state,Illinois,EAST MOLINE CORRECTIONAL CENTER,2021-01-11,https://www2.illinois.gov/idoc/facilities/Pages/Covid19Response.aspx,343,64,,,342,63,2311,,,,,,,,1,1175,100 HILLCREST ROAD,61244,EAST MOLINE,ROCK ISLAND,41.53372905,-90.41912151,17161,10000644
,state,Illinois,ELGIN TC,2021-01-11,https://www2.illinois.gov/idoc/facilities/Pages/Covid19Response.aspx,0,18,,,0,14,61,,,,,,,,0,,,,,,,,,
461,state,Illinois,FOX VALLEY ADULT TRANSITION CENTER,2021-01-11,https://www2.illinois.gov/idoc/facilities/Pages/Covid19Response.aspx,4,9,,,4,9,0,,,,,,,,0,127,1329 N LAKE ST,60506,AURORA,KANE,41.78792125,-88.3202916,17089,10000638
462,state,Illinois,GENERAL OFFICE,2021-01-11,https://www2.illinois.gov/idoc/facilities/Pages/Covid19Response.aspx,0,22,,,0,13,0,,,,,,,,0,,,,,,,,,
463,state,Illinois,GRAHAM CORRECTIONAL CENTER,2021-01-11,https://www2.illinois.gov/idoc/facilities/Pages/Covid19Response.aspx,682,163,,,97,135,4358,,,,,,,,585,1803,12078 ILLINOIS ROUTE 185,62049,HILLSBORO,MONTGOMERY,39.12648969,-89.47493262,17135,10000674
465,state,Illinois,HILL CORRECTIONAL CENTER,2021-01-11,https://www2.illinois.gov/idoc/facilities/Pages/Covid19Response.aspx,258,72,,,146,64,2760,,,,,,,,112,1643,600 SOUTH LINWOOD ROAD,61401,GALESBURG,KNOX,40.93974548,-90.40695799,17095,10000653
466,state,Illinois,ILLINOIS RIVER CORRECTIONAL CENTER,2021-01-11,https://www2.illinois.gov/idoc/facilities/Pages/Covid19Response.aspx,214,97,,,161,93,5567,,,,,,,,53,,1300 WEST LOCUST STREET,61520,CANTON,FULTON,,,17057,10000660
,state,Illinois,JACKSONVILLEPWC,2021-01-11,https://www2.illinois.gov/idoc/facilities/Pages/Covid19Response.aspx,473,162,,,472,154,1464,,,,,,,,1,,,,,,,,,
,state,Illinois,JOLIET TC,2021-01-11,https://www2.illinois.gov/idoc/facilities/Pages/Covid19Response.aspx,7,68,,,6,64,322,,,,,,,,1,,,,,,,,,
469,state,Illinois,KEWANEE LIFE SKILLS REENTRY CENTER,2021-01-11,https://www2.illinois.gov/idoc/facilities/Pages/Covid19Response.aspx,15,39,,,15,38,250,,,,,,,,0,278,2021 KENTVILLE ROAD,61443,KEWANEE,HENRY,41.25333209,-89.89171233,17073,10004677
470,state,Illinois,LAWRENCE CORRECTIONAL CENTER,2021-01-11,https://www2.illinois.gov/idoc/facilities/Pages/Covid19Response.aspx,881,184,,,638,176,5225,,,,,,,,243,2042,10940 LAWRENCE ROAD,62466,SUMNER,LAWRENCE,,,17101,10000682
471,state,Illinois,LINCOLN CORRECTIONAL CENTER,2021-01-11,https://www2.illinois.gov/idoc/facilities/Pages/Covid19Response.aspx,275,81,,,273,77,1423,,,,,,,,2,964,1098 1350TH STREET,62656,LINCOLN,LOGAN,,,17107,10000664
472,state,Illinois,LOGAN CORRECTIONAL CENTER,2021-01-11,https://www2.illinois.gov/idoc/facilities/Pages/Covid19Response.aspx,547,192,,,440,177,6937,,,,,,,,107,1588,1096 1350TH STREET,62656,LINCOLN,LOGAN,40.1140649,-89.3881401,17107,10000665
473,federal,Illinois,MARION UNITED STATES PENITENTIARY,2021-01-11,https://www.bop.gov/mobile/about/population_statistics.jsp; https://www.bop.gov/coronavirus/,789,,2,0,797,46,,,,,0,,,,,1129,4500 PRISON ROAD,62959,MARION,WILLIAMSON,37.66315314,-88.98406132,17199,10000694
474,state,Illinois,MENARD CORRECTIONAL CENTER,2021-01-11,https://www2.illinois.gov/idoc/facilities/Pages/Covid19Response.aspx,201,264,,,188,254,1091,,,,,,,,13,1834,711 KASKASKIA STREET,62259,MENARD,RANDOLPH,37.912685690000004,-89.84197817,17157,10000687
476,state,Illinois,MURPHYSBORO CORRECTIONAL CENTER,2021-01-11,https://www2.illinois.gov/idoc/facilities/Pages/Covid19Response.aspx,55,32,,,54,29,272,,,,,,,,1,171,,,,,,,,
477,state,Illinois,NORTH LAWNDALE ADULT TRANSITION CENTER,2021-01-11,https://www2.illinois.gov/idoc/facilities/Pages/Covid19Response.aspx,7,6,,,5,4,0,,,,,,,,2,200,2839 WEST FILLMORE STREET,60612,CHICAGO,COOK,41.868038,-87.697785,17031,10000636
478,state,Illinois,PAROLE,2021-01-11,https://www2.illinois.gov/idoc/facilities/Pages/Covid19Response.aspx,0,41,,,0,37,0,,,,,,,,0,,,,,,,,,
479,federal,Illinois,PEKIN FEDERAL CORRECTIONAL INSTITUTION,2021-01-11,https://www.bop.gov/mobile/about/population_statistics.jsp; https://www.bop.gov/coronavirus/,817,,0,0,699,56,,,,,1,,,,,,,,,,,,,
480,state,Illinois,PEORIA ADULT TRANSITION CENTER,2021-01-11,https://www2.illinois.gov/idoc/facilities/Pages/Covid19Response.aspx,14,16,,,11,16,115,,,,,,,,3,244,,,,,,,,
481,state,Illinois,PINCKNEYVILLE CORRECTIONAL CENTER,2021-01-11,https://www2.illinois.gov/idoc/facilities/Pages/Covid19Response.aspx,542,137,,,263,113,3896,,,,,,,,279,1901,5835 STATE ROUTE 154,62274,PINCKNEYVILLE,PERRY,,,17145,10000688
482,state,Illinois,PONTIAC CORRECTIONAL CENTER,2021-01-11,https://www2.illinois.gov/idoc/facilities/Pages/Covid19Response.aspx,296,292,,,258,274,4815,,,,,,,,38,1160,700 WEST LINCOLN STREET,61764,PONTIAC,LIVINGSTON,40.86928355,-88.63603689,17105,10000655
483,state,Illinois,ROBINSON CORRECTIONAL CENTER,2021-01-11,https://www2.illinois.gov/idoc/facilities/Pages/Covid19Response.aspx,379,77,,,378,75,6785,,,,,,,,1,1121,13423 EAST 1150TH AVENUE,62454,ROBINSON,CRAWFORD,,,17033,10000678
485,state,Illinois,SHAWNEE CORRECTIONAL CENTER,2021-01-11,https://www2.illinois.gov/idoc/facilities/Pages/Covid19Response.aspx,265,79,,,174,77,2566,,,,,,,,91,1576,6665 STATE ROUTE 146 EAST,62995,VIENNA,JOHNSON,,,17087,10000695
486,state,Illinois,SHERIDAN CORRECTIONAL CENTER,2021-01-11,https://www2.illinois.gov/idoc/facilities/Pages/Covid19Response.aspx,318,111,,,247,103,4826,,,,,,,,71,1670,4017 EAST 2603 ROAD,60551,SHERIDAN,LA SALLE,41.51604912,-88.68465975,17099,10000652
487,state,Illinois,SOUTHWESTERN ILLINOIS CORRECTIONAL CENTER,2021-01-11,https://www2.illinois.gov/idoc/facilities/Pages/Covid19Response.aspx,44,85,,,44,81,100,,,,,,,,0,598,950 KINGSHIGHWAY ST,62203,EAST ST LOUIS,ST CLAIR,38.61691302,-90.0908182,17163,10000685
488,state,Illinois,STATEVILLE CORRECTIONAL CENTER,2021-01-11,https://www2.illinois.gov/idoc/facilities/Pages/Covid19Response.aspx,301,158,,,300,156,2875,,,,,,,,1,1262,16830 SOUTH BROADWAY STREET,60434,JOLIET,WILL,41.57873778,-88.09456267,17197,10000647
489,state,Illinois,STATEVILLE NORTHERN RECEPTION AND CLASSIFICATION CENTER,2021-01-11,https://www2.illinois.gov/idoc/facilities/Pages/Covid19Response.aspx,301,119,,,233,108,7140,,,,,,,,68,1173,16830 SOUTH BROADWAY STREET,60434,JOLIET,WILL,41.57873778,-88.09456267,17197,10000647
490,state,Illinois,TAYLORVILLE CORRECTIONAL CENTER,2021-01-11,https://www2.illinois.gov/idoc/facilities/Pages/Covid19Response.aspx,442,91,,,439,81,2606,,,,,,,,3,1028,1144 ILLINOIS ROUTE 29,62568,TAYLORVILLE,CHRISTIAN,,,17021,10000673
491,federal,Illinois,THOMSON UNITED STATES PENITENTIARY,2021-01-11,https://www.bop.gov/coronavirus/,492,,0,0,515,87,,,,,0,,,,,703,1100 ONE MILE ROAD,61285,THOMSON,CARROLL,41.97296619,-90.10929881,17015,10000633
492,state,Illinois,VANDALIA CORRECTIONAL CENTER,2021-01-11,https://www2.illinois.gov/idoc/facilities/Pages/Covid19Response.aspx,493,119,,,491,110,1515,,,,,,,,2,1068,ROUTE 51 NORTH,62471,VANDALIA,FAYETTE,,,17051,10000677
493,state,Illinois,VIENNA CORRECTIONAL CENTER,2021-01-11,https://www2.illinois.gov/idoc/facilities/Pages/Covid19Response.aspx,91,96,,,85,88,2107,,,,,,,,6,920,6695 STATE ROUTE 146 EAST,62995,VIENNA,JOHNSON,,,17087,10004734
494,state,Illinois,WESTERN ILLINOIS CORRECTIONAL CENTER,2021-01-11,https://www2.illinois.gov/idoc/facilities/Pages/Covid19Response.aspx,180,98,,,89,92,3222,,,,,,,,91,1633,2500 RT. 99 SOUTH,62353,MOUNT STERLING,BROWN,39.96285696,-90.75396657,17009,10000667
495,state,Indiana,BRANCHVILLE CORRECTIONAL FACILITY,2021-01-11,https://www.in.gov/idoc/3780.htm,224,62,1,0,245,60,455,240,,,,,2,,,1387,21390 OLD STATE RD 37,47514,BRANCHVILLE,PERRY,38.15137828,-86.59980056,18123,10001075
497,state,Indiana,CENTRAL OFFICE,2021-01-11,https://www.in.gov/idoc/3780.htm,,33,,0,,26,,115,,,,,,,,,,,,,,,,
498,state,Indiana,CHAIN OLAKES CORRECTIONAL FACILITY,2021-01-11,https://www.in.gov/idoc/3780.htm,83,5,0,0,83,4,160,16,,,,,0,,,135,3516 E 75 SOUTH,46701,ALBION,NOBLE,41.33701028,-85.35310253,18113,10004895
500,state,Indiana,CORRECTIONAL INDUSTRIAL FACILITY,2021-01-11,https://www.in.gov/idoc/3780.htm,133,100,3,0,127,91,415,372,,,,,31,,,1458,5124 W REFORMATORY RD,46064,PENDLETON,MADISON,39.97598494,-85.77135909,18095,10001060
501,state,Indiana,EDINBURGH CORRECTIONAL FACILITY,2021-01-11,https://www.in.gov/idoc/3780.htm,16,23,0,0,16,23,85,83,,,,,0,,,340,"P.O. BOX 470, 23RD & SCHOOLHOUSE RD",46124,EDINBURGH,JOHNSON,39.35145302,-86.0386027,18081,10004920
502,state,Indiana,HERITAGE TRAIL CORRECTIONAL FACILITY,2021-01-11,https://www.in.gov/idoc/3780.htm,55,33,0,0,55,27,206,67,,,,,0,,,857,501 WEST MAIN STREET,46168,PLAINFIELD,HENDRICKS,,,18063,10006309
503,state,Indiana,INDIANA STATE PRISON,2021-01-11,https://www.in.gov/idoc/3780.htm,72,107,2,0,72,99,320,399,,,,,0,,,2364,1 PARK ROW,46360,MICHIGAN CITY,LAPORTE,41.70343089,-86.9173169,18091,10005599
504,state,Indiana,INDIANA WOMENS PRISON,2021-01-11,https://www.in.gov/idoc/3780.htm,124,41,0,1,91,32,619,116,,,,,89,,,696,2596 GIRLS SCHOOL ROAD,46214,INDIANAPOLIS,MARION,39.80094018,-86.29189795,18097,10001065
505,state,Indiana,LAPORTE JUVENILE CORRECTIONAL FACILITY,2021-01-11,https://www.in.gov/idoc/3780.htm,15,12,0,0,0,11,113,46,,,,,64,,,21,"809 STATE ST, SUITE 201A",46350,LA PORTE,LAPORTE,41.61206231,-86.72292259,18091,10001053
507,state,Indiana,LOGANSPORT JUVENILE CORRECTIONAL FACILITY,2021-01-11,https://www.in.gov/idoc/3780.htm,13,35,0,0,13,35,197,86,,,,,0,,,23,1118 S STATE RD 25,46947,LOGANSPORT,CASS,40.74154606,-86.40152309,18017,10004903
508,state,Indiana,MADISON CORRECTIONAL FACILITY,2021-01-11,https://www.in.gov/idoc/3780.htm,7,23,0,0,4,18,347,231,,,,,26,,,709,1130 MSH 4TH STREET,47250,MADISON,JEFFERSON,38.74778116,-85.40047051,18077,10006545
509,state,Indiana,MIAMI CORRECTIONAL FACILITY,2021-01-11,https://www.in.gov/idoc/3780.htm,234,85,8,1,211,73,850,178,,,,,52,,,3111,3038 W 850 S,46914,BUNKER HILL,MIAMI,40.6459301,-86.13530041,18103,10001059
510,state,Indiana,NEW CASTLE CORRECTIONAL FACILITY,2021-01-11,https://www.in.gov/idoc/3780.htm,350,99,10,0,361,86,1115,301,,,,,7,,,3130,1000 VAN NUYS RD,47362,NEW CASTLE,HENRY,39.96237788,-85.37022541,18065,10004913
511,state,Indiana,PENDLETON CORRECTIONAL FACILITY,2021-01-11,https://www.in.gov/idoc/3780.htm,160,79,4,0,150,61,610,353,,,,,27,,,1862,4490 W REFORMATORY RD,46064,PENDLETON,MADISON,39.98338112,-85.76085702,18095,10001061
512,state,Indiana,PENDLETON JUVENILE CORRECTIONAL FACILITY,2021-01-11,https://www.in.gov/idoc/3780.htm,57,57,0,0,55,56,268,254,,,,,3,,,200,9310 S STATE RD 67,46064,PENDLETON,MADISON,39.96907067,-85.77458045,18095,10001062
513,state,Indiana,PLAINFIELD CORRECTIONAL FACILITY,2021-01-11,https://www.in.gov/idoc/3780.htm,136,97,8,0,137,88,540,385,,,,,34,,,1499,737 MOON RD,46168,PLAINFIELD,HENDRICKS,39.68899972,-86.41604046,18063,10001067
515,state,Indiana,PUTNAMVILLE CORRECTIONAL FACILITY,2021-01-11,https://www.in.gov/idoc/3780.htm,256,102,3,1,293,92,1374,527,,,,,5,,,2163,1946 W US HWY 40,46135,GREENCASTLE,PUTNAM,39.56503726,-86.88666488,18133,10001071
516,state,Indiana,RECEPTION AND DIAGNOSTIC CENTER,2021-01-11,https://www.in.gov/idoc/3780.htm,348,74,0,0,397,71,3633,267,,,,,155,,,655,737 MOON RD,46168,PLAINFIELD,HENDRICKS,39.68899972,-86.41604046,18063,10001067
517,state,Indiana,ROCKVILLE CORRECTIONAL FACILITY,2021-01-11,https://www.in.gov/idoc/3780.htm,313,73,0,0,337,64,1129,282,,,,,69,,,1139,811 W 50 N,47872,ROCKVILLE,PARKE,39.77431571,-87.25434717,18121,10001063
519,state,Indiana,SOUTH BEND REENTRY CENTER,2021-01-11,https://www.in.gov/idoc/3780.htm,27,6,0,0,31,5,214,23,,,,,0,,,186,,,,,,,,
521,federal,Indiana,TERRE HAUTE FEDERAL CORRECTIONAL INSTITUTION,2021-01-11,https://www.bop.gov/mobile/about/population_statistics.jsp; https://www.bop.gov/coronavirus/,473,,2,0,421,97,,,,,4,,,,,,,,,,,,,
522,federal,Indiana,TERRE HAUTE UNITED STATES PENITENTIARY,2021-01-11,https://www.bop.gov/mobile/about/population_statistics.jsp; https://www.bop.gov/coronavirus/,696,,2,0,630,13,,,,,4,,,,,1355,4700 BUREAU RD S,47802,TERRE HAUTE,VIGO,,,18167,10004923
524,state,Indiana,WABASH VALLEY CORRECTIONAL FACILITY,2021-01-11,https://www.in.gov/idoc/3780.htm,271,182,2,1,282,170,997,650,,,,,8,,,2102,6908 S OLD US HWY 41,47838,CARLISLE,SULLIVAN,38.97792912,-87.40030287,18153,10001072
525,state,Indiana,WESTVILLE CORRECTIONAL FACILITY,2021-01-11,https://www.in.gov/idoc/3780.htm,269,174,6,0,275,159,815,591,,,,,0,,,2989,5501 S 1100 W,46391,WESTVILLE,LAPORTE,41.52575257,-86.90808495,18091,10001051
526,state,Iowa,ANAMOSA STATE PENITENTIARY,2021-01-11,https://doc.iowa.gov/COVID19,867,154,6,,867,152,,,,,,,,,,969,406 N HIGH ST,52205,ANAMOSA,JONES,42.11129071,-91.29127202,19105,10001082
527,state,Iowa,CLARINDA CORRECTIONAL FACILITY,2021-01-11,https://doc.iowa.gov/COVID19,598,59,1,,597,57,,,,,,,,,,987,2000 NORTH 16TH STREET,51632,CLARINDA,PAGE,40.76249094,-95.03582563,19145,10001099
528,state,Iowa,FORT DODGE CORRECTIONAL FACILITY,2021-01-11,https://doc.iowa.gov/COVID19,545,89,4,,527,86,,,,,,,,,,1252,1550 L STREET,50501,FORT DODGE,WEBSTER,42.48489252,-94.19609253,19187,10001077
529,state,Iowa,IOWA CORRECTIONAL INSTIUTION FOR WOMEN,2021-01-11,https://doc.iowa.gov/COVID19,18,35,0,,18,34,,,,,,,,,,711,420 MILL STREET SOUTHWEST,50169,MITCHELLVILLE,POLK,41.66299579,-93.3661037,19153,10001087
530,state,Iowa,IOWA MEDICAL AND CLASSIFICATION CENTER,2021-01-11,https://doc.iowa.gov/COVID19,445,96,1,,407,78,,,,,,,,,,894,2700 CORAL RIDGE AVE,52241,CORALVILLE,JOHNSON,41.71369597,-91.61182585,19103,10001091
531,state,Iowa,IOWA STATE PENITENTIARY,2021-01-11,https://doc.iowa.gov/COVID19,229,92,2,,229,91,,,,,,,,,,688,2111 330TH AVENUE,52627,FORT MADISON,LEE,40.65361883,-91.30326789,19111,10001100
532,state,Iowa,MT PLEASANT CORRECTIONAL FACILITY,2021-01-11,https://doc.iowa.gov/COVID19,714,50,0,,695,46,,,,,,,,,,1018,1200 EAST WASHINGTON STREET,52641,MOUNT PLEASANT,HENRY,40.95581384,-91.53617358,19087,10001096
533,state,Iowa,NEWTON CORRECTIONAL FACILITY,2021-01-11,https://doc.iowa.gov/COVID19,345,33,0,,333,32,,,,,,,,,,924,307 SOUTH 60TH AVENUE WEST,50208,NEWTON,JASPER,41.627170219999996,-93.05696851,19099,10001090
534,state,Iowa,NORTH CENTRAL,2021-01-11,https://doc.iowa.gov/COVID19,389,34,0,,389,33,,,,,,,,,,485,313 LANEDALE,50579,ROCKWELL CITY,CALHOUN,42.39222762,-94.60437667,19025,10001080
535,county,Iowa,POLK COUNTY JAIL,2021-01-11,https://www.polkcountyiowa.gov/county-sheriff/news-press-releases/,3,8,,,,,2138,314,,,,,,,,,1985 NE 51ST PL,,,,,,,10001085
538,state,Kansas,EL DORADO CORRECTIONAL FACILITY,2021-01-11,https://www.kansas_statewide.gov/corrections/sites/kansas_statewide.gov.corrections/files/inline-files/MDOC%20COVID19WebDashboard11-9-2020.pdf; https://www.doc.ks.gov/kdoc-coronavirus-updates/kdoc-covid-19-status,935,219,1,1,,,,,,,,,,,,2026,1737 SOUTHEAST UNITED STATES HIGHWAY 54,67042,EL DORADO,BUTLER,37.80325673,-96.81713261,20015,10001045
539,state,Kansas,ELLSWORTH CORRECTIONAL FACILITY,2021-01-11,https://www.kansas_statewide.gov/corrections/sites/kansas_statewide.gov.corrections/files/inline-files/MDOC%20COVID19WebDashboard11-9-2020.pdf; https://www.doc.ks.gov/kdoc-coronavirus-updates/kdoc-covid-19-status,567,86,3,0,,,,,,,,,,,,909,1607 STATE STREET,67439,ELLSWORTH,ELLSWORTH,38.74301147,-98.23215008,20053,10001040
541,state,Kansas,HUTCHINSON CORRECTIONAL FACILITY,2021-01-11,https://www.kansas_statewide.gov/corrections/sites/kansas_statewide.gov.corrections/files/inline-files/MDOC%20COVID19WebDashboard11-9-2020.pdf; https://www.doc.ks.gov/kdoc-coronavirus-updates/kdoc-covid-19-status,1355,240,3,0,,,,,,,,,,,,1898,500 REFORMATORY STREET,67504,HUTCHINSON,RENO,38.04458476,-97.91073579,20155,10001043
542,state,Kansas,KANSAS JUVENILE CORRECTIONAL COMPLEX,2021-01-11,https://www.kansas_statewide.gov/corrections/sites/kansas_statewide.gov.corrections/files/inline-files/MDOC%20COVID19WebDashboard11-9-2020.pdf; https://www.doc.ks.gov/kdoc-coronavirus-updates/kdoc-covid-19-status,19,62,0,0,,,,,,,,,,,,185,1430 NORTHWEST 25TH STREET,66618,TOPEKA,SHAWNEE,39.09678729,-95.68423367,20177,10001034
543,state,Kansas,LANSING CORRECTIONAL FACILITY,2021-01-11,https://www.kansas_statewide.gov/corrections/sites/kansas_statewide.gov.corrections/files/inline-files/MDOC%20COVID19WebDashboard11-9-2020.pdf; https://www.doc.ks.gov/kdoc-coronavirus-updates/kdoc-covid-19-status,996,153,5,2,,,,,,,,,,,,1683,301 EAST KANSAS AVE,66043,LANSING,LEAVENWORTH,39.25190411,-94.89130455,20103,10001030
544,state,Kansas,LARNED CORRECTIONAL FACILITY,2021-01-11,https://www.kansas_statewide.gov/corrections/sites/kansas_statewide.gov.corrections/files/inline-files/MDOC%20COVID19WebDashboard11-9-2020.pdf; https://www.doc.ks.gov/kdoc-coronavirus-updates/kdoc-covid-19-status,353,71,1,0,,,,,,,,,,,,571,1318 STATE HIGHWAY 264,67550,LARNED,PAWNEE,38.17710787,-99.15101294,20145,10001830
545,federal,Kansas,LEAVENWORTH UNITED STATES PENITENTIARY,2021-01-11,https://www.bop.gov/mobile/about/population_statistics.jsp; https://www.bop.gov/coronavirus/,733,,0,0,620,5,,,,,0,,,,,1360,1300 METROPOLITAN AVENUE,66048,LEAVENWORTH,LEAVENWORTH,39.33105504,-94.93580759,20103,10001029
546,state,Kansas,NORTON CORRECTIONAL FACILITY,2021-01-11,https://www.kansas_statewide.gov/corrections/sites/kansas_statewide.gov.corrections/files/inline-files/MDOC%20COVID19WebDashboard11-9-2020.pdf; https://www.doc.ks.gov/kdoc-coronavirus-updates/kdoc-covid-19-status,764,124,0,0,,,,,,,,,,,,971,ROAD EAST 4 AND UNITED STATES HIGHWAY 36,67654,NORTON,NORTON,39.84416321,-99.81637284,20137,10001028
549,state,Kansas,TOPEKA CORRECTIONAL FACILITY,2021-01-11,https://www.kansas_statewide.gov/corrections/sites/kansas_statewide.gov.corrections/files/inline-files/MDOC%20COVID19WebDashboard11-9-2020.pdf; https://www.doc.ks.gov/kdoc-coronavirus-updates/kdoc-covid-19-status,110,77,0,1,,,,,,,,,,,,899,815 SOUTHEAST RICE ROAD,66607,TOPEKA,SHAWNEE,39.04069275,-95.6254707,20177,10001033
550,state,Kansas,WICHITA WORK RELEASE,2021-01-11,https://www.kansas_statewide.gov/corrections/sites/kansas_statewide.gov.corrections/files/inline-files/MDOC%20COVID19WebDashboard11-9-2020.pdf; https://www.doc.ks.gov/kdoc-coronavirus-updates/kdoc-covid-19-status,81,18,0,0,,,,,,,,,,,,251,401 SOUTH EMPORIA STREET,67202,WICHITA,SEDGWICK,37.68209659,-97.33329523,20173,10001048
551,state,Kansas,WINFIELD CORRECTIONAL FACILITY,2021-01-11,https://www.kansas_statewide.gov/corrections/sites/kansas_statewide.gov.corrections/files/inline-files/MDOC%20COVID19WebDashboard11-9-2020.pdf; https://www.doc.ks.gov/kdoc-coronavirus-updates/kdoc-covid-19-status,200,43,0,0,,,,,,,,,,,,612,1806 PINECREST CIRCLE,67156,WINFIELD,COWLEY,37.26426587,-96.97365125,20035,10001050
552,federal,Kentucky,ASHLAND FEDERAL CORRECTIONAL INSTITUTION,2021-01-11,https://www.bop.gov/mobile/about/population_statistics.jsp; https://www.bop.gov/coronavirus/,360,,6,0,340,41,,,,,0,,,,,,,,,,,,,
553,state,Kentucky,BELL COUNTY FORESTRY CAMP,2021-01-11,https://corrections.ky.gov/Facilities/Pages/covid19.aspx,187,26,0,0,,,,,,,,,,,0,300,560 CORRECTIONAL DR,40977,PINEVILLE,BELL,36.6689938,-83.85169233,21013,10000122
554,federal,Kentucky,BIG SANDY UNITED STATES PENITENTIARY,2021-01-11,https://www.bop.gov/mobile/about/population_statistics.jsp; https://www.bop.gov/coronavirus/,92,,0,0,72,80,,,,,15,,,,,,,,,,,,,
555,state,Kentucky,BLACKBURN CORRECTIONAL COMPLEX,2021-01-11,https://corrections.ky.gov/Facilities/Pages/covid19.aspx,215,30,1,0,,,,,,,,,,,0,317,3111 SPURR RD,40511,LEXINGTON,FAYETTE,38.11315935,-84.53720452,21067,10003650
558,state,Kentucky,EASTERN KENTUCKY CORRECTIONAL COMPLEX,2021-01-11,https://corrections.ky.gov/Facilities/Pages/covid19.aspx,716,124,0,0,,,,,,,,,,,716,1891,200 ROAD TO JUSTICE,41472,WEST LIBERTY,MORGAN,37.90388911,-83.26930995,21175,10000110
559,state,Kentucky,GREEN RIVER CORRECTIONAL COMPLEX,2021-01-11,https://corrections.ky.gov/Facilities/Pages/covid19.aspx,368,66,3,0,,,,,,,,,,,0,958,1200 RIVER RD,42330,CENTRAL CITY,MUHLENBERG,37.3143803,-87.11341674,21177,10000117
560,state,Kentucky,KENTUCKY CORRECTIONAL INSTITUTION FOR WOMEN,2021-01-11,https://corrections.ky.gov/Facilities/Pages/covid19.aspx,403,60,0,0,,,,,,,,,,,25,711,3000 ASH AVE,40056,PEWEE VALLEY,SHELBY,38.2854756,-85.45711972,21211,10000106
561,state,Kentucky,KENTUCKY STATE PENITENTIARY,2021-01-11,https://corrections.ky.gov/Facilities/Pages/covid19.aspx,1,21,1,0,,,,,,,,,,,0,848,266 WATER ST,42038,EDDYVILLE,LYON,37.04927104,-88.07574221,21143,10000120
562,state,Kentucky,KENTUCKY STATE REFORMATORY,2021-01-11,https://corrections.ky.gov/Facilities/Pages/covid19.aspx,534,78,28,2,,,,,,,,,,,3,978,3001 W HWY 146,40032,LAGRANGE,OLDHAM,38.40389133,-85.41658269,21185,10000103
563,state,Kentucky,LEE ADJUSTMENT CENTER,2021-01-11,https://corrections.ky.gov/Facilities/Pages/covid19.aspx,698,64,1,0,,,,,,,,,,,0,840,168 LEE ADJUSTMENT CENTER DRIVE,41311,BEATTYVILLE,LEE,37.6066831,-83.70579564,21129,10000115
564,federal,Kentucky,LEXINGTON FEDERAL MEDICAL CENTER,2021-01-11,https://www.bop.gov/mobile/about/population_statistics.jsp; https://www.bop.gov/coronavirus/,715,,9,0,285,57,,,,,0,,,,,1270,3301 LEESTOWN RD,40511,LEXINGTON,FAYETTE,38.10569332,-84.56039514,21067,10000109
565,state,Kentucky,LITTLE SANDY CORRECTIONAL COMPLEX,2021-01-11,https://corrections.ky.gov/Facilities/Pages/covid19.aspx,574,52,1,0,,,,,,,,,,,5,1039,505 PRISON CONNECTOR,41171,SANDY HOOK,ELLIOTT,38.13392033,-83.08100422,21063,10000107
566,state,Kentucky,LUTHER LUCKETT CORRECTIONAL COMPLEX,2021-01-11,https://corrections.ky.gov/Facilities/Pages/covid19.aspx,55,25,0,1,,,,,,,,,,,55,1173,1612 DAWKINS RD,40031,LAGRANGE,OLDHAM,38.41243087,-85.42599085,21185,10000101
567,federal,Kentucky,MANCHESTER FEDERAL CORRECTIONAL INSTITUTION,2021-01-11,https://www.bop.gov/mobile/about/population_statistics.jsp; https://www.bop.gov/coronavirus/,381,,0,0,411,58,,,,,6,,,,,,,,,,,,,
568,federal,Kentucky,MCCREARY UNITED STATES PENITENTIARY,2021-01-11,https://www.bop.gov/mobile/about/population_statistics.jsp; https://www.bop.gov/coronavirus/,137,,1,0,117,26,,,,,4,,,,,1336,330 FEDERAL WAY,42635,PINE KNOT,MCCREARY,36.68845863,-84.38720276,21147,10004330
569,state,Kentucky,NORTHPOINT TRAINING CENTER,2021-01-11,https://corrections.ky.gov/Facilities/Pages/covid19.aspx,896,93,4,1,,,,,,,,,,,60,1245,710 WALTER REED RD,40310,BURGIN,BOYLE,37.71002092,-84.74635681,21021,10000116
570,state,Kentucky,ROEDERER CORRECTIONAL COMPLEX,2021-01-11,https://corrections.ky.gov/Facilities/Pages/covid19.aspx,582,56,0,1,,,,,,,,,,,325,1227,P.O. BOX 69,40031,LAGRANGE,OLDHAM,38.40312799,-85.42976305,21185,10000102
,state,Kentucky,SOUTHEAST STATE CORRECTIONAL COMPLEX,2021-01-11,https://corrections.ky.gov/Facilities/Pages/covid19.aspx,0,7,0,0,,,,,,,,,,,0,,,,,,,,,
572,state,Kentucky,WESTERN KENTUCKY CORRECTIONAL COMPLEX,2021-01-11,https://corrections.ky.gov/Facilities/Pages/covid19.aspx,66,24,0,0,,,,,,,,,,,0,664,374 NEW BETHEL CHURCH RD,42411,FREDONIA,LYON,37.13645979,-88.04014801,21143,10000121
573,state,Louisiana,ALLEN CORRECTIONAL CENTER,2021-01-11,https://doc.louisiana.gov/doc-covid-19-testing/,265,33,0,0,263,31,2121,167,,,,,,,,1579,3751 LAUDERDALE WOODYARD RD,70648,KINDER,ALLEN,30.56148319,-92.78967268,22003,10000967
574,state,Louisiana,DAVID WADE CORRECTIONAL CENTER,2021-01-11,https://doc.louisiana.gov/doc-covid-19-testing/,83,82,0,0,79,78,233,153,,,,,,,,1227,670 BELL HILL RD,71040,HOMER,CLAIBORNE,32.90173088,-93.01954439,22027,10000948
,state,Louisiana,DIXON CORRECTIONAL INSTITUTE,2021-01-11,https://doc.louisiana.gov/doc-covid-19-testing/,874,80,7,0,834,74,2940,363,,,,,,,,,,,,,,,,
576,state,Louisiana,ELAYN HUNT CORRECTIONAL CENTER,2021-01-11,https://doc.louisiana.gov/doc-covid-19-testing/,226,100,2,0,213,88,1783,220,,,,,,,,1999,6925 HWY 74,70776,ST GABRIEL,IBERVILLE,30.26563691,-91.08621341,22047,10000972
,state,Louisiana,LOUISIANA CORRECTIONAL INSTITUTE FOR WOMEN HUNT,2021-01-11,https://doc.louisiana.gov/doc-covid-19-testing/,169,88,2,0,149,83,529,250,,,,,,,,,,,,,,,,
,state,Louisiana,LOUISIANA CORRECTIONAL INSTITUTE FOR WOMEN JETSON,2021-01-11,https://doc.louisiana.gov/doc-covid-19-testing/,184,,0,,178,,511,,,,,,,,,,,,,,,,,
580,state,Louisiana,LOUISIANA STATE PENITENTIARY,2021-01-11,https://doc.louisiana.gov/doc-covid-19-testing/,514,228,16,3,469,207,4315,583,,,,,,,,6073,17544 TUNICA TRACE,70712,ANGOLA,WEST FELICIANA,30.95976935,-91.59732559,22125,10000963
581,federal,Louisiana,OAKDALE I FEDERAL CORRECTIONAL INSTITUTION,2021-01-11,https://www.bop.gov/mobile/about/population_statistics.jsp; https://www.bop.gov/coronavirus/,186,,7,0,226,21,,,,,0,,,,,874,2105 EAST WHATLEY ROAD,71463,OAKDALE,ALLEN,30.82059582,-92.64063826,22003,10000968
582,federal,Louisiana,OAKDALE II FEDERAL CORRECTIONAL INSTITUTION,2021-01-11,https://www.bop.gov/mobile/about/population_statistics.jsp; https://www.bop.gov/coronavirus/,167,,1,0,82,6,,,,,2,,,,,874,2105 EAST WHATLEY ROAD,71463,OAKDALE,ALLEN,30.82059582,-92.64063826,22003,10000968
583,county,Louisiana,ORLEANS PARISH JAILS,2020-11-26,http://opcso.org/index.php,172,89,0,3,136,56,,877,,,,,,,,,2800 PERDIDO ST,70119,NEW ORLEANS,,29.9612,-90.093051,,
584,federal,Louisiana,POLLOCK FEDERAL CORRECTIONAL INSTITUTION,2021-01-11,https://www.bop.gov/coronavirus/,182,,0,0,150,1,,,,,0,,,,,1436,1000 AIRBASE RD,71467,POLLOCK,GRANT,,,22043,10000956
585,federal,Louisiana,POLLOCK UNITED STATES PENITENTIARY,2021-01-11,https://www.bop.gov/mobile/about/population_statistics.jsp; https://www.bop.gov/coronavirus/,555,,0,0,531,3,,,,,1,,,,,,,,,,,,,
586,state,Louisiana,RAYBURN CORRECTIONAL CENTER,2021-01-11,https://doc.louisiana.gov/doc-covid-19-testing/,119,96,1,0,89,85,1946,250,,,,,,,,1313,27268 STATE HWY 21 N,70426,ANGIE,WASHINGTON,30.92169823,-89.81584273,22117,10002416
587,state,Louisiana,RAYMOND LABORDE CORRECTIONAL CENTER,2021-01-11,https://doc.louisiana.gov/doc-covid-19-testing/,318,75,3,2,305,65,3804,302,,,,,,,,1754,1630 PRISON RD,71327,COTTONPORT,AVOYELLES,30.97442232,-92.02522705,22009,10000960
,state,Maine,BOLDUC CORRECTIONAL FACILITY,2021-01-11,https://www.maine.gov/corrections/covid-19-resources,0,,,,,,153,,,,,,,,,,,,,,,,,
,state,Maine,LONG CREEK YOUTH DEVELOPMENT CENTER,2021-01-11,https://www.maine.gov/corrections/covid-19-resources,1,,,,,,359,,,,,,,,,,,,,,,,,
