Facility.ID,Jurisdiction,State,Name,Date,source,Residents.Confirmed,Staff.Confirmed,Residents.Deaths,Staff.Deaths,Residents.Tadmin,Residents.Tested,Residents.Active,Staff.Active,Population.Feb20,Residents.Population,Residents.Initiated,Staff.Initiated,Residents.Completed,Staff.Completed,Residents.Vadmin,Staff.Vadmin,Address,Zipcode,City,County,Latitude,Longitude,County.FIPS,HIFLD.ID,ICE.Field.Office
1,state,Alabama,ALABAMA HEADQUARTERS,2021-06-07,http://www.doc.alabama.gov/covid19news,0,73,0,0,,0,0,1,,,0,43,,,,,,,,,,,,,
2,state,Alabama,ALABAMA TREATMENT AND EDUCATION FACILITY,2021-06-07,http://www.doc.alabama.gov/covid19news,11,2,1,0,,35,0,0,155,,368,1,,,,,102 INDUSTRIAL PARKWAY,35051,COLUMBIANA,SHELBY,33.18100499,-86.62401724,01117,10006524,
3,state,Alabama,ALEX CITY COMMUNITY BASED FACILITY,2021-06-07,http://www.doc.alabama.gov/covid19news,77,17,0,0,,163,0,0,241,,104,7,,,,,HIGHWAY 22 WEST,35011,ALEX CITY,COOSA,32.90447114,-86.00896897,01037,10003721,
5,state,Alabama,BIBB CORRECTIONAL FACILITY,2021-06-07,http://www.doc.alabama.gov/covid19news,164,61,3,0,,1638,0,0,1834,,1168,33,,,,,565 BIBB LANE,35034,BRENT,BIBB,32.92242,-87.16458,01007,10001954,
6,state,Alabama,BIRMINGHAM COMMUNITY BASED FACILITY,2021-06-07,http://www.doc.alabama.gov/covid19news,17,28,0,0,,148,0,0,256,,188,31,,,,,1216 25TH ST N,35234,BIRMINGHAM,JEFFERSON,33.53104632,-86.80836181,01073,10001204,
7,state,Alabama,BULLOCK CORRECTIONAL FACILITY,2021-06-07,http://www.doc.alabama.gov/covid19news,163,80,5,1,,1731,0,1,1568,,871,35,,,,,104 BULLOCK DR,36089,UNION SPRINGS,BULLOCK,32.14940285,-85.67232013,01011,10001223,
8,state,Alabama,CAMDEN COMMUNITY BASED FACILITY,2021-06-07,http://www.doc.alabama.gov/covid19news,5,3,0,0,,56,0,0,68,,34,3,,,,,1780 ALABAMA HWY 221,36726,CAMDEN,WILCOX,31.99483708,-87.33312321,01131,10000142,
9,state,Alabama,CHILDERSBURG COMMUNITY BASED FACILITY,2021-06-07,http://www.doc.alabama.gov/covid19news,5,14,0,0,,198,0,0,408,,243,19,,,,,13501 PLANT RD,35014,ALPINE,TALLADEGA,33.36493323,-86.33219762,01121,10001209,
11,state,Alabama,DONALDSON CORRECTIONAL FACILITY,2021-06-07,http://www.doc.alabama.gov/covid19news,46,26,2,0,,1212,0,0,1518,,488,55,,,,,100 WARRIOR LN,35023,BESSEMER,JEFFERSON,33.51366663,-87.18478369,01073,10000132,
12,state,Alabama,DRAPER QUARANTINE INTAKE FACILITY,2021-06-07,http://www.doc.alabama.gov/covid19news,145,0,0,0,,1758,2,0,,,107,0,,,,,,,ELMORE,,,,,10000139,
13,state,Alabama,EASTERLING CORRECTIONAL FACILITY,2021-06-07,http://www.doc.alabama.gov/covid19news,72,47,2,0,,931,0,0,1253,,594,57,,,,,200 WALLACE DR,36017,CLIO,BARBOUR,31.68938149,-85.58555889,01005,10000144,
14,state,Alabama,ELBA COMMUNITY BASED FACILITY,2021-06-07,http://www.doc.alabama.gov/covid19news,1,8,0,0,,171,0,0,241,,147,9,,,,,1620 BOSWELL ST,36323,ELBA,COFFEE,31.41312386,-86.08373748,01031,10001226,
15,state,Alabama,ELMORE CORRECTIONAL FACILITY,2021-06-07,http://www.doc.alabama.gov/covid19news,28,18,0,0,,110,0,0,1196,,523,37,,,,,3520 MARION SPILLWAY ROAD,36025,ELMORE,ELMORE,32.57430479,-86.32080582,01051,10001214,
16,state,Alabama,FOUNTAIN CORRECTIONAL FACILITY,2021-06-07,http://www.doc.alabama.gov/covid19news,33,51,1,0,,189,2,1,1249,,515,16,,,,,9677 AL HWY 21 N,36503,ATMORE,ESCAMBIA,31.15658,-87.46372,01053,10001957,
17,state,Alabama,FRANK LEE COMMUNITY BASED FACILITY,2021-06-07,http://www.doc.alabama.gov/covid19news,26,22,0,0,,130,0,0,298,,142,9,,,,,5305 INGRAM RD.,36022,DEATSVILLE,ELMORE,32.58235451,-86.39221844,01051,10003728,
18,state,Alabama,HAMILTON AGED AND INFIRMED,2021-06-07,http://www.doc.alabama.gov/covid19news,49,41,14,0,,344,0,0,287,,132,22,,,,,223 SASSER DR,35570,HAMILTON,MARION,34.12434611,-87.99171938,01093,10001197,
19,state,Alabama,HAMILTON COMMUNITY BASED FACILITY,2021-06-07,http://www.doc.alabama.gov/covid19news,8,21,2,0,,95,0,0,274,,121,5,,,,,1826 BEXAR AVE E,35570,HAMILTON,MARION,34.14329559,-87.95895958,01093,10001199,
20,state,Alabama,HOLMAN CORRECTIONAL FACILITY,2021-06-07,http://www.doc.alabama.gov/covid19news,39,33,2,0,,311,0,0,277,,222,20,,,,,866 ROSS RD,36503,ATMORE,ESCAMBIA,31.13438612,-87.4498642,01053,10000149,
22,state,Alabama,KILBY CORRECTIONAL FACILITY,2021-06-07,http://www.doc.alabama.gov/covid19news,25,44,2,0,,803,0,0,1448,,416,71,,,,,12201 WARES FERRY RD,36117,MONTGOMERY,MONTGOMERY,32.38835654,-86.1009811,01101,10001221,
23,state,Alabama,LIMESTONE CORRECTIONAL FACILITY,2021-06-07,http://www.doc.alabama.gov/covid19news,153,106,4,0,,1809,0,0,2352,,1126,89,,,,,28779 NICK DAVIS RD,35749,HARVEST,LIMESTONE,34.81254392,-86.80413307,01083,10000129,
24,state,Alabama,LOXLEY COMMUNITY BASED FACILITY,2021-06-07,http://www.doc.alabama.gov/covid19news,106,14,0,0,,254,0,0,375,,157,9,,,,,14880 COUNTY RD 64,36551,LOXLEY,BALDWIN,30.6153358,-87.77030984,01003,10000146,
25,state,Alabama,MOBILE COMMUNITY BASED FACILITY,2021-06-07,http://www.doc.alabama.gov/covid19news,14,21,0,0,,158,0,0,214,,109,7,,,,,2423 N BELTLINE HWY,36610,PRITCHARD,MOBILE,30.73788106,-88.10905742,01097,10000150,
27,state,Alabama,MONTGOMERY WOMENS FACILITY,2021-06-07,http://www.doc.alabama.gov/covid19news,1,11,0,0,,152,0,0,297,,112,27,,,,,12085 WARES FERRY RD,36117,MONTGOMERY,MONTGOMERY,32.38964157,-86.09912245,01101,10001222,
28,state,Alabama,NORTH ALABAMA COMMUNITY BASED FACILITY,2021-06-07,http://www.doc.alabama.gov/covid19news,87,30,0,0,,314,0,0,681,,277,17,,,,,1401 STATE HIGHWAY 20 WEST,35601,DECATUR,MORGAN,34.61756728,-87.00562813,01103,10003698,
29,state,Alabama,RED EAGLE COMMUNITY BASED FACILITY,2021-06-07,http://www.doc.alabama.gov/covid19news,18,20,0,0,,167,0,0,307,,176,13,,,,,1290 RED EAGLE RD,36110,MONTGOMERY,MONTGOMERY,32.46559439,-86.23690422,01101,10001218,
33,state,Alabama,ST CLAIR CORRECTIONAL FACILITY,2021-06-07,http://www.doc.alabama.gov/covid19news,107,58,17,0,,463,0,0,1045,,398,57,,,,,1000 SAINT CLAIR ROAD,35146,SPRINGVILLE,ST CLAIR,33.74558817,-86.38437373,01115,10003710,
35,state,Alabama,STATON CORRECTIONAL FACILITY,2021-06-07,http://www.doc.alabama.gov/covid19news,60,61,7,0,,982,0,0,1405,,780,57,,,,,2690 MARION SPILLWAY RD,36025,ELMORE,ELMORE,32.577215700000004,-86.33248852,01051,10000140,
39,state,Alabama,TUTWILER PRISON FOR WOMEN,2021-06-07,http://www.doc.alabama.gov/covid19news,83,74,3,2,,797,0,0,806,,313,63,,,,,8966 US HWY 231 N,36092,WETUMPKA,ELMORE,32.5640382,-86.1940048,01051,10001216,
40,state,Alabama,TUTWILER QUARANTINE INTAKE FACILITY,2021-06-07,http://www.doc.alabama.gov/covid19news,35,0,0,0,,336,0,0,,,39,0,,,,,,,,,,,,,
41,state,Alabama,VENTRESS CORRECTIONAL FACILITY,2021-06-07,http://www.doc.alabama.gov/covid19news,77,47,1,0,,974,0,2,1202,,709,33,,,,,379 ALABAMA HWY 239 N,36016,CLAYTON,BARBOUR,31.88902864,-85.49299808,01005,10000143,
42,state,Alaska,ANCHORAGE CCC,2021-06-07,https://doc.alaska.gov/covid-19,,,,,,,,,832,,599,,428,,1054,,1400 EAST 4TH AVENUE,99501,ANCHORAGE,ANCHORAGE,61.21842095,-149.8562424,02020,10003757,
43,state,Alaska,GOOSE CREEK CC,2021-06-07,https://doc.alaska.gov/covid-19,,,,,,,,,1125,,987,,935,,1848,,22301 WEST ALSOP ROAD,99623,WASILLA,MATANUSKA-SUSITNA,61.36030624,-150.0084479,02170,10006386,
44,state,Alaska,LEMON CREEK CC JUNEAU,2021-06-07,https://doc.alaska.gov/covid-19,,,,,,,,,209,,135,,108,,247,,2000 LEMON CREEK RD,99801,JUNEAU,JUNEAU,58.36260637,-134.4840555,02110,10001241,
45,state,Alaska,STATEWIDE,2021-06-07,https://doc.alaska.gov/covid-19,2430,,5,,34006,,,,,,,,,,,,,,,,,,,,
47,state,Arizona,CENTRAL ARIZONA CORRECTIONAL FACILITY,2021-06-07,https://corrections.az.gov/adcrr-covid-19-dashboard?order=title_field&sort=asc,76,,3,,,1196,,,1281,1272,,,,,,,1401 E DIVERSION DAM RD,85132,FLORENCE,PINAL,33.03731012,-111.3727528,04021,10000618,
51,state,Arizona,DOUGLAS STATE PRISON,2021-06-07,https://corrections.az.gov/adcrr-covid-19-dashboard?order=title_field&sort=asc,1163,,2,,,2166,,,2086,1726,,,,,,,6911 N BDI BLVD,85607,DOUGLAS,COCHISE,31.46242829,-109.5912299,04003,10000632,
52,state,Arizona,EYMAN STATE PRISON,2021-06-07,https://corrections.az.gov/adcrr-covid-19-dashboard?order=title_field&sort=asc,2031,,13,,,5509,,,5693,5186,,,,,,,4374 E BUTTE AVE,85132,FLORENCE,PINAL,33.03691871,-111.3264441,04021,10000615,
53,state,Arizona,FLORENCE STATE PRISON,2021-06-07,https://corrections.az.gov/adcrr-covid-19-dashboard?order=title_field&sort=asc,441,,14,,,3251,,,3924,2652,,,,,,,1305 E. BUTTE AVE,85132,FLORENCE,PINAL,33.02816949,-111.3707281,04021,10003976,
54,state,Arizona,FLORENCE WEST STATE PRISON,2021-06-07,https://corrections.az.gov/adcrr-covid-19-dashboard?order=title_field&sort=asc,45,,0,,,488,,,713,644,,,,,,,"915 EAST DIVERSION DAM ROAD, PO BOX 1599",85132,FLORENCE,PINAL,33.037233,-111.376527,04021,10006312,
55,state,Arizona,KINGMAN STATE PRISON,2021-06-07,https://corrections.az.gov/adcrr-covid-19-dashboard?order=title_field&sort=asc,653,,5,,,2641,,,3301,2650,,,,,,,4626 WEST ENGLISH DRIVE,86414,GOLDEN VALLEY,MOHAVE,35.02891497,-114.1796097,04015,10003957,
56,state,Arizona,LEWIS STATE PRISON,2021-06-07,https://corrections.az.gov/adcrr-covid-19-dashboard?order=title_field&sort=asc,1303,,3,,,4530,,,4623,4425,,,,,,,26700 S HWY 85,85326,BUCKEYE,MARICOPA,33.2085241,-112.6514629,04013,10000605,
57,state,Arizona,MARANA STATE PRISON,2021-06-07,https://corrections.az.gov/adcrr-covid-19-dashboard?order=title_field&sort=asc,22,,0,,,348,,,476,302,,,,,,,12610 W SILVERBELL RD,85653,MARANA,PIMA,32.41791032,-111.2412161,04019,10000626,
58,county,Arizona,MARICOPA COUNTY JAIL,2021-06-07,https://www.maricopa.gov/5574/COVID-19-in-County-Jails,2859,,0,,48635,,6,,5306,,,,,,2019,,,,PHOENIX,MARICOPA,33.44552,-112.0784,04013,,
59,state,Arizona,MARICOPA REEENTRY CENTER,2021-06-07,https://corrections.az.gov/adcrr-covid-19-dashboard?order=title_field&sort=asc,0,,0,,,0,,,57,0,,,,,,,24601 N 29TH AVE,85027,PHOENIX,MARICOPA,33.70669655,-112.1194385,04013,10002246,
60,state,Arizona,PERRYVILLE STATE PRISON,2021-06-07,https://corrections.az.gov/adcrr-covid-19-dashboard?order=title_field&sort=asc,384,,1,,,5061,,,4336,3416,,,,,,,2105 N CITRUS RD,85395,GOODYEAR,MARICOPA,33.47038654,-112.4377658,04013,10000606,
62,state,Arizona,PHOENIX STATE PRISON,2021-06-07,https://corrections.az.gov/adcrr-covid-19-dashboard?order=title_field&sort=asc,690,,0,,,6598,,,544,518,,,,,,,2500 E VAN BUREN ST,85008,PHOENIX,MARICOPA,33.45312989,-112.0250399,04013,10002245,
63,state,Arizona,PHOENIX WEST STATE PRISON,2021-06-07,https://corrections.az.gov/adcrr-covid-19-dashboard?order=title_field&sort=asc,43,,1,,,369,,,474,452,,,,,,,3402 W COCOPAH ST,85009,PHOENIX,MARICOPA,33.43277711,-112.1326085,04013,10002244,
64,state,Arizona,PIMA REENTRY CENTER,2021-06-07,https://corrections.az.gov/adcrr-covid-19-dashboard?order=title_field&sort=asc,0,,0,,,0,,,52,0,,,,,,,1275 W STARR PASS BLVD,85713,TUCSON,PIMA,32.2037634,-110.9909333,04019,10000630,
65,state,Arizona,RED ROCK STATE PRISON,2021-06-07,https://corrections.az.gov/adcrr-covid-19-dashboard?order=title_field&sort=asc,119,,0,,,1645,,,2007,1959,,,,,,,1750 EAST ARICA ROAD,85131,ELOY,PINAL,32.81056,-111.5196,04021,10003974,
67,state,Arizona,SAFFORD STATE PRISON,2021-06-07,https://corrections.az.gov/adcrr-covid-19-dashboard?order=title_field&sort=asc,846,,0,,,1619,,,1579,1065,,,,,,,896 S COOK RD,85546,SAFFORD,GRAHAM,32.82810149,-109.5636396,04009,10002248,
68,state,Arizona,STATEWIDE,2021-06-07,https://corrections.az.gov/adcrr-covid-19-dashboard?order=title_field&sort=asc,,2780,,,,,,,,,,,,,,,,,,,,,,,
70,state,Arizona,TUCSON STATE PRISON,2021-06-07,https://corrections.az.gov/adcrr-covid-19-dashboard?order=title_field&sort=asc,2244,,14,,,6005,,,5132,4546,,,,,,,10000 S WILMOT RD,85734,TUCSON,PIMA,32.06640097,-110.8663122,04019,10000628,
72,state,Arizona,WINSLOW STATE PRISON,2021-06-07,https://corrections.az.gov/adcrr-covid-19-dashboard?order=title_field&sort=asc,246,,0,,,1318,,,1295,1221,,,,,,,2100 S HWY 87,86047,WINSLOW,NAVAJO,34.98471625,-110.7210891,04017,10000595,
73,state,Arizona,YUMA STATE PRISON,2021-06-07,https://corrections.az.gov/adcrr-covid-19-dashboard?order=title_field&sort=asc,2014,,7,,,4788,,,4876,4034,,,,,,,7125 E JUAN SANCHEZ BLVD,85349,SAN LUIS,YUMA,32.48750181,-114.6397153,04027,10000622,
81,state,Arkansas,STATEWIDE,2021-06-07,https://doc.arkansas.gov/covid-19-updates/,11402,,,,,,53,,,,,,,,,,,,,,,,,,
83,state,California,AVENAL STATE PRISON,2021-06-07,https://www.cdcr.ca.gov/covid19/updates/,3107,545,8,,,,0,3,4204,3214,2737,647,2698,589,,,1 KINGS WAY,93204,AVENAL,KINGS,35.97394934,-120.1231018,06031,10000826,
88,state,California,CALIFORNIA CITY CORRECTIONAL FACILITY,2021-06-07,https://www.cdcr.ca.gov/covid19/updates/,999,237,2,,,,0,1,2113,2032,1288,306,1256,275,,,22844 VIRGINIA BLVD,93505,CALIFORNIA CITY,KERN,35.1532512,-117.8588801,06029,10000852,
89,state,California,CALIFORNIA CORRECTIONAL CENTER,2021-06-07,https://www.cdcr.ca.gov/covid19/updates/,1380,312,0,,,,15,3,4049,2376,1309,357,1281,333,,,711-045 CENTER ROAD,96127,SUSANVILLE,LASSEN,40.40195801,-120.5167302,06035,10000773,
90,state,California,CALIFORNIA CORRECTIONAL INSTITUTION,2021-06-07,https://www.cdcr.ca.gov/covid19/updates/,1383,687,4,,,,0,6,3696,3010,2222,627,2136,568,,,24900 HWY 202,93561,TEHACHAPI,KERN,35.10991489,-118.5703307,06029,10001530,
91,state,California,CALIFORNIA HEALTH CARE FACILITY,2021-06-07,https://www.cdcr.ca.gov/covid19/updates/,629,680,15,,,,3,6,2849,2524,2156,2349,2135,2165,,,7707 AUSTIN ROAD,95215,STOCKTON,SAN JOAQUIN,37.8947278,-121.1848441,06077,10000799,
92,state,California,CALIFORNIA INSTITUTION FOR MEN,2021-06-07,https://www.cdcr.ca.gov/covid19/updates/,1500,599,27,,,,1,6,3627,2206,1781,1053,1744,1000,,,14901 CENTRAL AVENUE,91710,CHINO,SAN BERNARDINO,33.98471223,-117.6823919,06071,10000836,
93,state,California,CALIFORNIA INSTITUTION FOR WOMEN,2021-06-07,https://www.cdcr.ca.gov/covid19/updates/,489,367,1,,,,0,4,1619,993,751,785,703,715,,,16756 CHINO-CORONA ROAD,92880,CORONA,SAN BERNARDINO,33.94974531,-117.636365,06071,10002341,
94,state,California,CALIFORNIA MEDICAL FACILITY,2021-06-07,https://www.cdcr.ca.gov/covid19/updates/,713,366,11,,,,3,7,2512,2030,1614,1617,1572,1536,,,1600 CALIFORNIA DRIVE,95696,VACAVILLE,SOLANO,38.32851019,-121.9791645,06095,10000785,
95,state,California,CALIFORNIA MENS COLONY,2021-06-07,https://www.cdcr.ca.gov/covid19/updates/,2470,566,11,,,,0,8,3758,3108,2266,1070,2205,1013,,,COLONY DRIVE,93409,SAN LUIS OBISPO,SAN LUIS OBISPO,35.32457413,-120.6989005,06079,10002345,
96,state,California,CALIFORNIA REHABILITATION CENTER,2021-06-07,https://www.cdcr.ca.gov/covid19/updates/,1993,509,1,,,,0,8,3802,2133,1637,667,1589,637,,,3195 WESTERN AVENUE,92860,NORCO,RIVERSIDE,33.92691794,-117.5759442,06065,10000856,
97,state,California,CALIFORNIA STATE PRISON CORCORAN,2021-06-07,https://www.cdcr.ca.gov/covid19/updates/,1075,755,4,,,,0,7,3043,3181,2310,946,2233,910,,,4001 KING AVENUE,93212,CORCORAN,KINGS,36.06081823,-119.549121,06031,10000824,
98,state,California,CALIFORNIA STATE PRISON LOS ANGELES,2021-06-07,https://www.cdcr.ca.gov/covid19/updates/,1511,630,13,,,,0,4,3218,2815,1914,876,1845,791,,,44750 60TH STREET WEST,93536,LANCASTER,LOS ANGELES,34.69359649,-118.2276136,06037,10002353,
99,state,California,CALIFORNIA STATE PRISON SACRAMENTO,2021-06-07,https://www.cdcr.ca.gov/covid19/updates/,293,349,1,,,,0,5,2354,2213,1428,901,1365,855,,,100 PRISON ROAD,95671,REPRESA,SACRAMENTO,38.69444411,-121.1539037,06067,10002322,
100,state,California,CALIFORNIA STATE PRISON SAN QUENTIN,2021-06-07,https://www.cdcr.ca.gov/covid19/updates/,2241,455,28,,,,0,4,4032,2475,1991,1256,1966,1169,,,MAIN STREET,94964,SAN QUENTIN,MARIN,37.94003982,-122.4903665,06041,10000790,
101,state,California,CALIFORNIA STATE PRISON SOLANO,2021-06-07,https://www.cdcr.ca.gov/covid19/updates/,1239,268,6,,,,84,12,4306,3279,2119,756,1955,699,,,2100 PEABODY ROAD,95687,VACAVILLE,SOLANO,38.32077652,-121.9752369,06095,10002323,
102,state,California,CALIPATRIA STATE PRISON,2021-06-07,https://www.cdcr.ca.gov/covid19/updates/,1123,375,2,,,,0,2,3109,2995,2107,779,1997,723,,,7018 BLAIR ROAD,92233,CALIPATRIA,IMPERIAL,33.16569337,-115.484344,06025,10002347,
111,state,California,CENTINELA STATE PRISON,2021-06-07,https://www.cdcr.ca.gov/covid19/updates/,864,444,1,,,,0,4,3475,2997,2368,876,2295,815,,,2302 BROWN ROAD,92251,IMPERIAL,IMPERIAL,32.82339731,-115.7890555,06025,10002348,
112,state,California,CENTRAL CALIFORNIA WOMENS FACILITY,2021-06-07,https://www.cdcr.ca.gov/covid19/updates/,809,291,1,,,,0,4,2814,2415,1666,684,1592,636,,,23370 ROAD 22,93610,CHOWCHILLA,MADERA,37.09368073,-120.1527098,06039,10000801,
113,state,California,CHUCKAWALLA VALLEY STATE PRISON,2021-06-07,https://www.cdcr.ca.gov/covid19/updates/,1784,291,9,,,,0,2,2773,2004,1655,420,1638,401,,,19025 WILEY'S WELL ROAD,92225,BLYTHE,RIVERSIDE,33.56257951,-114.9095058,06065,10002346,
115,state,California,CORRECTIONAL TRAINING FACILITY,2021-06-07,https://www.cdcr.ca.gov/covid19/updates/,2719,368,19,,,,0,1,5063,4734,4216,947,4141,904,,,SOLEDAD PRISON ROAD,93960,SOLEDAD,MONTEREY,36.46964789,-121.3822324,06053,10000817,
116,state,California,DEUEL VOCATIONAL INSTITUTION,2021-06-07,https://www.cdcr.ca.gov/covid19/updates/,543,286,0,,,,0,3,2052,386,297,221,282,214,,,23500 KASSON ROAD,95304,TRACY,SAN JOAQUIN,37.74805759,-121.3306264,06077,10000794,
120,state,California,FOLSOM STATE PRISON,2021-06-07,https://www.cdcr.ca.gov/covid19/updates/,1369,237,2,,,,0,4,2871,2242,1550,618,1513,586,,,300 PRISON ROAD,95671,REPRESA,SACRAMENTO,38.69538339,-121.1630324,06067,10000780,
128,state,California,HIGH DESERT STATE PRISON,2021-06-07,https://www.cdcr.ca.gov/covid19/updates/,2032,605,2,,,,0,6,3161,3309,2320,318,2170,298,,,475-750 RICE CANYON ROAD,96127,SUSANVILLE,LASSEN,40.4034569,-120.5258579,06035,10002310,
129,state,California,IRONWOOD STATE PRISON,2021-06-07,https://www.cdcr.ca.gov/covid19/updates/,1568,398,1,,,,0,6,2896,2624,1855,609,1802,546,,,19005 WILEY'S WELL ROAD,92225,BLYTHE,RIVERSIDE,33.56098104,-114.9260354,06065,10000861,
131,state,California,KERN VALLEY STATE PRISON,2021-06-07,https://www.cdcr.ca.gov/covid19/updates/,895,583,6,,,,0,4,3551,3569,2229,726,2147,674,,,3000 WEST CECIL AVENUE,93216,DELANO,KERN,35.76647437,-119.3253627,06029,10000844,
135,county,California,LOS ANGELES JAILS,2021-06-07,https://lasd.org/covid19updates/,4351,2862,13,,66983,,5,,17076,14867,,,,,,,,,,,34.0591,-118.2321,06037,,
139,state,California,MULE CREEK STATE PRISON,2021-06-07,https://www.cdcr.ca.gov/covid19/updates/,1860,442,9,,,,13,19,4007,3935,3462,856,3397,809,,,4001 STATE HIGHWAY 104,95640,IONE,AMADOR,38.37074335,-120.9534458,06005,10000782,
140,state,California,NA CHADERJIAN YOUTH CORRECTIONAL FACILITY,2021-06-07,https://www.cdcr.ca.gov/covid19/cdcr-cchcs-covid-19-status/,,50,,,,,,0,216,,,,,,,,7650 SOUTH NEWCASTLE ROAD,95215,STOCKTON,SAN JOAQUIN,37.8911829,-121.1978212,06077,10000796,
141,state,California,NORTH KERN STATE PRISON,2021-06-07,https://www.cdcr.ca.gov/covid19/updates/,927,640,4,,,,3,8,4355,3446,1756,660,1608,613,,,2737 WEST CECIL AVENUE,93215,DELANO,KERN,35.78188512,-119.3098757,06029,10000841,
142,state,California,NORTHERN CALIFORNIA YOUTH CORRECTIONAL CENTER,2021-06-07,https://www.cdcr.ca.gov/covid19/cdcr-cchcs-covid-19-status/,,38,,,,,,0,216,,,,,,,,7650 SOUTH NEWCASTLE ROAD,95215,STOCKTON,SAN JOAQUIN,37.8911829,-121.1978213,06077,10000796,
143,state,California,OH CLOSE YOUTH CORRECTIONAL FACILITY,2021-06-07,https://www.cdcr.ca.gov/covid19/cdcr-cchcs-covid-19-status/,,32,,,,,,1,169,,,,,,,,7650 SOUTH NEWCASTLE ROAD,95213,STOCKTON,SAN JOAQUIN,37.89852126,-121.1976947,06077,10000793,
144,county,California,ORANGE COUNTY JAILS,2021-06-07,https://ocsheriff.gov/about-ocsd/covid-19/covid-19-oc-jails,2322,,,,,16557,1,,5074,,,,,,,,550 N FLOWER ST,92702,SANTA ANA,ORANGE,33.7489556,-117.8774523,06059,,
145,state,California,PELICAN BAY STATE PRISON,2021-06-07,https://www.cdcr.ca.gov/covid19/updates/,222,240,0,,,,1,15,2648,2095,1430,375,1386,347,,,5905 LAKE EARL DRIVE,95531,CRESCENT CITY,DEL NORTE,41.85480851,-124.1490751,06015,10002309,
146,state,California,PINE GROVE JUVENILE PRISON CAMP,2021-06-07,https://www.cdcr.ca.gov/covid19/cdcr-cchcs-covid-19-status/,,12,,,,,,0,,,,,,,,,,,,,,,,,
147,state,California,PLEASANT VALLEY STATE PRISON,2021-06-07,https://www.cdcr.ca.gov/covid19/updates/,1990,441,3,,,,0,3,3131,2726,1618,506,1562,468,,,24863 WEST JAYNE AVENUE,93210,COALINGA,FRESNO,36.13147309,-120.2488996,06019,10000810,
148,state,California,RICHARD A MCGEE CORRECTIONAL TRAINING CENTER,2021-06-07,https://www.cdcr.ca.gov/covid19/cdcr-cchcs-covid-19-status/,,104,,,,,,1,,,,,,,,,9850 TWIN CITIES RD,95632,GALT,,38.2890255,-121.3279067,06067,,
150,state,California,RJ DONOVAN CORRECTIONAL FACILITY,2021-06-07,https://www.cdcr.ca.gov/covid19/updates/,1011,540,18,,,,0,4,3845,3425,2733,1150,2639,1079,,,480 ALTA ROAD,92179,SAN DIEGO,SAN DIEGO,32.58456487,-116.9335763,06073,10000869,
152,state,California,SALINAS VALLEY STATE PRISON,2021-06-07,https://www.cdcr.ca.gov/covid19/updates/,679,619,5,,,,0,6,2917,3053,1912,1084,1757,980,,,31625 HIGHWAY 101,93960,SOLEDAD,MONTEREY,36.47885699,-121.3743944,06053,10000821,
158,state,California,SIERRA CONSERVATION CENTER,2021-06-07,https://www.cdcr.ca.gov/covid19/updates/,1430,247,0,,,,0,4,4393,3074,1856,453,1806,423,,,5100 OBYRNES FERRY ROAD,95327,JAMESTOWN,TUOLUMNE,37.89168856,-120.5365401,06109,10001522,
161,state,California,SUBSTANCE ABUSE TREATMENT FACILITY,2021-06-07,https://www.cdcr.ca.gov/covid19/updates/,3011,675,7,,,,0,11,5291,4858,3530,835,3469,777,,,900 QUEBEC AVE,93212,CORCORAN,KINGS,36.05396,-119.5478,06031,10000825,
164,state,California,VALLEY STATE PRISON,2021-06-07,https://www.cdcr.ca.gov/covid19/updates/,1730,298,2,,,,0,3,2999,2958,2551,675,2498,646,,,21633 AVENUE 24,93610,CHOWCHILLA,MADERA,37.10547736,-120.1554719,06039,10000802,
165,state,California,VENTURA,2021-06-07,https://www.cdcr.ca.gov/covid19/cdcr-cchcs-covid-19-status/,,74,,,,,,1,,,,,,,,,,,,,,,,,
171,state,California,WASCO STATE PRISON,2021-06-07,https://www.cdcr.ca.gov/covid19/updates/,1768,553,1,,,,0,4,4588,3145,1674,718,1629,668,,,701 SCOFIELD AVENUE,93280,WASCO,KERN,35.59431189,-119.4083319,06029,10000847,
174,state,Colorado,ARKANSAS VALLEY CORRECTIONAL FACILITY,2021-06-07,https://cdoc.colorado.gov/resources/covid-19-faq-and-updates,945,,4,,5681,,0,,1065,984,,,,,,,12750 HIGHWAY 96 AT LANE 13,81034,ORDWAY,CROWLEY,38.19146827,-103.8421854,08025,10002228,
175,state,Colorado,ARROWHEAD CORRECTIONAL FACILITY,2021-06-07,https://cdoc.colorado.gov/resources/covid-19-faq-and-updates,359,,1,,5242,,0,,528,385,,,,,,,E. US HIGHWAY 50 AND EVANS BLVD,81212,CANON CITY,FREMONT,38.43610328,-105.1590956,08043,10002225,
176,state,Colorado,BENT COUNTY CORRECTIONAL FACILITY,2021-06-07,https://cdoc.colorado.gov/resources/covid-19-faq-and-updates,1089,,2,,10879,,0,,1400,1058,,,,,,,11560 ROAD FF75,81054,LAS ANIMAS,BENT,38.06456309,-103.2047922,08011,10002233,
177,state,Colorado,BUENA VISTA CORRECTIONAL COMPLEX,2021-06-07,https://cdoc.colorado.gov/resources/covid-19-faq-and-updates,522,,1,,28430,,0,,1234,868,,,,,,,5125 HWY 24 & 285,81211,BUENA VISTA,CHAFFEE,38.82210118,-106.1147135,08015,10000573,
178,state,Colorado,CENTENNIAL CORRECTIONAL FACILITY,2021-06-07,https://cdoc.colorado.gov/resources/covid-19-faq-and-updates,224,,0,,24135,,0,,321,858,,,,,,,E US HIGHWAY 50 EVANS BLVD,81215,CANON CITY,FREMONT,38.43776663,-105.1516726,08043,10002226,
179,state,Colorado,COLORADO CORRECTIONAL CENTER,2021-06-07,https://cdoc.colorado.gov/resources/covid-19-faq-and-updates,5,,0,,2945,,0,,125,72,,,,,,,15445 SOUTH GOLDEN ROAD,80401,GOLDEN,JEFFERSON,39.734937360000004,-105.171343,08059,10000563,
180,state,Colorado,COLORADO STATE PENITENTIARY,2021-06-07,https://cdoc.colorado.gov/resources/covid-19-faq-and-updates,157,,0,,10762,,0,,700,684,,,,,,,E US HIGHWAY 50 EVANS BLVD,81215,CANON CITY,FREMONT,38.44080528,-105.1580096,08043,10002227,
181,state,Colorado,COLORADO TERRITORIAL CORRECTIONAL FACILITY,2021-06-07,https://cdoc.colorado.gov/resources/covid-19-faq-and-updates,576,,5,,8157,,0,,951,612,,,,,,,275 WEST UNITED STATES HIGHWAY 50,81215,CANON CITY,FREMONT,38.43802317,-105.2486951,08043,10000578,
182,state,Colorado,CROWLEY COUNTY CORRECTIONAL FACILITY,2021-06-07,https://cdoc.colorado.gov/resources/covid-19-faq-and-updates,861,,1,,27257,,0,,1826,1453,,,,,,,6564 HIGHWAY 96,81062,OLNEY SPRINGS,CROWLEY,38.15673868,-103.9573023,08025,10000585,
183,state,Colorado,DELTA CORRECTIONAL FACILITY,2021-06-07,https://cdoc.colorado.gov/resources/covid-19-faq-and-updates,158,,0,,3129,,0,,703,227,,,,,,,11363 LOCKHART ROAD,81416,DELTA,DELTA,38.70911617,-108.1486112,08029,10000569,
184,state,Colorado,DENVER RECEPTION DIAGNOSTIC CENTER,2021-06-07,https://cdoc.colorado.gov/resources/covid-19-faq-and-updates,49,,1,,13419,,0,,584,508,,,,,,,10900 SMITH ROAD,80239,DENVER,DENVER,39.76677716,-104.8608026,08031,10000560,
185,state,Colorado,DENVER WOMENS CORRECTIONAL FACILITY,2021-06-07,https://cdoc.colorado.gov/resources/covid-19-faq-and-updates,139,,0,,15669,,0,,921,555,,,,,,,3600 HAVANA STREET,80239,DENVER,DENVER,39.76510225,-104.860784,08031,10000561,
190,state,Colorado,FOUR MILE CORRECTIONAL FACILITY,2021-06-07,https://cdoc.colorado.gov/resources/covid-19-faq-and-updates,411,,0,,4809,,0,,519,378,,,,,,,E US HIGHWAY 50 & EVANS BLVD,81212,CANON CITY,FREMONT,38.42976983,-105.1478509,08043,10000577,
191,state,Colorado,FREMONT CORRECTIONAL FACILITY,2021-06-07,https://cdoc.colorado.gov/resources/covid-19-faq-and-updates,780,,4,,20005,,0,,1622,1193,,,,,,,E US HIGHWAY 50 EVANS BLVD,81215,CANON CITY,FREMONT,38.4226424,-105.161617,08043,10000576,
192,state,Colorado,LA VISTA CORRECTIONAL FACILITY,2021-06-07,https://cdoc.colorado.gov/resources/covid-19-faq-and-updates,16,,0,,4892,,0,,694,258,,,,,,,1401 WEST 17TH STREET,81003,PUEBLO,PUEBLO,38.28484966,-104.6281974,08101,10000586,
193,state,Colorado,LIMON CORRECTIONAL FACILITY,2021-06-07,https://cdoc.colorado.gov/resources/covid-19-faq-and-updates,743,,0,,4260,,0,,926,865,,,,,,,49030 STATE HIGHWAY 71 SOUTH,80826,LIMON,LINCOLN,39.21808522,-103.6916854,08073,10000567,
194,state,Colorado,RIFLE CORRECTIONAL CENTER,2021-06-07,https://cdoc.colorado.gov/resources/covid-19-faq-and-updates,4,,0,,1242,,0,,189,101,,,,,,,200 COUNTY ROAD 219,81650,RIFLE,GARFIELD,39.65016626,-107.7790488,08045,10000557,
195,state,Colorado,SAN CARLOS CORRECTIONAL FACILITY,2021-06-07,https://cdoc.colorado.gov/resources/covid-19-faq-and-updates,15,,0,,3555,,0,,216,188,,,,,,,1410 WEST 13TH STREET,81003,PUEBLO,PUEBLO,38.28008753,-104.6317795,08101,10000587,
197,state,Colorado,STATEWIDE,2021-06-07,https://cdoc.colorado.gov/resources/covid-19-faq-and-updates,,1939,,,,,,,,,10406,3613,,,,,,,,,,,,,
198,state,Colorado,STERLING CORRECTIONAL FACILITY,2021-06-07,https://cdoc.colorado.gov/resources/covid-19-faq-and-updates,1455,,10,,27378,,0,,2504,1865,,,,,,,12101 HIGHWAY 61,80751,STERLING,LOGAN,40.61123458,-103.1621015,08075,10000554,
199,state,Colorado,TRINIDAD CORRECTIONAL FACILITY,2021-06-07,https://cdoc.colorado.gov/resources/covid-19-faq-and-updates,331,,0,,4675,,0,,502,245,,,,,,,21000 HIGHWAY 350 EAST,81059,MODEL,LAS ANIMAS,37.30034613,-104.2866571,08071,10000593,
200,state,Colorado,YOUTHFUL OFFENDER SYSTEM,2021-06-07,https://cdoc.colorado.gov/resources/covid-19-faq-and-updates,144,,0,,2190,,1,,,6,,,,,,,1300 WEST 13TH ST,81003,PUEBLO,PUEBLO,38.27955439,-104.6274606,08101,10000588,
201,state,Connecticut,BRIDGEPORT CORRECTIONAL CENTER,2021-06-07,https://portal.ct.gov/DOC/Common-Elements/Common-Elements/Health-Information-and-Advisories,394,,,,,,,,689,,,,,,,,1106 NORTH AVE,06604,BRIDGEPORT,FAIRFIELD,41.1906143,-73.20106036,09001,10002400,
202,state,Connecticut,BROOKLYN CORRECTIONAL INSTITUTION,2021-06-07,https://portal.ct.gov/DOC/Common-Elements/Common-Elements/Health-Information-and-Advisories,154,,,,,,,,428,,,,,,,,59 HARTFORD RD,06234,BROOKLYN,WINDHAM,41.78416388,-71.95426216,09015,10002399,
203,state,Connecticut,CARL ROBINSON CORRECTIONAL INSTITUTION,2021-06-07,https://portal.ct.gov/DOC/Common-Elements/Common-Elements/Health-Information-and-Advisories,402,,,,,,,,1317,,,,,,,,285 SHAKER RD,06082,ENFIELD,HARTFORD,42.0156533,-72.515607,09003,10001605,
204,state,Connecticut,CHESHIRE CORRECTIONAL INSTITUTION,2021-06-07,https://portal.ct.gov/DOC/Common-Elements/Common-Elements/Health-Information-and-Advisories,408,,,,,,,,1147,,,,,,,,900 HIGHLAND AVE,06410,CHESHIRE,NEW HAVEN,41.52149124,-72.9017651,09009,10000937,
206,state,Connecticut,CORRIGAN RADGOWSKI CORRECTIONAL CENTER,2021-06-07,https://portal.ct.gov/DOC/Common-Elements/Common-Elements/Health-Information-and-Advisories,422,,,,,,,,734,,,,,,,,986 NORWICH-NEW LONDON TURNPIKE,06382,UNCASVILLE,NEW LONDON,41.45418432,-72.11217243,09011,10000931,
209,state,Connecticut,GARNER CORRECTIONAL INSTITUTION,2021-06-07,https://portal.ct.gov/DOC/Common-Elements/Common-Elements/Health-Information-and-Advisories,177,,,,,,,,543,,,,,,,,50 NUNNAWAUK RD,06470,NEWTOWN,FAIRFIELD,41.40035888,-73.2721123,09001,10000934,
210,state,Connecticut,HARTFORD CORRECTIONAL CENTER,2021-06-07,https://portal.ct.gov/DOC/Common-Elements/Common-Elements/Health-Information-and-Advisories,414,,,,,,,,888,,,,,,,,177 WESTON ST,06120,HARTFORD,HARTFORD,41.79362408,-72.66139948,09003,10000926,
212,state,Connecticut,MACDOUGALL WALKER CORRECTIONAL INSTITUTION,2021-06-07,https://portal.ct.gov/DOC/Common-Elements/Common-Elements/Health-Information-and-Advisories,745,,,,,,,,1471,,,,,,,,1153 EAST ST S,06080,SUFFIELD,HARTFORD,41.95048033,-72.6367468,09003,10000927,
213,state,Connecticut,MANSON YOUTH CORRECTIONAL CENTER,2021-06-07,https://portal.ct.gov/DOC/Common-Elements/Common-Elements/Health-Information-and-Advisories,30,,,,,,,,283,,,,,,,,42 JARVIS ST,06410,CHESHIRE,NEW HAVEN,41.53050021,-72.89979775,09009,10000939,
214,state,Connecticut,NEW HAVEN CORRECTIONAL CENTER,2021-06-07,https://portal.ct.gov/DOC/Common-Elements/Common-Elements/Health-Information-and-Advisories,452,,,,,,,,683,,,,,,,,245 WHALLEY AVE,06511,NEW HAVEN,NEW HAVEN,41.31748057,-72.93997131,09009,10005380,
216,state,Connecticut,NORTHERN CORRECTIONAL INSTITUTION,2021-06-07,https://portal.ct.gov/DOC/Common-Elements/Common-Elements/Health-Information-and-Advisories,15,,,,,,,,78,,,,,,,,287 BILTON RD,06071,SOMERS,TOLLAND,42.0188064,-72.4948806,09013,10000929,
217,state,Connecticut,OSBORN CORRECTIONAL INSTITUTION,2021-06-07,https://portal.ct.gov/DOC/Common-Elements/Common-Elements/Health-Information-and-Advisories,558,,,,,,,,1253,,,,,,,,335 BILTON RD,06071,SOMERS,TOLLAND,42.01640023,-72.49693453,09013,10000928,
218,state,Connecticut,STATEWIDE,2021-06-07,https://portal.ct.gov/DOC/Common-Elements/Common-Elements/Health-Information-and-Advisories,,,19,,,,,,,,4806,2697,,,,,,,,,,,,,
220,state,Connecticut,WILLARD CYBULSKI CORRECTIONAL INSTITUTION,2021-06-07,https://portal.ct.gov/DOC/Common-Elements/Common-Elements/Health-Information-and-Advisories,109,,,,,,,,1090,,,,,,,,391 SHAKER RD,06082,ENFIELD,TOLLAND,42.0167978,-72.5062987,09003,10006149,
221,state,Connecticut,YORK CORRECTIONAL INSTITUTION,2021-06-07,https://portal.ct.gov/DOC/Common-Elements/Common-Elements/Health-Information-and-Advisories,254,,,,,,,,883,,,,,,,,201 W MAIN ST,06357,NIANTIC,NEW LONDON,41.32308179,-72.23754189,09011,10000933,
222,state,Delaware,DELORES J BAYLOR WOMANS CORRECTIONAL INSTITUTION,2021-05-26,https://doc.delaware.gov/assets/documents/Confirmed_COVID_Cases.pdf,,,0,,,,2,,350,,,,,,,,660 BAYLOR BLVD,19720,NEW CASTLE,NEW CASTLE,39.7039322,-75.58125772,10003,10002260,
226,state,Delaware,HOWARD R YOUNG CORRECTIONAL INSTITUTION,2021-05-26,https://doc.delaware.gov/assets/documents/Confirmed_COVID_Cases.pdf,,,0,,,,3,,1354,,,,,,,,1301 E 12TH ST,19802,WILMINGTON,NEW CASTLE,39.7412423,-75.5294058,10003,10000699,
227,state,Delaware,JAMES T VAUGHN CORRECTIONAL CENTER,2021-05-26,https://doc.delaware.gov/assets/documents/Confirmed_COVID_Cases.pdf,,,8,,,,0,,2424,,,,,,,,1181 PADDOCK RD,19977,SMYRNA,NEW CASTLE,39.33295451,-75.59958958,10003,10002262,
231,state,Delaware,PLUMMER COMMUNITY CORRECTIONS CENTER,2021-05-26,https://doc.delaware.gov/assets/documents/Confirmed_COVID_Cases.pdf,,,0,,,,0,,156,,,,,,,,38 TODDS LN,19802,WILMINGTON,NEW CASTLE,39.75664471,-75.52904371,10003,10000701,
234,state,Delaware,STATEWIDE,2021-05-26,https://doc.delaware.gov/assets/documents/Confirmed_COVID_Cases.pdf,1993,768,,,,,,4,,,2217,1283,1793,1128,,,,,,,,,,,
236,state,Delaware,SUSSEX COMMUNITY CORRECTIONS CENTER,2021-05-26,https://doc.delaware.gov/assets/documents/Confirmed_COVID_Cases.pdf,,,0,,,,0,,308,,,,,,,,23207 DUPONT BLVD,19947,GEORGETOWN,SUSSEX,38.6596352,-75.3711832,10005,10000708,
237,state,Delaware,SUSSEX CORRECTIONAL INSTITUTION,2021-05-26,https://doc.delaware.gov/assets/documents/Confirmed_COVID_Cases.pdf,,,5,,,,0,,1157,,,,,,,,23203 DUPONT BLVD,19947,GEORGETOWN,SUSSEX,38.665915,-75.3801231,10005,10000707,
239,county,District of Columbia,COUNTY WIDE,2021-06-07,https://opendata.dc.gov/datasets/dc-covid-19-department-of-corrections/data?orderBy=DATE_REPORTED&orderByAsc=false,265,210,1,3,,,,,1358,,,,,,,,1901 D ST SE,20003,WASHINGTON,DISTRICT OF COLUMBIA,38.8834391,-76.97658549,11001,10002395,
240,state,Florida,APALACHEE CORRECTIONAL INSTITUTION,2021-06-07,http://ww11.doh.state.fl.us/comm/_partners/covid19_report_archive/correction-facilities-deaths/fdc_death_latest.pdf,,,1,0,,,,,1804,,,,,,,,52 WEST UNIT DR,32460,SNEADS,JACKSON,30.71148316,-84.88818219,12063,10000336,
241,state,Florida,AVON PARK CORRECTIONAL INSTITUTION,2021-06-07,http://ww11.doh.state.fl.us/comm/_partners/covid19_report_archive/correction-facilities-deaths/fdc_death_latest.pdf,,,3,0,,,,,1543,,,,,,,,8100 HIGHWAY 64 EAST,33825,AVON PARK,POLK,27.6462871,-81.4036521,12105,10002177,
242,state,Florida,BAKER CORRECTIONAL INSTITUTION,2021-06-07,http://ww11.doh.state.fl.us/comm/_partners/covid19_report_archive/correction-facilities-deaths/fdc_death_latest.pdf,,,1,0,,,,,1695,,,,,,,,20706 US HIGHWAY 90 W,32087,SANDERSON,BAKER,30.21325143,-82.37451212,12003,10000402,
243,state,Florida,BAY CF,2021-06-07,http://ww11.doh.state.fl.us/comm/_partners/covid19_report_archive/correction-facilities-deaths/fdc_death_latest.pdf,,,3,0,,,,,964,,,,,,,,5400 BAYLINE DR,32404,PANAMA CITY,BAY,30.26570712,-85.50553247,12005,10001445,
244,state,Florida,BLACKWATER CF,2021-06-07,http://ww11.doh.state.fl.us/comm/_partners/covid19_report_archive/correction-facilities-deaths/fdc_death_latest.pdf,,,7,0,,,,,1977,,,,,,,,5914 JEFF ATES ROAD,32583,MILTON,SANTA ROSA,30.64568696,-86.95060909,12113,10006205,
246,state,Florida,CALHOUN CORRECTIONAL INSTITUTION,2021-06-07,http://ww11.doh.state.fl.us/comm/_partners/covid19_report_archive/correction-facilities-deaths/fdc_death_latest.pdf,,,3,0,,,,,1808,,,,,,,,19564 SE INSTITUTION DR,32424,BLOUNTSTOWN,CALHOUN,30.40585,-85.06394467,12013,10000387,
247,state,Florida,CENTRAL FLORIDA RECEPTION CENTER,2021-06-07,http://ww11.doh.state.fl.us/comm/_partners/covid19_report_archive/correction-facilities-deaths/fdc_death_latest.pdf,,,5,0,,,,,2422,,,,,,,,7000 H C KELLEY RD,32831,ORLANDO,ORANGE,28.45327514,-81.15900956,12095,10000460,
249,state,Florida,CENTURY CORRECTIONAL INSTITUTION,2021-06-07,http://ww11.doh.state.fl.us/comm/_partners/covid19_report_archive/correction-facilities-deaths/fdc_death_latest.pdf,,,3,0,,,,,1514,,,,,,,,400 TEDDER RD,32535,CENTURY,ESCAMBIA,30.95817641,-87.29950017,12033,10002152,
250,state,Florida,CHARLOTTE CORRECTIONAL INSTITUTION,2021-06-07,http://ww11.doh.state.fl.us/comm/_partners/covid19_report_archive/correction-facilities-deaths/fdc_death_latest.pdf,,,0,0,,,,,1203,,,,,,,,33123 OIL WELL RD,33955,PUNTA GORDA,CHARLOTTE,26.8036079,-81.90380995,12015,10002187,
255,state,Florida,COLUMBIA CORRECTIONAL INSTITUTION,2021-06-07,http://ww11.doh.state.fl.us/comm/_partners/covid19_report_archive/correction-facilities-deaths/fdc_death_latest.pdf,,,10,0,,,,,2906,,,,,,,,7906 EAST HIGHWAY 90,32055,LAKE CITY,COLUMBIA,30.19252797,-82.50773893,12023,10000394,
260,state,Florida,CROSS CITY CI,2021-06-07,http://ww11.doh.state.fl.us/comm/_partners/covid19_report_archive/correction-facilities-deaths/fdc_death_latest.pdf,,,3,0,,,,,1044,,,,,,,,568 NE 255TH ST,32628,CROSS CITY,DIXIE,29.63475364,-83.09887133,12029,10000432,
261,state,Florida,DADE CORRECTIONAL INSTITUTION,2021-06-07,http://ww11.doh.state.fl.us/comm/_partners/covid19_report_archive/correction-facilities-deaths/fdc_death_latest.pdf,,,10,0,,,,,1440,,,,,,,,19000 SW 377TH ST,33034,FLORIDA CITY,MIAMI-DADE,25.4154012,-80.4999188,12086,10000546,
262,state,Florida,DESOTO ANNEX,2021-06-07,http://ww11.doh.state.fl.us/comm/_partners/covid19_report_archive/correction-facilities-deaths/fdc_death_latest.pdf,,,0,0,,,,,1797,,,,,,,,13617 SE HWY 70,34266,ARCADIA,DESOTO,27.20934,-81.66191,12027,10000504,
265,state,Florida,EVERGLADES CORRECTIONAL INSTITUTION,2021-06-07,http://ww11.doh.state.fl.us/comm/_partners/covid19_report_archive/correction-facilities-deaths/fdc_death_latest.pdf,,,7,0,,,,,2178,,,,,,,,1599 S.W. 187TH AVE.,33194,MIAMI,MIAMI-DADE,25.75086336,-80.48896138,12086,10004646,
266,state,Florida,FLORIDA STATE PRISON,2021-06-07,http://ww11.doh.state.fl.us/comm/_partners/covid19_report_archive/correction-facilities-deaths/fdc_death_latest.pdf,,,0,0,,,,,2106,,,,,,,,7819 N.W. 228TH STREET,32026,RAIFORD,BRADFORD,30.0584396,-82.1836504,12007,10004580,
267,state,Florida,FLORIDA WOMENS RECEPTION CENTER,2021-06-07,http://ww11.doh.state.fl.us/comm/_partners/covid19_report_archive/correction-facilities-deaths/fdc_death_latest.pdf,,,5,1,,,,,898,,,,,,,,3700 NW 111TH PLACE,34482,OCALA,MARION,29.30979922,-82.18626021,12083,10006167,
268,state,Florida,FRANKLIN CORRECTIONAL INSTITUTION,2021-06-07,http://ww11.doh.state.fl.us/comm/_partners/covid19_report_archive/correction-facilities-deaths/fdc_death_latest.pdf,,,1,0,,,,,1227,,,,,,,,1760 HWY 67 NORTH,32322,CARRABELLE,FRANKLIN,29.87797428,-84.64585656,12037,10000422,
269,state,Florida,GADSDEN CF,2021-06-07,http://ww11.doh.state.fl.us/comm/_partners/covid19_report_archive/correction-facilities-deaths/fdc_death_latest.pdf,,,0,0,,,,,1049,,,,,,,,6044 GREENSBORO HWY,32351,QUINCY,GADSDEN,30.5897214,-84.65558376,12039,10000369,
270,state,Florida,GADSDEN REENTRY CENTER,2021-06-07,http://ww11.doh.state.fl.us/comm/_partners/covid19_report_archive/correction-facilities-deaths/fdc_death_latest.pdf,,,0,0,,,,,395,,,,,,,,630 OPPORTUNITY LANE,32333,HAVANA,GADSDEN,30.54608079,-84.49489877,12039,10006326,
271,state,Florida,GRACEVILLE CF,2021-06-07,http://ww11.doh.state.fl.us/comm/_partners/covid19_report_archive/correction-facilities-deaths/fdc_death_latest.pdf,,,6,0,,,,,264,,,,,,,,5230 EZELL RD,32440,GRACEVILLE,JACKSON,30.94829087,-85.49222414,12063,10000332,
272,state,Florida,GULF CORRECTIONAL INSTITUTION,2021-06-07,http://ww11.doh.state.fl.us/comm/_partners/covid19_report_archive/correction-facilities-deaths/fdc_death_latest.pdf,,,1,2,,,,,1070,,,,,,,,699 IKE STEELE ROAD,32465,WEWAHITCHKA,GULF,30.17512766,-85.26724893,12045,10000411,
273,state,Florida,HAMILTON CORRECTIONAL INSTITUTION,2021-06-07,http://ww11.doh.state.fl.us/comm/_partners/covid19_report_archive/correction-facilities-deaths/fdc_death_latest.pdf,,,2,0,,,,,2257,,,,,,,,10650 SW 46TH ST,32052,JASPER,HAMILTON,30.504668,-82.9631921,12047,10000385,
274,state,Florida,HARDEE CORRECTIONAL INSTITUTION,2021-06-07,http://ww11.doh.state.fl.us/comm/_partners/covid19_report_archive/correction-facilities-deaths/fdc_death_latest.pdf,,,0,0,,,,,1606,,,,,,,,6899 STATE RD 62,33834,BOWLING GREEN,HARDEE,27.59369353,-82.00687498,12049,10000492,
275,state,Florida,HERNANDO CORRECTIONAL INSTITUTION,2021-06-07,http://ww11.doh.state.fl.us/comm/_partners/covid19_report_archive/correction-facilities-deaths/fdc_death_latest.pdf,,,0,0,,,,,436,,,,,,,,16415 SPRING HILL DR,34604,BROOKSVILLE,HERNANDO,28.48302199,-82.45443373,12053,10000465,
277,state,Florida,HOLMES CORRECTIONAL INSTITUTION,2021-06-07,http://ww11.doh.state.fl.us/comm/_partners/covid19_report_archive/correction-facilities-deaths/fdc_death_latest.pdf,,,1,0,,,,,1444,,,,,,,,3142 THOMAS DR,32425,BONIFAY,HOLMES,30.75545064,-85.6701594,12059,10000356,
278,state,Florida,HOMESTEAD CORRECTIONAL INSTITUTION,2021-06-07,http://ww11.doh.state.fl.us/comm/_partners/covid19_report_archive/correction-facilities-deaths/fdc_death_latest.pdf,,,3,0,,,,,707,,,,,,,,19000 SW 377TH ST,33034,FLORIDA CITY,MIAMI-DADE,25.41299306,-80.49729982,12086,10000545,
279,state,Florida,JACKSON CORRECTIONAL INSTITUTION,2021-06-07,http://ww11.doh.state.fl.us/comm/_partners/covid19_report_archive/correction-facilities-deaths/fdc_death_latest.pdf,,,0,1,,,,,2331,,,,,,,,5563 10TH ST,32445,MALONE,JACKSON,30.96872589,-85.16860405,12063,10000334,
281,state,Florida,JEFFERSON CORRECTIONAL INSTITUTION,2021-06-07,http://ww11.doh.state.fl.us/comm/_partners/covid19_report_archive/correction-facilities-deaths/fdc_death_latest.pdf,,,0,0,,,,,783,,,,,,,,1050 BIG JOE RD,32344,MONTICELLO,JEFFERSON,30.50973618,-83.80157593,12065,10000378,
283,state,Florida,LAKE CITY CF,2021-06-07,http://ww11.doh.state.fl.us/comm/_partners/covid19_report_archive/correction-facilities-deaths/fdc_death_latest.pdf,,,0,0,,,,,876,,,,,,,,7906 EAST HIGHWAY 90,32055,LAKE CITY,COLUMBIA,30.19252797,-82.50773893,12023,10000394,
284,state,Florida,LAKE CORRECTIONAL INSTITUTION,2021-06-07,http://ww11.doh.state.fl.us/comm/_partners/covid19_report_archive/correction-facilities-deaths/fdc_death_latest.pdf,,,2,0,,,,,1006,,,,,,,,19225 US HWY 27,34715,CLERMONT,LAKE,28.62049362,-81.76642774,12069,10000453,
285,state,Florida,LANCASTER CORRECTIONAL INSTITUTION,2021-06-07,http://ww11.doh.state.fl.us/comm/_partners/covid19_report_archive/correction-facilities-deaths/fdc_death_latest.pdf,,,1,0,,,,,720,,,,,,,,3449 SW STATE RD 26,32693,TRENTON,GILCHRIST,29.60801197,-82.8634739,12041,10000428,
286,state,Florida,LAWTEY CORRECTIONAL INSTITUTION,2021-06-07,http://ww11.doh.state.fl.us/comm/_partners/covid19_report_archive/correction-facilities-deaths/fdc_death_latest.pdf,,,0,0,,,,,804,,,,,,,,22298 NE COUNTY ROAD 200B,32058,LAWTEY,BRADFORD,30.0339212,-82.07236464,12007,10000414,
287,state,Florida,LIBERTY CORRECTIONAL INSTITUTION,2021-06-07,http://ww11.doh.state.fl.us/comm/_partners/covid19_report_archive/correction-facilities-deaths/fdc_death_latest.pdf,,,3,0,,,,,1771,,,,,,,,11064 NW DEMPSEY BARRON RD,32321,BRISTOL,LIBERTY,30.46383683,-84.85588125,12077,10000391,
288,state,Florida,LOWELL CORRECTIONAL INSTITUTION,2021-06-07,http://ww11.doh.state.fl.us/comm/_partners/covid19_report_archive/correction-facilities-deaths/fdc_death_latest.pdf,,,2,0,,,,,2405,,,,,,,,11120 NW GAINESVILLE RD,34482,OCALA,MARION,29.31079789,-82.20039763,12083,10000437,
289,state,Florida,MADISON CORRECTIONAL INSTITUTION,2021-06-07,http://ww11.doh.state.fl.us/comm/_partners/covid19_report_archive/correction-facilities-deaths/fdc_death_latest.pdf,,,2,1,,,,,1277,,,,,,,,382 SW MCI WAY,32340,MADISON,MADISON,30.44008751,-83.42161169,12079,10000381,
291,state,Florida,MARION CORRECTIONAL INSTITUTION,2021-06-07,http://ww11.doh.state.fl.us/comm/_partners/covid19_report_archive/correction-facilities-deaths/fdc_death_latest.pdf,,,0,0,,,,,1569,,,,,,,,3269 NW 105TH ST,34475,OCALA,MARION,29.30810089,-82.17502385,12083,10000440,
292,state,Florida,MARTIN CORRECTIONAL INSTITUTION,2021-06-07,http://ww11.doh.state.fl.us/comm/_partners/covid19_report_archive/correction-facilities-deaths/fdc_death_latest.pdf,,,0,1,,,,,1720,,,,,,,,1150 SW ALLAPATTAH ROAD,34956,INDIANTOWN,MARTIN,27.19661972,-80.48487746,12085,10000508,
293,state,Florida,MAYO ANNEX,2021-06-07,http://ww11.doh.state.fl.us/comm/_partners/covid19_report_archive/correction-facilities-deaths/fdc_death_latest.pdf,,,0,0,,,,,1399,,,,,,,,8784 US HWY 27 W,32066,MAYO,LAFAYETTE,30.1384625,-83.30514217,12067,10000409,
296,state,Florida,MOORE HAVEN CF,2021-06-07,http://ww11.doh.state.fl.us/comm/_partners/covid19_report_archive/correction-facilities-deaths/fdc_death_latest.pdf,,,1,0,,,,,964,,,,,,,,1282 EAST STATE ROAD 78,33471,MOORE HAVEN,GLADES,26.83843221,-81.12018204,12043,10000510,
297,state,Florida,NEW RIVER CORRECTIONAL INSTITUTION,2021-06-07,http://ww11.doh.state.fl.us/comm/_partners/covid19_report_archive/correction-facilities-deaths/fdc_death_latest.pdf,,,3,0,,,,,1255,,,,,,,,8000 NW 80TH PLACE,32083,RAIFORD,BRADFORD,30.0628479,-82.17809153,12007,10000416,
298,state,Florida,NORTHWEST FLORIDA RECEPTION CENTER,2021-06-07,http://ww11.doh.state.fl.us/comm/_partners/covid19_report_archive/correction-facilities-deaths/fdc_death_latest.pdf,,,1,0,,,,,3127,,,,,,,,4455 SAM MITCHELL DR,32428,CHIPLEY,WASHINGTON,30.52072999,-85.65969841,12133,10000365,
299,state,Florida,OKALOOSA CORRECTIONAL INSTITUTION,2021-06-07,http://ww11.doh.state.fl.us/comm/_partners/covid19_report_archive/correction-facilities-deaths/fdc_death_latest.pdf,,,2,0,,,,,1110,,,,,,,,3189 COLONEL GREG MALLOY RD,32539,CRESTVIEW,OKALOOSA,30.69681196,-86.527331040000007,12091,10004557,
300,state,Florida,OKEECHOBEE CORRECTIONAL INSTITUTION,2021-06-07,http://ww11.doh.state.fl.us/comm/_partners/covid19_report_archive/correction-facilities-deaths/fdc_death_latest.pdf,,,6,0,,,,,2178,,,,,,,,3420 NE 168TH ST,34972,OKEECHOBEE,OKEECHOBEE,27.39606954,-80.78444465,12093,10000495,
302,state,Florida,POLK CORRECTIONAL INSTITUTION,2021-06-07,http://ww11.doh.state.fl.us/comm/_partners/covid19_report_archive/correction-facilities-deaths/fdc_death_latest.pdf,,,1,0,,,,,1381,,,,,,,,10800 EVANS RD,33868,POLK CITY,POLK,28.19151724,-81.78675795,12105,10000473,
303,state,Florida,PUTNAM CORRECTIONAL INSTITUTION,2021-06-07,http://ww11.doh.state.fl.us/comm/_partners/covid19_report_archive/correction-facilities-deaths/fdc_death_latest.pdf,,,0,0,,,,,450,,,,,,,,128 YELVINGTON RD,32131,EAST PALATKA,PUTNAM,29.64617008,-81.58778592,12107,10000430,
304,state,Florida,RECEPTION MEDICAL CENTER,2021-06-07,http://ww11.doh.state.fl.us/comm/_partners/covid19_report_archive/correction-facilities-deaths/fdc_death_latest.pdf,,,45,2,,,,,2386,,,,,,,,7765 S COUNTY RD 231,32054,LAKE BUTLER,UNION,29.98965556,-82.35918381,12125,10000418,
308,state,Florida,SANTA ROSA CI,2021-06-07,http://ww11.doh.state.fl.us/comm/_partners/covid19_report_archive/correction-facilities-deaths/fdc_death_latest.pdf,,,0,0,,,,,1441,,,,,,,,5850 E MILTON RD,32583,MILTON,SANTA ROSA,30.64561525,-86.96742857,12113,10000339,
309,state,Florida,SOUTH BAY CF,2021-05-26,http://ww11.doh.state.fl.us/comm/_partners/covid19_report_archive/correction-facilities-deaths/fdc_death_latest.pdf,,,8,0,,,,,1924,,,,,,,,600 US HWY 27 S,33493,SOUTH BAY,PALM BEACH,26.65774766,-80.71928984,12099,10000512,
311,state,Florida,SOUTH FLORIDA RECEPTION CENTER,2021-06-07,http://ww11.doh.state.fl.us/comm/_partners/covid19_report_archive/correction-facilities-deaths/fdc_death_latest.pdf,,,26,0,,,,,1531,,,,,,,,14000 NW 41ST ST,33178,DORAL,MIAMI-DADE,25.80587656,-80.42638712,12086,10000547,
312,county,Florida,ST LUCIE COUNTY JAIL,2021-06-07,https://www.stluciesheriff.com/288/COVID-19-Information,,,,,,102,,,808,1301,,,,,,,,,,,,,,,
313,state,Florida,STATEWIDE,2021-06-07,http://www.dc.state.fl.us/comm/covid-19.html,18072,6066,,,,,,,,,,,,,,,,,,,,,,,
314,state,Florida,SUMTER CORRECTIONAL INSTITUTION,2021-06-07,http://ww11.doh.state.fl.us/comm/_partners/covid19_report_archive/correction-facilities-deaths/fdc_death_latest.pdf,,,3,0,,,,,1324,,,,,,,,9544 COUNTY RD 476B,33513,BUSHNELL,SUMTER,28.61748387,-82.20754297,12119,10000455,
315,state,Florida,SUWANNEE CORRECTIONAL INSTITUTION,2021-06-07,http://ww11.doh.state.fl.us/comm/_partners/covid19_report_archive/correction-facilities-deaths/fdc_death_latest.pdf,,,7,0,,,,,2043,,,,,,,,5964 US HWY 90,32060,LIVE OAK,SUWANNEE,30.23819413,-82.87311813,12121,10000405,
317,state,Florida,TAYLOR CORRECTIONAL INSTITUTION,2021-06-07,http://ww11.doh.state.fl.us/comm/_partners/covid19_report_archive/correction-facilities-deaths/fdc_death_latest.pdf,,,4,1,,,,,2264,,,,,,,,8501 HAMPTON SPRINGS ROAD,32348,PERRY,TAYLOR,30.040944,-83.71342,12123,10004574,
318,state,Florida,TOMOKA CORRECTIONAL INSTITUTION,2021-06-07,http://ww11.doh.state.fl.us/comm/_partners/covid19_report_archive/correction-facilities-deaths/fdc_death_latest.pdf,,,2,0,,,,,1497,,,,,,,,3950 TIGER BAY RD,32124,DAYTONA BEACH,VOLUSIA,29.15157094,-81.15726813,12127,10000444,
319,state,Florida,UNION CORRECTIONAL INSTITUTION,2021-06-07,http://ww11.doh.state.fl.us/comm/_partners/covid19_report_archive/correction-facilities-deaths/fdc_death_latest.pdf,,,16,0,,,,,1720,,,,,,,,7819 NW 228TH ST,32083,RAIFORD,UNION,30.06674635,-82.19278712,12125,10000417,
320,state,Florida,WAKULLA CORRECTIONAL INSTITUTION,2021-06-07,http://ww11.doh.state.fl.us/comm/_partners/covid19_report_archive/correction-facilities-deaths/fdc_death_latest.pdf,,,6,0,,,,,2976,,,,,,,,110 MELALEUCA DRIVE,32327,CRAWFORDVILLE,WAKULLA,30.2614929,-84.1748045,12129,10004575,
321,state,Florida,WALTON CORRECTIONAL INSTITUTION,2021-06-07,http://ww11.doh.state.fl.us/comm/_partners/covid19_report_archive/correction-facilities-deaths/fdc_death_latest.pdf,,,1,0,,,,,1437,,,,,,,,691 INSTITUTION RD,32433,DEFUNIAK SPRINGS,WALTON,30.77868009,-86.10318532,12131,10000360,
322,state,Florida,ZEPHYRHILLS CORRECTIONAL INSTITUTION,2021-06-07,http://ww11.doh.state.fl.us/comm/_partners/covid19_report_archive/correction-facilities-deaths/fdc_death_latest.pdf,,,4,0,,,,,603,,,,,,,,2739 GALL BLVD,33541,ZEPHYRHILLS,PASCO,28.19909791,-82.19869217,12101,10000467,
323,state,Georgia,APPLING INTEGRATED TREATMENT FACILITY,2021-06-07,http://www.dcor.state.ga.us/content/CVD_Dashboard,17,7,0,0,,,,,191,,47,35,,,,,252 WEST PARK DRIVE,31513,BAXLEY,APPLING,31.8050704,-82.40883899,13001,10004527,
324,state,Georgia,ATLANTA TRANSITIONAL CENTER,2021-06-07,http://www.dcor.state.ga.us/content/CVD_Dashboard,17,7,0,0,,,,,273,216,77,6,,,,,332 PONCE DE LEON AVE NE,30308,ATLANTA,FULTON,33.77270217,-84.3762642,13121,10001411,
326,state,Georgia,AUGUSTA STATE MEDICAL PRISON,2021-06-07,http://www.dcor.state.ga.us/content/CVD_Dashboard,267,122,6,1,,,,,1223,1053,644,42,,,,,3001 GORDON HWY,30813,GROVETOWN,COLUMBIA,33.43287905,-82.18852112,13073,10006153,
327,state,Georgia,AUGUSTA TRANSITIONAL CENTER,2021-06-07,http://www.dcor.state.ga.us/content/CVD_Dashboard,16,12,0,0,,,,,225,200,126,29,,,,,601 TAYLOR STREET,30906,AUGUSTA,RICHMOND,33.46676876,-81.96605692,13245,10004475,
328,state,Georgia,AUTRY STATE PRISON,2021-06-07,http://www.dcor.state.ga.us/content/CVD_Dashboard,107,29,3,0,,,,,1436,962,691,47,,,,,3178 MOUNT ZION CHURCH RD,31779,PELHAM,MITCHELL,31.18946471,-84.14510952,13205,10000325,
329,state,Georgia,BACON PROBATION DETENTION CENTER,2021-06-07,http://www.dcor.state.ga.us/content/CVD_Dashboard,26,17,0,0,,,,,232,,67,10,,,,,165 EAST EASTSIDE INDUSTRIAL BOULEVARD,31510,ALMA,BACON,31.53308262,-82.44987705,13005,10004534,
330,state,Georgia,BAINBRIDGE PROBATION SUBSTANCE ABUSE TREATMENT,2021-06-07,http://www.dcor.state.ga.us/content/CVD_Dashboard,91,27,0,0,,,,,,,150,15,,,,,235 STATE HOSPITAL ROAD,39817,BAINBRIDGE,DECATUR,30.98252995,-84.63677462,13087,10006339,
332,state,Georgia,BALDWIN STATE PRISON,2021-06-07,http://www.dcor.state.ga.us/content/CVD_Dashboard,32,51,2,0,,,,,961,885,698,54,,,,,140 LAYING FARM RD,31034,HARDWICK,BALDWIN,33.0250608,-83.2213613,13009,10002129,
333,state,Georgia,BLECKLEY PROBATION SUBSTANCE ABUSE TREATMENT CENTER,2021-06-07,http://www.dcor.state.ga.us/content/CVD_Dashboard,66,20,0,0,,,,,,,94,19,,,,,,,,,,,,,
334,state,Georgia,BULLOCH COUNTY CORRECTIONAL INSTITUTION,2021-06-07,http://www.dcor.state.ga.us/content/CVD_Dashboard,2,0,0,0,,,,,153,131,59,0,,,,,,,,,,,,,
335,state,Georgia,BURRUSS CORRECTIONAL TRAINING CENTER,2021-06-07,http://www.dcor.state.ga.us/content/CVD_Dashboard,29,25,1,0,,,,,769,476,232,30,,,,,1000 INDIAN SPRINGS DR,31029,FORSYTH,MONROE,33.05554556,-83.97538536,13207,10001421,
336,state,Georgia,CALHOUN STATE PRISON,2021-06-07,http://www.dcor.state.ga.us/content/CVD_Dashboard,59,35,1,1,,,,,1675,1518,1106,31,,,,,27823 MAIN ST,39866,MORGAN,CALHOUN,31.53975718,-84.6166883,13037,10002146,
337,state,Georgia,CARROLL COUNTY CORRECTIONAL INSTITUTION,2021-06-07,http://www.dcor.state.ga.us/content/CVD_Dashboard,18,0,0,0,,,,,250,169,53,0,,,,,96 HORSLEY MILL ROAD,30117,CARROLLTON,CARROLL,33.57869711,-85.04659773,13045,10003920,
338,state,Georgia,CENTRAL STATE PRISON,2021-06-07,http://www.dcor.state.ga.us/content/CVD_Dashboard,36,54,0,0,,,,,1142,1016,825,29,,,,,4600 FULTON MILL RD,31208,MACON,BIBB,32.77682714,-83.75181934,13021,10002134,
339,state,Georgia,CLARKE COUNTY CORRECTIONAL INSTITUTION,2021-06-07,http://www.dcor.state.ga.us/content/CVD_Dashboard,17,0,0,0,,,,,160,129,73,0,,,,,2825 COUNTY FARM ROAD,30601,ATHENS,CLARKE,33.94472297,-83.33031431,13059,10003914,
340,state,Georgia,CLAYTON COUNTY CORRECTIONAL INSTITUTION,2021-06-07,http://www.dcor.state.ga.us/content/CVD_Dashboard,15,0,0,0,,,,,261,161,71,0,,,,,,,,,,,,,
341,state,Georgia,CLAYTON TRANSITIONAL CENTER,2021-06-07,http://www.dcor.state.ga.us/content/CVD_Dashboard,7,11,0,0,,,,,371,269,123,19,,,,,242 FALCON DR,30297,FOREST PARK,CLAYTON,33.62430193,-84.3976813,13063,10002121,
342,state,Georgia,COASTAL STATE PRISON,2021-06-07,http://www.dcor.state.ga.us/content/CVD_Dashboard,131,51,8,0,,,,,1597,1012,1089,76,,,,,200 GULF STREAM RD,31418,GARDEN CITY,CHATHAM,32.13759217,-81.18656693,13051,10000314,
343,state,Georgia,COFFEE CORRECTIONAL FACILITY,2021-06-07,http://www.dcor.state.ga.us/content/CVD_Dashboard,239,0,5,0,,,,,2630,2162,964,0,,,,,1153 NORTH LIBERTY STREET,31554,NICHOLLS,COFFEE,31.53063543,-82.63791259,13069,10002144,
344,state,Georgia,COLQUITT COUNTY CORRECTIONAL INSTITUTION,2021-06-07,http://www.dcor.state.ga.us/content/CVD_Dashboard,11,0,0,0,,,,,192,131,39,0,,,,,200 SOUTH VANDENBERG DRIVE,31768,MOULTRIE,COLQUITT,31.12973082,-83.70786594,13071,10004548,
345,state,Georgia,COLUMBUS TRANSITIONAL CENTER,2021-06-07,http://www.dcor.state.ga.us/content/CVD_Dashboard,9,6,0,0,,,,,136,129,46,6,,,,,3900 SCHATULGA ROAD,31907,COLUMBUS,MUSCOGEE,32.49407873,-84.86892761,13215,10001426,
346,state,Georgia,COLWELL PROBATION DETENTION CENTER,2021-06-07,http://www.dcor.state.ga.us/content/CVD_Dashboard,48,7,0,0,,,,,,,62,16,,,,,,,,,,,,,
347,state,Georgia,COWETA COUNTY CORRECTIONAL INSTITUTION,2021-06-07,http://www.dcor.state.ga.us/content/CVD_Dashboard,84,0,0,0,,,,,233,167,121,0,,,,,101 SELT ROAD,30263,NEWNAN,COWETA,33.39536115,-84.82112952,13077,10004478,
350,state,Georgia,DECATUR COUNTY CORRECTIONAL INSTITUTION,2021-06-07,http://www.dcor.state.ga.us/content/CVD_Dashboard,2,0,0,0,,,,,183,129,105,0,,,,,1153 AIRPORT ROAD,39817,BAINBRIDGE,DECATUR,30.90775178,-84.60333237,13087,10003940,
351,state,Georgia,DODGE STATE PRISON,2021-06-07,http://www.dcor.state.ga.us/content/CVD_Dashboard,40,34,3,1,,,,,1247,1067,742,16,,,,,2971 OLD BETHEL CHURCH ROAD,31012,CHESTER,DODGE,32.3942334,-83.16745955,13091,10002138,
352,state,Georgia,DOOLY STATE PRISON,2021-06-07,http://www.dcor.state.ga.us/content/CVD_Dashboard,80,27,4,0,,,,,1717,1469,890,82,,,,,1412 PLUNKETT ROAD,31091,UNADILLA,HOUSTON,32.28092423,-83.71567596,13093,10006154,
353,state,Georgia,EFFINGHAM COUNTY CORRECTIONAL INSTITUTION,2021-06-07,http://www.dcor.state.ga.us/content/CVD_Dashboard,49,0,0,0,,,,,195,157,128,0,,,,,,,SPRINGFIELD,,,,,,
354,state,Georgia,EMANUEL PROBATION DETENTION CENTER,2021-06-07,http://www.dcor.state.ga.us/content/CVD_Dashboard,12,11,0,0,,,,,,,99,22,,,,,121 CASA DRIVE,30471,TWIN CITY,EMANUEL,32.57167374,-82.16113585,13107,10004497,
355,state,Georgia,EMANUEL WOMENS FACILITY,2021-06-07,http://www.dcor.state.ga.us/content/CVD_Dashboard,30,25,0,0,,,,,412,241,207,33,,,,,714 GUMLOG ROAD,30401,SWAINSBORO,EMANUEL,32.61303825,-82.3564078,13107,10004496,
356,state,Georgia,FLOYD COUNTY CORRECTIONAL INSTITUTION,2021-06-07,http://www.dcor.state.ga.us/content/CVD_Dashboard,0,0,0,0,,,,,445,323,178,0,,,,,,,,,,,,,
357,state,Georgia,GEORGIA DIAGNOSTIC AND CLASSIFICATION PRISON,2021-06-07,http://www.dcor.state.ga.us/content/CVD_Dashboard,415,87,7,0,,,,,3290,4336,163,45,,,,,2978 STATE HWYY 36 W PRISON BLVD,30233,JACKSON,BUTTS,33.22107373,-84.06161828,13035,10000298,
358,state,Georgia,GEORGIA DIAGNOSTIC AND CLASSIFICATION PRISON SPECIAL MANAGEMENT UNIT,2021-06-07,http://www.dcor.state.ga.us/content/CVD_Dashboard,0,12,0,0,,,,,3290,,50,17,,,,,2978 STATE HWYY 36 W PRISON BLVD,30233,JACKSON,BUTTS,33.22107373,-84.06161828,13035,10000298,
359,state,Georgia,GEORGIA STATE PRISON,2021-06-07,http://www.dcor.state.ga.us/content/CVD_Dashboard,34,45,3,0,,,,,1459,1318,363,18,,,,,300 1ST AVENUE SOUTH,30453,REIDSVILLE,TATTNALL,32.00512895,-82.16473427,13267,10002141,
360,state,Georgia,GWINNETT COUNTY CORRECTIONAL INSTITUTION,2021-06-07,http://www.dcor.state.ga.us/content/CVD_Dashboard,73,0,0,0,,,,,222,118,80,0,,,,,,,,,,,,,
361,state,Georgia,HALL COUNTY CORRECTIONAL INSTITUTION,2021-06-07,http://www.dcor.state.ga.us/content/CVD_Dashboard,5,0,0,0,,,,,207,115,63,0,,,,,1698 BARBER ROAD,30507,GAINESVILLE,HALL,34.24037727,-83.81411093,13139,10006723,
362,state,Georgia,HANCOCK STATE PRISON,2021-06-07,http://www.dcor.state.ga.us/content/CVD_Dashboard,129,25,0,0,,,,,1186,923,554,69,,,,,701 PRISON BLVD,31087,SPARTA,HANCOCK,33.24549405,-82.95092313,13141,10000297,
363,state,Georgia,HARRIS COUNTY CORRECTIONAL INSTITUTION,2021-06-07,http://www.dcor.state.ga.us/content/CVD_Dashboard,3,0,0,0,,,,,155,122,96,0,,,,,9982 SR 116,31811,HAMILTON,HARRIS,32.76447267,-84.86400695,13145,10003931,
364,state,Georgia,HAYS STATE PRISON,2021-06-07,http://www.dcor.state.ga.us/content/CVD_Dashboard,43,42,0,0,,,,,1060,978,575,25,,,,,777 UNDERWOOD DRIVE,30753,TRION,CHATTOOGA,34.50768663,-85.31195302,13055,10000284,
365,state,Georgia,HELMS FACILITY,2021-06-07,http://www.dcor.state.ga.us/content/CVD_Dashboard,0,7,0,0,,,,,13,15,13,8,,,,,1275 CONSTITUTION ROAD SE,30316,ATLANTA,DEKALB,33.68857362,-84.33823463,13089,10001415,
366,state,Georgia,HUDSON TRANSITIONAL CENTER,2021-06-07,http://www.dcor.state.ga.us/content/CVD_Dashboard,3,3,0,0,,,,,154,153,89,14,,,,,,,,,,,,,
367,state,Georgia,JACKSON COUNTY CORRECTIONAL INSTITUTION,2021-06-07,http://www.dcor.state.ga.us/content/CVD_Dashboard,0,0,0,0,,,,,151,101,37,0,,,,,265 I.W. DAVIS ROAD,30549,JEFFERSON,JACKSON,34.15197172,-83.55731447,13157,10003907,
368,state,Georgia,JEFFERSON COUNTY CORRECTIONAL INSTITUTION,2021-06-07,http://www.dcor.state.ga.us/content/CVD_Dashboard,4,0,0,0,,,,,194,149,133,0,,,,,1159 CLARKS MILL ROAD,30434,LOUISVILLE,JEFFERSON,33.02109834,-82.40712914,13163,10004482,
369,state,Georgia,JENKINS CORRECTIONAL CENTER,2021-06-07,http://www.dcor.state.ga.us/content/CVD_Dashboard,31,0,4,0,,,,,1147,925,632,0,,,,,,,,,,,,10006453,
370,state,Georgia,JOHNSON STATE PRISON,2021-06-07,http://www.dcor.state.ga.us/content/CVD_Dashboard,131,26,2,0,,,,,1594,1327,990,32,,,,,290 DONOVAN-HARRISON ROAD,31096,WRIGHTSVILLE,JOHNSON,32.74353362,-82.70234985,13167,10000303,
371,state,Georgia,LEE ARRENDALE STATE PRISON,2021-06-07,http://www.dcor.state.ga.us/content/CVD_Dashboard,106,47,0,0,,,,,1618,1291,547,13,,,,,2023 GAINESVILLE HWY,30510,ALTO,HABERSHAM,34.45106681,-83.59596645,13137,10002102,
372,state,Georgia,LEE ARRENDALE TRANSITIONAL CENTER,2021-06-07,http://www.dcor.state.ga.us/content/CVD_Dashboard,1,3,0,0,,,,,124,132,31,0,,,,,,,ALTO,,,,,,
373,state,Georgia,LEE STATE PRISON,2021-06-07,http://www.dcor.state.ga.us/content/CVD_Dashboard,28,48,2,0,,,,,749,512,406,77,,,,,153 PINEWOOD DRIVE,31763,LEESBURG,LEE,31.76369451,-84.19354919,13177,10000323,
374,state,Georgia,LONG UNIT,2021-06-07,http://www.dcor.state.ga.us/content/CVD_Dashboard,9,19,1,0,,,,,223,113,100,14,,,,,,,,,,,,,
375,state,Georgia,MACON STATE PRISON,2021-06-07,http://www.dcor.state.ga.us/content/CVD_Dashboard,38,66,2,0,,,,,1706,1450,889,58,,,,,2728 SOUTH 49 HWY,31068,OGLETHORPE,MACON,32.25930659,-84.09144003,13193,10002137,
376,state,Georgia,MACON TRANSITIONAL CENTER,2021-06-07,http://www.dcor.state.ga.us/content/CVD_Dashboard,10,4,1,0,,,,,134,155,116,13,,,,,200 HENRY ST,31206,MACON,BIBB,32.81494127,-83.63770702,13021,10001423,
377,state,Georgia,MCEVER PDC,2021-06-07,http://www.dcor.state.ga.us/content/CVD_Dashboard,34,16,0,0,,,,,,,101,24,,,,,2100 KINGS CHAPEL ROAD,31069,PERRY,HOUSTON,32.46494728,-83.69501268,13153,10004500,
379,state,Georgia,METRO REENTRY FACILITY,2021-06-07,http://www.dcor.state.ga.us/content/CVD_Dashboard,4,30,0,0,,,,,351,147,108,50,,,,,1303 CONSTITUTION ROAD,30316,ATLANTA,DEKALB,33.687261,-84.336355,13089,10001414,
380,state,Georgia,METRO TRANSITIONAL CENTER,2021-06-07,http://www.dcor.state.ga.us/content/CVD_Dashboard,10,12,0,0,,,,,228,194,140,13,,,,,1303 CONSTITUTION ROAD,30316,ATLANTA,DEKALB,33.6885252,-84.336397,13089,10001414,
381,state,Georgia,MITCHELL COUNTY CORRECTIONAL INSTITUTION,2021-06-07,http://www.dcor.state.ga.us/content/CVD_Dashboard,3,0,0,0,,,,,141,105,59,0,,,,,4838 STATE HWY 37 E,31730,CAMILLA,MITCHELL,31.2324018,-84.180085,13205,10002149,
382,state,Georgia,MONTGOMERY STATE PRISON,2021-06-07,http://www.dcor.state.ga.us/content/CVD_Dashboard,22,29,1,0,,,,,416,230,132,10,,,,,650 MOUNT VERNON ALSTON ROAD,30445,MOUNT VERNON,MONTGOMERY,32.16187443,-82.56612123,13209,10000308,
383,state,Georgia,MUSCOGEE COUNTY CORRECTIONAL INSTITUTION,2021-06-07,http://www.dcor.state.ga.us/content/CVD_Dashboard,4,0,0,0,,,,,535,351,251,0,,,,,,,COLUMBUS,,,,,,
384,state,Georgia,NORTHWEST RESIDENTIAL SUBSTANCE ABUSE TREATMENT,2021-06-07,http://www.dcor.state.ga.us/content/CVD_Dashboard,18,0,0,0,,,,,,,87,0,,,,,,,ROCK SPRING,,,,,,
385,state,Georgia,PATTEN PROBATION DETENTION CENTER,2021-06-07,http://www.dcor.state.ga.us/content/CVD_Dashboard,15,13,0,0,,,,,,,75,25,,,,,1009 NORTH 10TH AVENUE,31635,LAKELAND,LANIER,31.03988304,-83.0617537,13173,10004551,
386,state,Georgia,PAULDING RESIDENTIAL SUBSTANCE ABUSE TREATMENT,2021-06-07,http://www.dcor.state.ga.us/content/CVD_Dashboard,51,29,0,0,,,,,150,,82,15,,,,,1295 N INDUSTRIAL BLVD,30132,DALLAS,PAULDING,33.94976674,-84.81466644,13223,10002108,
387,state,Georgia,PHILLIPS STATE PRISON,2021-06-07,http://www.dcor.state.ga.us/content/CVD_Dashboard,113,52,1,0,,,,,1083,854,536,41,,,,,2989 WEST ROCK QUARRY ROAD,30519,BUFORD,GWINNETT,34.0942918,-83.9105205,13135,10002106,
388,state,Georgia,PHILLIPS TRANSITIONAL CENTER,2021-06-07,http://www.dcor.state.ga.us/content/CVD_Dashboard,9,3,0,0,,,,,187,192,62,1,,,,,2989 W ROCK QUARRY ROAD,30519,BUFORD,GWINNETT,34.09554623,-83.90946974,13135,10002105,
389,state,Georgia,PULASKI STATE PRISON,2021-06-07,http://www.dcor.state.ga.us/content/CVD_Dashboard,118,64,1,0,,,,,1187,819,659,20,,,,,373 UPPER RIVER ROAD,31036,HAWKINSVILLE,PULASKI,32.3115199,-83.45723464,13235,10000307,
390,state,Georgia,RICHMOND COUNTY CORRECTIONAL INSTITUTION,2021-06-07,http://www.dcor.state.ga.us/content/CVD_Dashboard,12,0,0,0,,,,,239,163,102,0,,,,,2314 TOBACCO RD,30906,AUGUSTA,RICHMOND,33.37332514,-82.0392013,13245,10001419,
391,state,Georgia,RIVERBEND CORRECTIONAL FACILITY,2021-06-07,http://www.dcor.state.ga.us/content/CVD_Dashboard,18,0,3,0,,,,,1517,1130,879,0,,,,,196 LAYING FARM ROAD,31061,MILLEDGEVILLE,BALDWIN,33.02808425,-83.219548,13009,10006322,
392,state,Georgia,ROGERS STATE PRISON,2021-06-07,http://www.dcor.state.ga.us/content/CVD_Dashboard,20,28,1,0,,,,,1438,1172,439,18,,,,,1978 GEORGIA HIGHWAY 147,30453,REIDSVILLE,TATTNALL,32.00090161,-82.17994887,13267,10000310,
393,state,Georgia,RUTLEDGE STATE PRISON,2021-06-07,http://www.dcor.state.ga.us/content/CVD_Dashboard,27,28,2,0,,,,,630,551,417,33,,,,,7175 MANOR ROAD,31907,COLUMBUS,MUSCOGEE,32.49582796,-84.86617971,13215,10000304,
394,state,Georgia,SCREVEN COUNTY CORRECTIONAL INSTITUTION,2021-06-07,http://www.dcor.state.ga.us/content/CVD_Dashboard,0,0,0,0,,,,,145,107,54,0,,,,,859 ROCKYFORD ROAD,30467,SYLVANIA,SCREVEN,32.750259990000004,-81.67027866,13251,10005184,
395,state,Georgia,SMITH STATE PRISON,2021-06-07,http://www.dcor.state.ga.us/content/CVD_Dashboard,26,23,1,0,,,,,1493,1381,429,23,,,,,9676 UNITED STATES HIGHWAY 301 NORTH,30427,GLENNVILLE,TATTNALL,31.97310836,-81.91578361,13267,10000309,
396,state,Georgia,SMITH TRANSITIONAL CENTER,2021-06-07,http://www.dcor.state.ga.us/content/CVD_Dashboard,10,3,0,0,,,,,207,179,82,10,,,,,8631 UNITED STATES HIGHWAY 301 NORTH,30417,CLAXTON,EVANS,32.17946064,-81.89434266,13109,10004515,
398,state,Georgia,SPALDING COUNTY CORRECTIONAL INSTITUTION,2021-06-07,http://www.dcor.state.ga.us/content/CVD_Dashboard,0,0,0,0,,,,,377,284,139,0,,,,,295 JUSTICE BLVD,30223,GRIFFIN,SPALDING,33.23601744,-84.29297557,13255,10002125,
399,state,Georgia,SUMTER COUNTY CORRECTIONAL INSTITUTION,2021-06-07,http://www.dcor.state.ga.us/content/CVD_Dashboard,0,0,0,0,,,,,357,234,109,0,,,,,,,,,,,,,
400,state,Georgia,TELFAIR STATE PRISON,2021-06-07,http://www.dcor.state.ga.us/content/CVD_Dashboard,81,37,6,0,,,,,1396,1159,750,32,,,,,210 LONGBRIDGE ROAD,31037,HELENA,TELFAIR,32.08798443,-82.90954913,13271,10000316,
401,state,Georgia,TERRELL COUNTY CORRECTIONAL INSTITUTION,2021-06-07,http://www.dcor.state.ga.us/content/CVD_Dashboard,0,0,0,0,,,,,142,91,67,0,,,,,3110 ALBANY HIGHWAY,39842,DAWSON,TERRELL,31.7420575,-84.41413376,13273,10004524,
402,state,Georgia,TREUTLEN PROBATION DETENTION CENTER,2021-06-07,http://www.dcor.state.ga.us/content/CVD_Dashboard,65,25,0,0,,,,,,,39,18,,,,,1 SESSIONS STREET,30457,SOPERTON,TREUTLEN,32.3624615,-82.60238104,13283,10005191,
403,state,Georgia,TURNER RESIDENTIAL SUBSTANCE ABUSE TREATMENT,2021-06-07,http://www.dcor.state.ga.us/content/CVD_Dashboard,49,19,0,0,,,,,,,54,14,,,,,514 SOUTH RAILROAD AVE,31790,SYCAMORE,TURNER,31.6621587,-83.63393731,13287,10005201,
404,state,Georgia,VALDOSTA STATE PRISON,2021-06-07,http://www.dcor.state.ga.us/content/CVD_Dashboard,57,93,0,0,,,,,781,791,447,37,,,,,3259 VALTECH RD,31601,VALDOSTA,LOWNDES,30.85995723,-83.34575403,13185,10000328,
405,state,Georgia,VALDOSTA TRANSITIONAL CENTER,2021-06-07,http://www.dcor.state.ga.us/content/CVD_Dashboard,6,13,0,0,,,,,159,154,100,18,,,,,263 GILL HARBIN INDUSTRIAL BLVD.,31601,VALDOSTA,LOWNDES,30.80565871,-83.2675069,13185,10001432,
406,state,Georgia,WALKER STATE PRISON,2021-06-07,http://www.dcor.state.ga.us/content/CVD_Dashboard,64,33,1,0,,,,,415,366,323,28,,,,,97 KEVIN LANE,30739,ROCK SPRING,WALKER,34.8087205,-85.26194184,13295,10000283,
407,state,Georgia,WARE STATE PRISON,2021-06-07,http://www.dcor.state.ga.us/content/CVD_Dashboard,32,67,4,0,,,,,1549,1077,548,34,,,,,3620 NORTH HARRIS ROAD,31501,WAYCROSS,WARE,31.25673084,-82.39335661,13299,10002147,
408,state,Georgia,WASHINGTON STATE PRISON,2021-06-07,http://www.dcor.state.ga.us/content/CVD_Dashboard,43,9,0,0,,,,,1577,1400,686,50,,,,,13262 HWY 24 E,31018,DAVISBORO,WASHINGTON,32.98872379,-82.59490798,13303,10002126,
409,state,Georgia,WEST CENTRAL INTEGRATED TREATMENT FACILITY,2021-06-07,http://www.dcor.state.ga.us/content/CVD_Dashboard,45,28,0,0,,,,,,,66,16,,,,,1070 COUNTY FARM ROAD,30295,ZEBULON,PIKE,33.11609815,-84.3610402,13231,10004487,
410,state,Georgia,WHEELER CORRECTIONAL FACILITY,2021-06-07,http://www.dcor.state.ga.us/content/CVD_Dashboard,172,0,13,0,,,,,2651,2134,999,0,,,,,195 NORTH BROAD STREET,30411,ALAMO,WHEELER,32.1504927,-82.79500753,13309,10002142,
411,state,Georgia,WHITWORTH WOMENS FACILITY,2021-06-07,http://www.dcor.state.ga.us/content/CVD_Dashboard,21,23,1,0,,,,,442,254,213,22,,,,,,,,,,,,10004453,
412,state,Georgia,WILCOX STATE PRISON,2021-06-07,http://www.dcor.state.ga.us/content/CVD_Dashboard,71,39,3,1,,,,,1856,1632,932,46,,,,,470 SOUTH BROAD STREET,31001,ABBEVILLE,WILCOX,31.98502256,-83.30017247,13315,10000318,
413,state,Georgia,WOMENS PROBATION DETENTION CENTER,2021-06-07,http://www.dcor.state.ga.us/content/CVD_Dashboard,29,14,0,0,,,,,,,58,11,,,,,,,CLAXTON,,,,,,
414,state,Hawaii,HALAWA CORRECTIONAL FACILITY,2021-06-07,https://dps.hawaii.gov/blog/2020/03/17/coronavirus-covid-19-information-and-resources/,546,,7,,3349,,0,0,852,,,,,,,,99-902 MOANALUA RD,96701,AIEA,HONOLULU,21.37379134,-157.8989822,15003,10000124,
415,state,Hawaii,HAWAII COMMUNITY CORRECTIONAL CENTER,2021-06-07,https://dps.hawaii.gov/blog/2020/03/17/coronavirus-covid-19-information-and-resources/,138,,0,,883,,136,11,515,,,,,,,,60 PUNAHELE STREET,96720,HILO,HAWAII,19.71830866,-155.0989632,15001,10003694,
417,state,Hawaii,KAUAI COMMUNITY CORRECTIONAL CENTER,2021-06-07,https://dps.hawaii.gov/blog/2020/03/17/coronavirus-covid-19-information-and-resources/,0,,0,,343,,0,0,159,,,,,,,,3-5351 KUHIO HIGHWAY,96766,LIHUE,KAUAI,22.02515252,-159.3428192,15007,10003692,
418,state,Hawaii,KULANI CORRECTIONAL FACILITY,2021-06-07,https://dps.hawaii.gov/blog/2020/03/17/coronavirus-covid-19-information-and-resources/,0,,0,,268,,0,0,184,,,,,,,,HC 01 STAINBACK HWY,96720,HILO,HAWAII,19.54917893,-155.3011053,15001,10000128,
419,state,Hawaii,MAUI COMMUNITY CORRECTIONAL CENTER,2021-06-07,https://dps.hawaii.gov/blog/2020/03/17/coronavirus-covid-19-information-and-resources/,98,,0,,1482,,0,0,452,,,,,,,,600 WAIALE DR,96793,WAILUKU,MAUI,20.87701605,-156.4983753,15009,10000127,
422,state,Hawaii,OHAU COMMUNITY CORRECTIONAL CENTER,2021-06-07,https://dps.hawaii.gov/blog/2020/03/17/coronavirus-covid-19-information-and-resources/,460,,0,,8098,,0,0,1268,,,,,,,,2199 KAMEHAMEHA HIGHWAY,96819,HONOLULU,HONOLULU,21.32989382,-157.884874,15003,10003691,
423,state,Hawaii,SAGUARO CORRECTIONAL CENTER,2021-06-07,https://dps.hawaii.gov/blog/2020/03/17/coronavirus-covid-19-information-and-resources/,657,,2,,3012,,0,,1226,,,,,,,,1250 EAST ARICA ROAD,85131,ELOY,PINAL,32.80930398,-111.5264356,04021,10003973,
425,state,Hawaii,WAIAWA CORRECTIONAL FACILITY,2021-06-07,https://dps.hawaii.gov/blog/2020/03/17/coronavirus-covid-19-information-and-resources/,213,,0,,899,,0,,202,,,,,,,,94-560 KAMEHAMEHA HWY,96797,WAIPAHU,HONOLULU,21.44465003,-157.9609092,15003,10001191,
426,state,Hawaii,WOMENS COMMUNITY CORRECTIONAL CENTER,2021-06-07,https://dps.hawaii.gov/blog/2020/03/17/coronavirus-covid-19-information-and-resources/,0,,0,,785,,0,0,278,,,,,,,,42-477 KALANIANAOLE HWY,96734,KAILUA,HONOLULU,21.37802504,-157.7484499,15003,10000126,
427,state,Idaho,CAPP,2021-06-07,https://www.idoc.idaho.gov/content/careers/covid-19,,,,,,,,,431,,164,,162,,,,15505 SOUTH PLEASANT VALLEY ROAD,83634,KUNA,ADA,43.46183741,-116.2357735,16001,10006544,
428,state,Idaho,CENTRAL OFFICE,2021-06-07,https://www.idoc.idaho.gov/content/careers/covid-19,,24,,,,,,1,,,,,,,,,,,,,,,,,
429,state,Idaho,DISTRICT 1,2021-06-07,https://www.idoc.idaho.gov/content/careers/covid-19,,7,,,,,,0,,,,,,,,,,,,,,,,,
430,state,Idaho,DISTRICT 3,2021-06-07,https://www.idoc.idaho.gov/content/careers/covid-19,,8,,,,,,0,,,,,,,,,,,,,,,,,
431,state,Idaho,DISTRICT 4,2021-06-07,https://www.idoc.idaho.gov/content/careers/covid-19,,16,,,,,,0,,,,,,,,,,,,,,,,,
432,state,Idaho,DISTRICT 5,2021-06-07,https://www.idoc.idaho.gov/content/careers/covid-19,,8,,,,,,0,,,,,,,,,,,,,,,,,
434,state,Idaho,EAST BOISE COMMUNITY REENTRY CENTER,2021-06-07,https://www.idoc.idaho.gov/content/careers/covid-19,,5,,,,,,0,109,,138,,138,,,,2366 OLD PENITENTIARY RD,83712,BOISE,ADA,43.60314093,-116.1638439,16001,10001184,
435,state,Idaho,IDAHO CORRECTIONAL INSTITUTION OROFINO,2021-06-07,https://www.idoc.idaho.gov/content/careers/covid-19,,44,,,,,,0,576,,410,,410,,,,381 WEST HOSPITAL DRIVE,83544,OROFINO,CLEARWATER,46.49197836,-116.2607095,16035,10001172,
436,state,Idaho,IDAHO FALLS COMMUNITY REENTRY CENTER,2021-06-07,https://www.idoc.idaho.gov/content/careers/covid-19,,5,,,,,,0,95,,74,,66,,,,3955 BOMBARDIER AVE,83402,IDAHO FALLS,BONNEVILLE,43.46230015,-112.0639693,16019,10001186,
437,state,Idaho,IDAHO MAXIMUM SECURITY INSTIUTION,2021-06-07,https://www.idoc.idaho.gov/content/careers/covid-19,,41,,,,,,0,1473,,16,,15,,,,13500 S PLEASANT VALLEY RD,83634,KUNA,ADA,43.47938786,-116.2189574,16001,10001181,
438,state,Idaho,IDAHO STATE CORRECTIONAL CENTER,2021-06-07,https://www.idoc.idaho.gov/content/careers/covid-19,,95,,,,,,0,2181,,1026,,984,,,,14601 S PLEASANT VALLEY RD,83634,KUNA,ADA,43.47119944,-116.2375874,16001,10001183,
439,state,Idaho,IDAHO STATE CORRECTIONAL INSTITUTION,2021-06-07,https://www.idoc.idaho.gov/content/careers/covid-19,,101,,,,,,0,1473,,895,,857,,,,13500 S PLEASANT VALLEY RD,83634,KUNA,ADA,43.47938786,-116.2189574,16001,10001181,
441,state,Idaho,NORTH IDAHO CORRRECTIONAL INSTIUTION,2021-06-07,https://www.idoc.idaho.gov/content/careers/covid-19,,16,,,,,,2,409,,126,,126,,,,236 RADAR RD,83522,COTTONWOOD,IDAHO,46.07917307,-116.4280588,16049,10001173,
442,state,Idaho,POCATELLO WOMENS CORRECTIONAL CENTER,2021-06-07,https://www.idoc.idaho.gov/content/careers/covid-19,,9,,,,,,0,323,,209,,209,,,,1451 FORE RD,83204,POCATELLO,BANNOCK,42.84256222,-112.4506302,16005,10001187,
443,state,Idaho,SAINT ANTHONY WORK CAMP,2021-06-07,https://www.idoc.idaho.gov/content/careers/covid-19,,18,,,,,,0,253,,161,,142,,,,125 N 8TH W,83445,ST ANTHONY,FREMONT,43.96809846,-111.6935417,16043,10001176,
444,state,Idaho,SOUTH BOISE WOMENS CORRECTIONAL CENTER,2021-06-07,https://www.idoc.idaho.gov/content/careers/covid-19,,23,,,,,,0,293,,101,,2,,,,13200 S PLEASANT VALLEY RD,83634,KUNA,ADA,43.48338,-116.23392,16001,10001185,
445,state,Idaho,SOUTH IDAHO CORRECTIONAL INSTIUTION,2021-06-07,https://www.idoc.idaho.gov/content/careers/covid-19,,37,,,,,,0,1473,,529,,498,,,,13500 S PLEASANT VALLEY RD,83634,KUNA,ADA,43.47938786,-116.2189574,16001,10001181,
446,state,Idaho,STATEWIDE,2021-06-07,https://www.idoc.idaho.gov/content/careers/covid-19,4289,,5,,34686,,79,,,,,,,,,,,,,,,,,,
447,state,Idaho,TREASURE VALLEY COMMUNITY REENTRY CENTER,2021-06-07,https://www.idoc.idaho.gov/content/careers/covid-19,,1,,,,,,0,102,,58,,52,,,,14195 S PLEASANT VALLEY RD,83634,KUNA,ADA,43.6574178,-116.6678165,16001,10004339,
449,state,Illinois,BIG MUDDY RIVER CORRECTIONAL CENTER,2021-06-07,https://www2.illinois.gov/idoc/facilities/Pages/Covid19Response.aspx,373,108,,,17979,,0,0,1218,,,,,,,,251 NORTH ILLINOIS HIGHWAY 37,62846,INA,JEFFERSON,38.13064497,-88.90835135,17081,10002259,
451,state,Illinois,CENTRALIA CORRECTIONAL CENTER,2021-06-07,https://www2.illinois.gov/idoc/facilities/Pages/Covid19Response.aspx,131,148,,,32278,,0,0,1209,,,,,,,,9330 SHATTUC ROAD,62801,CENTRALIA,CLINTON,38.55384409,-89.19170102,17027,10000683,
454,county,Illinois,COOK COUNTY JAIL,2021-06-07,https://www.cookcountysheriff.org/covid-19-cases-at-ccdoc/,1142,1265,10,5,,,9,,8216,,,,,,,,2700 SOUTH CALIFORNIA AVENUE,60608,CHICAGO,COOK,41.8425,-87.6971,17031,10000634,
455,state,Illinois,CROSSROADS ADULT TRANSITION CENTER,2021-06-07,https://www2.illinois.gov/idoc/facilities/Pages/Covid19Response.aspx,5,1,,,0,,0,0,325,,,,,,,,3210 WEST ARTHINGTON STREET,60624,CHICAGO,COOK,41.87048357,-87.70635938,17031,10000635,
456,state,Illinois,DANVILLE CORRECTIONAL CENTER,2021-06-07,https://www2.illinois.gov/idoc/facilities/Pages/Covid19Response.aspx,969,168,,,33830,,0,4,1605,,,,,,,,3820 EAST MAIN STREET,61834,DANVILLE,VERMILION,40.12956679,-87.53645593,17183,10000662,
457,state,Illinois,DECATUR CORRECTIONAL CENTER,2021-06-07,https://www2.illinois.gov/idoc/facilities/Pages/Covid19Response.aspx,85,62,,,6530,,1,1,535,,,,,,,,2310 EAST MOUND ROAD,62524,DECATUR,MACON,39.89511506,-88.92662636,17115,10000669,
458,state,Illinois,DIXON CORRECTIONAL INSTITUTE,2021-06-07,https://www2.illinois.gov/idoc/facilities/Pages/Covid19Response.aspx,592,318,,,49481,,0,0,2051,,,,,,,,2600 NORTH BRINTON AVENUE,61021,DIXON,LEE,41.8737451,-89.47817317,17103,10000642,
459,state,Illinois,EAST MOLINE CORRECTIONAL CENTER,2021-06-07,https://www2.illinois.gov/idoc/facilities/Pages/Covid19Response.aspx,399,89,,,24843,,0,0,1175,,,,,,,,100 HILLCREST ROAD,61244,EAST MOLINE,ROCK ISLAND,41.53372905,-90.41912151,17161,10000644,
460,state,Illinois,ELGIN TREATMENT CENTER,2021-06-07,https://www2.illinois.gov/idoc/facilities/Pages/Covid19Response.aspx,1,22,,,485,,0,2,18,,,,,,,,750 SOUTH STATE STREET,60123,ELGIN,KANE,42.02130557,-88.28448575,17089,10006979,
461,state,Illinois,FOX VALLEY ADULT TRANSITION CENTER,2021-06-07,https://www2.illinois.gov/idoc/facilities/Pages/Covid19Response.aspx,4,10,,,495,,0,0,127,,,,,,,,1329 N LAKE ST,60506,AURORA,KANE,41.78792125,-88.3202916,17089,10000638,
462,state,Illinois,GENERAL OFFICE,2021-06-07,https://www2.illinois.gov/idoc/facilities/Pages/Covid19Response.aspx,0,30,,,0,,0,0,,,,,,,,,,,,,,,,,
463,state,Illinois,GRAHAM CORRECTIONAL CENTER,2021-06-07,https://www2.illinois.gov/idoc/facilities/Pages/Covid19Response.aspx,714,188,,,19698,,0,1,1803,,,,,,,,12078 ILLINOIS ROUTE 185,62049,HILLSBORO,MONTGOMERY,39.12648969,-89.47493262,17135,10000674,
465,state,Illinois,HILL CORRECTIONAL CENTER,2021-06-07,https://www2.illinois.gov/idoc/facilities/Pages/Covid19Response.aspx,375,95,,,26186,,0,1,1643,,,,,,,,600 SOUTH LINWOOD ROAD,61401,GALESBURG,KNOX,40.93974548,-90.40695799,17095,10000653,
466,state,Illinois,ILLINOIS RIVER CORRECTIONAL CENTER,2021-06-07,https://www2.illinois.gov/idoc/facilities/Pages/Covid19Response.aspx,221,160,,,18443,,0,0,1810,,,,,,,,1300 WEST LOCUST STREET,61520,CANTON,FULTON,40.55672719,-90.08258486,17057,10000660,
467,state,Illinois,JACKSONVILLE CORRECTIONAL CENTER,2021-06-07,https://www2.illinois.gov/idoc/facilities/Pages/Covid19Response.aspx,473,174,,,6177,,0,1,965,,,,,,,,2268 EAST MORTON AVENUE,62650,JACKSONVILLE,MORGAN,39.72668976,-90.17561449,17137,10000671,
468,state,Illinois,JOLIET TREATMENT CENTER,2021-06-07,https://www2.illinois.gov/idoc/facilities/Pages/Covid19Response.aspx,12,100,,,7004,,0,2,196,,,,,,,,2848 WEST MCDONOUGH,60436,JOLIET,WILL,41.51234669,-88.15264614,17197,10000646,
469,state,Illinois,KEWANEE LIFE SKILLS REENTRY CENTER,2021-06-07,https://www2.illinois.gov/idoc/facilities/Pages/Covid19Response.aspx,15,60,,,1923,,0,0,278,,,,,,,,2021 KENTVILLE ROAD,61443,KEWANEE,HENRY,41.25333209,-89.89171233,17073,10004677,
470,state,Illinois,LAWRENCE CORRECTIONAL CENTER,2021-06-07,https://www2.illinois.gov/idoc/facilities/Pages/Covid19Response.aspx,1039,226,,,51510,,0,0,2042,,,,,,,,10940 LAWRENCE ROAD,62466,SUMNER,LAWRENCE,38.72823,-87.90591,17101,10000682,
471,state,Illinois,LINCOLN CORRECTIONAL CENTER,2021-06-07,https://www2.illinois.gov/idoc/facilities/Pages/Covid19Response.aspx,275,91,,,4907,,0,0,964,,,,,,,,1098 1350TH STREET,62656,LINCOLN,LOGAN,40.11823756,-89.38908259,17107,10000664,
472,state,Illinois,LOGAN CORRECTIONAL CENTER,2021-06-07,https://www2.illinois.gov/idoc/facilities/Pages/Covid19Response.aspx,596,243,,,28341,,0,1,1588,,,,,,,,1096 1350TH STREET,62656,LINCOLN,LOGAN,40.1140649,-89.3881401,17107,10000665,
474,state,Illinois,MENARD CORRECTIONAL CENTER,2021-06-07,https://www2.illinois.gov/idoc/facilities/Pages/Covid19Response.aspx,244,305,,,68932,,1,2,1834,,,,,,,,711 KASKASKIA STREET,62259,MENARD,RANDOLPH,37.912685690000004,-89.84197817,17157,10000687,
476,state,Illinois,MURPHYSBORO CORRECTIONAL CENTER,2021-06-07,https://www2.illinois.gov/idoc/facilities/Pages/Covid19Response.aspx,56,36,,,1259,,0,0,171,,,,,,,,,,,,,,,,
477,state,Illinois,NORTH LAWNDALE ADULT TRANSITION CENTER,2021-06-07,https://www2.illinois.gov/idoc/facilities/Pages/Covid19Response.aspx,7,9,,,0,,0,1,200,,,,,,,,2839 WEST FILLMORE STREET,60612,CHICAGO,COOK,41.868038,-87.697785,17031,10000636,
478,state,Illinois,PAROLE,2021-06-07,https://www2.illinois.gov/idoc/facilities/Pages/Covid19Response.aspx,0,58,,,0,,0,2,,,,,,,,,,,,,,,,,
480,state,Illinois,PEORIA ADULT TRANSITION CENTER,2021-06-07,https://www2.illinois.gov/idoc/facilities/Pages/Covid19Response.aspx,15,21,,,1580,,0,0,244,,,,,,,,,,PEORIA,,,,,10000657,
481,state,Illinois,PINCKNEYVILLE CORRECTIONAL CENTER,2021-06-07,https://www2.illinois.gov/idoc/facilities/Pages/Covid19Response.aspx,871,186,,,30107,,1,0,1901,,,,,,,,5835 STATE ROUTE 154,62274,PINCKNEYVILLE,PERRY,38.0866456,-89.3272605,17145,10000688,
482,state,Illinois,PONTIAC CORRECTIONAL CENTER,2021-06-07,https://www2.illinois.gov/idoc/facilities/Pages/Covid19Response.aspx,342,366,,,33127,,1,4,1160,,,,,,,,700 WEST LINCOLN STREET,61764,PONTIAC,LIVINGSTON,40.86928355,-88.63603689,17105,10000655,
483,state,Illinois,ROBINSON CORRECTIONAL CENTER,2021-06-07,https://www2.illinois.gov/idoc/facilities/Pages/Covid19Response.aspx,380,102,,,11726,,0,2,1121,,,,,,,,13423 EAST 1150TH AVENUE,62454,ROBINSON,CRAWFORD,39.01935425,-87.69758953,17033,10000678,
485,state,Illinois,SHAWNEE CORRECTIONAL CENTER,2021-06-07,https://www2.illinois.gov/idoc/facilities/Pages/Covid19Response.aspx,278,120,,,26307,,1,2,1576,,,,,,,,6665 STATE ROUTE 146 EAST,62995,VIENNA,JOHNSON,37.40038459,-88.77535417,17087,10000695,
486,state,Illinois,SHERIDAN CORRECTIONAL CENTER,2021-06-07,https://www2.illinois.gov/idoc/facilities/Pages/Covid19Response.aspx,464,149,,,30160,,0,0,1670,,,,,,,,4017 EAST 2603 ROAD,60551,SHERIDAN,LA SALLE,41.51604912,-88.68465975,17099,10000652,
487,state,Illinois,SOUTHWESTERN ILLINOIS CORRECTIONAL CENTER,2021-06-07,https://www2.illinois.gov/idoc/facilities/Pages/Covid19Response.aspx,48,101,,,5039,,0,0,598,,,,,,,,950 KINGSHIGHWAY ST,62203,EAST ST LOUIS,ST CLAIR,38.61691302,-90.0908182,17163,10000685,
488,state,Illinois,STATEVILLE CORRECTIONAL CENTER,2021-06-07,https://www2.illinois.gov/idoc/facilities/Pages/Covid19Response.aspx,306,201,,,36489,,1,2,1262,,,,,,,,16830 SOUTH BROADWAY STREET,60434,JOLIET,WILL,41.57873778,-88.09456267,17197,10000647,
489,state,Illinois,STATEVILLE NORTHERN RECEPTION AND CLASSIFICATION CENTER,2021-06-07,https://www2.illinois.gov/idoc/facilities/Pages/Covid19Response.aspx,356,166,,,31199,,1,5,1302,,,,,,,,16830 SOUTH BROADWAY STREET,60434,JOLIET,WILL,41.57873778,-88.09456267,17197,10000647,
490,state,Illinois,TAYLORVILLE CORRECTIONAL CENTER,2021-06-07,https://www2.illinois.gov/idoc/facilities/Pages/Covid19Response.aspx,456,103,,,9172,,0,0,1028,,,,,,,,1144 ILLINOIS ROUTE 29,62568,TAYLORVILLE,CHRISTIAN,39.51525785,-89.2264661,17021,10000673,
492,state,Illinois,VANDALIA CORRECTIONAL CENTER,2021-06-07,https://www2.illinois.gov/idoc/facilities/Pages/Covid19Response.aspx,497,150,,,4544,,0,1,1068,,,,,,,,ROUTE 51 NORTH,62471,VANDALIA,FAYETTE,39.01089284,-89.09608515,17051,10000677,
493,state,Illinois,VIENNA CORRECTIONAL CENTER,2021-06-07,https://www2.illinois.gov/idoc/facilities/Pages/Covid19Response.aspx,98,117,,,7739,,0,5,920,,,,,,,,6695 STATE ROUTE 146 EAST,62995,VIENNA,JOHNSON,37.40562486,-88.7701425,17087,10004734,
494,state,Illinois,WESTERN ILLINOIS CORRECTIONAL CENTER,2021-06-07,https://www2.illinois.gov/idoc/facilities/Pages/Covid19Response.aspx,214,130,,,20881,,1,12,1633,,,,,,,,2500 RT. 99 SOUTH,62353,MOUNT STERLING,BROWN,39.96285696,-90.75396657,17009,10000667,
495,state,Indiana,BRANCHVILLE CORRECTIONAL FACILITY,2021-06-07,https://www.in.gov/idoc/3780.htm,255,66,1,0,738,,0,0,1387,1248,,,,,,,21390 OLD STATE RD 37,47514,BRANCHVILLE,PERRY,38.15137828,-86.59980056,18123,10001075,
497,state,Indiana,CENTRAL OFFICE,2021-06-07,https://www.in.gov/idoc/3780.htm,,40,,0,,,,0,,,,,,,,,,,,,,,,,
498,state,Indiana,CHAIN OLAKES CORRECTIONAL FACILITY,2021-06-07,https://www.in.gov/idoc/3780.htm,83,5,0,0,180,,0,0,135,102,,,,,,,3516 E 75 SOUTH,46701,ALBION,NOBLE,41.33701028,-85.35310253,18113,10004895,
500,state,Indiana,CORRECTIONAL INDUSTRIAL FACILITY,2021-06-07,https://www.in.gov/idoc/3780.htm,135,107,3,0,583,,0,1,1458,1231,,,,,,,5124 W REFORMATORY RD,46064,PENDLETON,MADISON,39.97598494,-85.77135909,18095,10001060,
501,state,Indiana,EDINBURGH CORRECTIONAL FACILITY,2021-06-07,https://www.in.gov/idoc/3780.htm,16,23,0,0,207,,0,0,340,289,,,,,,,"P.O. BOX 470, 23RD & SCHOOLHOUSE RD",46124,EDINBURGH,JOHNSON,39.35145302,-86.0386027,18081,10004920,
502,state,Indiana,HERITAGE TRAIL CORRECTIONAL FACILITY,2021-06-07,https://www.in.gov/idoc/3780.htm,61,34,0,0,344,,0,1,857,806,,,,,,,501 WEST MAIN STREET,46168,PLAINFIELD,HENDRICKS,39.69366223,-86.40761718,18063,10006309,
503,state,Indiana,INDIANA STATE PRISON,2021-06-07,https://www.in.gov/idoc/3780.htm,72,115,2,0,460,,0,2,2364,2190,,,,,,,1 PARK ROW,46360,MICHIGAN CITY,LAPORTE,41.70343089,-86.9173169,18091,10005599,
504,state,Indiana,INDIANA WOMENS PRISON,2021-06-07,https://www.in.gov/idoc/3780.htm,129,46,0,1,948,,0,2,696,555,,,,,,,2596 GIRLS SCHOOL ROAD,46214,INDIANAPOLIS,MARION,39.80094018,-86.29189795,18097,10001065,
505,state,Indiana,LAPORTE JUVENILE CORRECTIONAL FACILITY,2021-06-07,https://www.in.gov/idoc/3780.htm,16,21,0,0,169,,0,1,21,,,,,,,,"809 STATE ST, SUITE 201A",46350,LA PORTE,LAPORTE,41.61206231,-86.72292259,18091,10001053,
507,state,Indiana,LOGANSPORT JUVENILE CORRECTIONAL FACILITY,2021-06-07,https://www.in.gov/idoc/3780.htm,13,40,0,0,383,,0,0,23,,,,,,,,1118 S STATE RD 25,46947,LOGANSPORT,CASS,40.74154606,-86.40152309,18017,10004903,
508,state,Indiana,MADISON CORRECTIONAL FACILITY,2021-06-07,https://www.in.gov/idoc/3780.htm,305,31,0,0,2191,,0,0,709,485,,,,,,,1130 MSH 4TH STREET,47250,MADISON,JEFFERSON,38.74778116,-85.40047051,18077,10006545,
509,state,Indiana,MIAMI CORRECTIONAL FACILITY,2021-06-07,https://www.in.gov/idoc/3780.htm,251,99,11,1,1130,,0,2,3111,1859,,,,,,,3038 W 850 S,46914,BUNKER HILL,MIAMI,40.6459301,-86.13530041,18103,10001059,
510,state,Indiana,NEW CASTLE CORRECTIONAL FACILITY,2021-06-07,https://www.in.gov/idoc/3780.htm,367,103,10,0,1384,,0,4,3130,2939,,,,,,,1000 VAN NUYS RD,47362,NEW CASTLE,HENRY,39.96237788,-85.37022541,18065,10004913,
511,state,Indiana,PENDLETON CORRECTIONAL FACILITY,2021-06-07,https://www.in.gov/idoc/3780.htm,169,88,4,0,725,,1,1,1862,1699,,,,,,,4490 W REFORMATORY RD,46064,PENDLETON,MADISON,39.98338112,-85.76085702,18095,10001061,
512,state,Indiana,PENDLETON JUVENILE CORRECTIONAL FACILITY,2021-06-07,https://www.in.gov/idoc/3780.htm,56,64,0,0,393,,0,0,200,,,,,,,,9310 S STATE RD 67,46064,PENDLETON,MADISON,39.96907067,-85.77458045,18095,10001062,
513,state,Indiana,PLAINFIELD CORRECTIONAL FACILITY,2021-06-07,https://www.in.gov/idoc/3780.htm,140,104,8,0,922,,0,0,1499,1404,,,,,,,737 MOON RD,46168,PLAINFIELD,HENDRICKS,39.68899972,-86.41604046,18063,10001067,
515,state,Indiana,PUTNAMVILLE CORRECTIONAL FACILITY,2021-06-07,https://www.in.gov/idoc/3780.htm,280,111,3,1,1879,,0,2,2163,1965,,,,,,,1946 W US HWY 40,46135,GREENCASTLE,PUTNAM,39.56503726,-86.88666488,18133,10001071,
516,state,Indiana,RECEPTION AND DIAGNOSTIC CENTER,2021-06-07,https://www.in.gov/idoc/3780.htm,520,87,0,0,5926,,7,2,655,472,,,,,,,737 MOON RD,46168,PLAINFIELD,HENDRICKS,39.68899972,-86.41604046,18063,10001067,
517,state,Indiana,ROCKVILLE CORRECTIONAL FACILITY,2021-06-07,https://www.in.gov/idoc/3780.htm,344,80,0,0,3266,,2,1,1139,1052,,,,,,,811 W 50 N,47872,ROCKVILLE,PARKE,39.77431571,-87.25434717,18121,10001063,
519,state,Indiana,SOUTH BEND REENTRY CENTER,2021-06-07,https://www.in.gov/idoc/3780.htm,27,7,0,0,339,,0,0,186,144,,,,,,,,,,,,,,10001055,
524,state,Indiana,WABASH VALLEY CORRECTIONAL FACILITY,2021-06-07,https://www.in.gov/idoc/3780.htm,287,186,3,1,1430,,0,2,2102,2028,,,,,,,6908 S OLD US HWY 41,47838,CARLISLE,SULLIVAN,38.97792912,-87.40030287,18153,10001072,
525,state,Indiana,WESTVILLE CORRECTIONAL FACILITY,2021-06-07,https://www.in.gov/idoc/3780.htm,272,210,6,0,1074,,0,6,2989,2859,,,,,,,5501 S 1100 W,46391,WESTVILLE,LAPORTE,41.52575257,-86.90808495,18091,10001051,
526,state,Iowa,ANAMOSA STATE PENITENTIARY,2021-06-07,https://doc.iowa.gov/COVID19,870,155,6,,2420,,0,0,969,787,,,,,,,406 N HIGH ST,52205,ANAMOSA,JONES,42.11129071,-91.29127202,19105,10001082,
527,state,Iowa,CLARINDA CORRECTIONAL FACILITY,2021-06-07,https://doc.iowa.gov/COVID19,605,62,1,,5161,,0,0,987,955,,,,,,,2000 NORTH 16TH STREET,51632,CLARINDA,PAGE,40.76249094,-95.03582563,19145,10001099,
528,state,Iowa,FORT DODGE CORRECTIONAL FACILITY,2021-06-07,https://doc.iowa.gov/COVID19,565,91,4,,7229,,0,0,1252,1231,,,,,,,1550 L STREET,50501,FORT DODGE,WEBSTER,42.48489252,-94.19609253,19187,10001077,
529,state,Iowa,IOWA CORRECTIONAL INSTIUTION FOR WOMEN,2021-06-07,https://doc.iowa.gov/COVID19,26,39,0,,2784,,0,0,641,463,,,,,,,420 MILL STREET SOUTHWEST,50169,MITCHELLVILLE,POLK,41.66299579,-93.3661037,19153,10001087,
530,state,Iowa,IOWA MEDICAL AND CLASSIFICATION CENTER,2021-06-07,https://doc.iowa.gov/COVID19,563,108,5,,15714,,6,0,991,854,,,,,,,2700 CORAL RIDGE AVE,52241,CORALVILLE,JOHNSON,41.71369597,-91.61182585,19103,10001091,
531,state,Iowa,IOWA STATE PENITENTIARY,2021-06-07,https://doc.iowa.gov/COVID19,229,99,2,,2346,,0,1,702,719,,,,,,,2111 330TH AVENUE,52627,FORT MADISON,LEE,40.65361883,-91.30326789,19111,10001100,
532,state,Iowa,MT PLEASANT CORRECTIONAL FACILITY,2021-06-07,https://doc.iowa.gov/COVID19,791,61,0,,5888,,0,1,1018,875,,,,,,,1200 EAST WASHINGTON STREET,52641,MOUNT PLEASANT,HENRY,40.95581384,-91.53617358,19087,10001096,
533,state,Iowa,NEWTON CORRECTIONAL FACILITY,2021-06-07,https://doc.iowa.gov/COVID19,830,58,1,,5853,,0,0,924,1156,,,,,,,307 SOUTH 60TH AVENUE WEST,50208,NEWTON,JASPER,41.627170219999996,-93.05696851,19099,10001090,
534,state,Iowa,NORTH CENTRAL,2021-06-07,https://doc.iowa.gov/COVID19,391,34,0,,1080,,0,0,493,443,,,,,,,313 LANEDALE,50579,ROCKWELL CITY,CALHOUN,42.39222762,-94.60437667,19025,10001080,
535,county,Iowa,POLK COUNTY JAIL,2021-06-07,https://www.polkcountyiowa.gov/county-sheriff/news-press-releases/,1,2,,,2850,,,,911,,,,,,,,1985 NE 51ST PL,50309,DES MOINES,POLK,41.65332,-93.58793,19153,10001085,
536,state,Iowa,STATEWIDE,2021-06-07,https://doc.iowa.gov/COVID19,,,,2,,,,,,,,,,,,,,,,,,,,,
538,state,Kansas,EL DORADO CORRECTIONAL FACILITY,2021-06-07,https://www.doc.ks.gov/kdoc-coronavirus-updates/kdoc-covid-19-status,982,234,2,1,,,0,0,2026,,1290,269,,,,,1737 SOUTHEAST UNITED STATES HIGHWAY 54,67042,EL DORADO,BUTLER,37.80325673,-96.81713261,20015,10001045,
539,state,Kansas,ELLSWORTH CORRECTIONAL FACILITY,2021-06-07,https://www.doc.ks.gov/kdoc-coronavirus-updates/kdoc-covid-19-status,584,91,3,0,,,0,1,909,,670,122,,,,,1607 STATE STREET,67439,ELLSWORTH,ELLSWORTH,38.74301147,-98.23215008,20053,10001040,
541,state,Kansas,HUTCHINSON CORRECTIONAL FACILITY,2021-06-07,https://www.doc.ks.gov/kdoc-coronavirus-updates/kdoc-covid-19-status,1379,289,3,1,,,0,0,1898,,1125,182,,,,,500 REFORMATORY STREET,67504,HUTCHINSON,RENO,38.04458476,-97.91073579,20155,10001043,
542,state,Kansas,KANSAS JUVENILE CORRECTIONAL COMPLEX,2021-06-07,https://www.doc.ks.gov/kdoc-coronavirus-updates/kdoc-covid-19-status,21,72,0,0,,,1,0,167,,25,188,,,,,1430 NORTHWEST 25TH STREET,66618,TOPEKA,SHAWNEE,39.09678729,-95.68423367,20177,10001034,
543,state,Kansas,LANSING CORRECTIONAL FACILITY,2021-06-07,https://www.doc.ks.gov/kdoc-coronavirus-updates/kdoc-covid-19-status,1009,171,5,2,,,0,0,1683,,1054,318,,,,,301 EAST KANSAS AVE,66043,LANSING,LEAVENWORTH,39.25190411,-94.89130455,20103,10001030,
544,state,Kansas,LARNED CORRECTIONAL FACILITY,2021-06-07,https://www.doc.ks.gov/kdoc-coronavirus-updates/kdoc-covid-19-status,354,83,1,0,,,0,0,571,,419,97,,,,,1318 STATE HIGHWAY 264,67550,LARNED,PAWNEE,38.17710787,-99.15101294,20145,10001830,
546,state,Kansas,NORTON CORRECTIONAL FACILITY,2021-06-07,https://www.doc.ks.gov/kdoc-coronavirus-updates/kdoc-covid-19-status,766,128,0,0,,,0,0,971,,601,69,,,,,ROAD EAST 4 AND UNITED STATES HIGHWAY 36,67654,NORTON,NORTON,39.84416321,-99.81637284,20137,10001028,
549,state,Kansas,TOPEKA CORRECTIONAL FACILITY,2021-06-07,https://www.doc.ks.gov/kdoc-coronavirus-updates/kdoc-covid-19-status,524,110,0,1,,,1,0,899,,643,197,,,,,815 SOUTHEAST RICE ROAD,66607,TOPEKA,SHAWNEE,39.04069275,-95.6254707,20177,10001033,
550,state,Kansas,WICHITA WORK RELEASE,2021-06-07,https://www.doc.ks.gov/kdoc-coronavirus-updates/kdoc-covid-19-status,81,25,0,0,,,0,0,251,,,,,,,,401 SOUTH EMPORIA STREET,67202,WICHITA,SEDGWICK,37.68209659,-97.33329523,20173,10001048,
551,state,Kansas,WINFIELD CORRECTIONAL FACILITY,2021-06-07,https://www.doc.ks.gov/kdoc-coronavirus-updates/kdoc-covid-19-status,436,87,2,1,,,0,1,612,,523,163,,,,,1806 PINECREST CIRCLE,67156,WINFIELD,COWLEY,37.26426587,-96.97365125,20035,10001050,
553,state,Kentucky,BELL COUNTY FORESTRY CAMP,2021-06-07,https://corrections.ky.gov/Facilities/Pages/covid19.aspx,187,31,0,0,,,0,0,300,132,,,,,,,560 CORRECTIONAL DR,40977,PINEVILLE,BELL,36.6689938,-83.85169233,21013,10000122,
555,state,Kentucky,BLACKBURN CORRECTIONAL COMPLEX,2021-06-07,https://corrections.ky.gov/Facilities/Pages/covid19.aspx,230,38,1,0,,,0,0,317,262,,,,,,,3111 SPURR RD,40511,LEXINGTON,FAYETTE,38.11315935,-84.53720452,21067,10003650,
558,state,Kentucky,EASTERN KENTUCKY CORRECTIONAL COMPLEX,2021-06-07,https://corrections.ky.gov/Facilities/Pages/covid19.aspx,1162,188,1,0,,,0,1,1891,,,,,,,,200 ROAD TO JUSTICE,41472,WEST LIBERTY,MORGAN,37.90388911,-83.26930995,21175,10000110,
559,state,Kentucky,GREEN RIVER CORRECTIONAL COMPLEX,2021-06-07,https://corrections.ky.gov/Facilities/Pages/covid19.aspx,368,74,3,0,,,0,0,958,776,,,,,,,1200 RIVER RD,42330,CENTRAL CITY,MUHLENBERG,37.3143803,-87.11341674,21177,10000117,
560,state,Kentucky,KENTUCKY CORRECTIONAL INSTITUTION FOR WOMEN,2021-06-07,https://corrections.ky.gov/Facilities/Pages/covid19.aspx,404,70,0,0,,,0,0,711,606,,,,,,,3000 ASH AVE,40056,PEWEE VALLEY,SHELBY,38.2854756,-85.45711972,21211,10000106,
561,state,Kentucky,KENTUCKY STATE PENITENTIARY,2021-06-07,https://corrections.ky.gov/Facilities/Pages/covid19.aspx,681,105,1,0,,,0,0,848,738,,,,,,,266 WATER ST,42038,EDDYVILLE,LYON,37.04927104,-88.07574221,21143,10000120,
562,state,Kentucky,KENTUCKY STATE REFORMATORY,2021-06-07,https://corrections.ky.gov/Facilities/Pages/covid19.aspx,534,86,28,2,,,0,0,978,785,,,,,,,3001 W HWY 146,40032,LAGRANGE,OLDHAM,38.40389133,-85.41658269,21185,10000103,
563,state,Kentucky,LEE ADJUSTMENT CENTER,2021-06-07,https://corrections.ky.gov/Facilities/Pages/covid19.aspx,698,67,1,0,,,0,0,840,715,,,,,,,168 LEE ADJUSTMENT CENTER DRIVE,41311,BEATTYVILLE,LEE,37.6066831,-83.70579564,21129,10000115,
565,state,Kentucky,LITTLE SANDY CORRECTIONAL COMPLEX,2021-06-07,https://corrections.ky.gov/Facilities/Pages/covid19.aspx,576,60,1,0,,,0,0,1039,881,,,,,,,505 PRISON CONNECTOR,41171,SANDY HOOK,ELLIOTT,38.13392033,-83.08100422,21063,10000107,
566,state,Kentucky,LUTHER LUCKETT CORRECTIONAL COMPLEX,2021-06-07,https://corrections.ky.gov/Facilities/Pages/covid19.aspx,987,104,2,1,,,0,0,1173,993,,,,,,,1612 DAWKINS RD,40031,LAGRANGE,OLDHAM,38.41243087,-85.42599085,21185,10000101,
569,state,Kentucky,NORTHPOINT TRAINING CENTER,2021-06-07,https://corrections.ky.gov/Facilities/Pages/covid19.aspx,936,104,6,1,,,0,0,1245,1091,,,,,,,710 WALTER REED RD,40310,BURGIN,BOYLE,37.71002092,-84.74635681,21021,10000116,
570,state,Kentucky,ROEDERER CORRECTIONAL COMPLEX,2021-06-07,https://corrections.ky.gov/Facilities/Pages/covid19.aspx,717,77,0,1,,,0,0,1227,,,,,,,,P.O. BOX 69,40031,LAGRANGE,OLDHAM,38.40312799,-85.42976305,21185,10000102,
572,state,Kentucky,WESTERN KENTUCKY CORRECTIONAL COMPLEX,2021-06-07,https://corrections.ky.gov/Facilities/Pages/covid19.aspx,363,74,4,0,,,0,1,664,,,,,,,,374 NEW BETHEL CHURCH RD,42411,FREDONIA,LYON,37.13645979,-88.04014801,21143,10000121,
573,state,Louisiana,ALLEN CORRECTIONAL CENTER,2021-06-07,https://doc.louisiana.gov/doc-covid-19-testing/,266,43,0,0,2583,885,0,,1579,,,,,,,,3751 LAUDERDALE WOODYARD RD,70648,KINDER,ALLEN,30.56148319,-92.78967268,22003,10000967,
574,state,Louisiana,DAVID WADE CORRECTIONAL CENTER,2021-06-07,https://doc.louisiana.gov/doc-covid-19-testing/,93,91,0,0,638,433,0,,1227,,,,,,,,670 BELL HILL RD,71040,HOMER,CLAIBORNE,32.90173088,-93.01954439,22027,10000948,
575,state,Louisiana,DIXON CORRECTIONAL INSTITUTE,2021-06-07,https://doc.louisiana.gov/doc-covid-19-testing/,904,99,9,0,3756,1665,0,,1778,,,,,,,,5568 STATE HWY 68,70748,JACKSON,EAST FELICIANA,30.81323901,-91.20751374,22037,10004094,
576,state,Louisiana,ELAYN HUNT CORRECTIONAL CENTER,2021-06-07,https://doc.louisiana.gov/doc-covid-19-testing/,233,122,2,0,2266,923,0,,1999,,,,,,,,6925 HWY 74,70776,ST GABRIEL,IBERVILLE,30.26563691,-91.08621341,22047,10000972,
578,state,Louisiana,LOUISIANA CORRECTIONAL INSTITUTE FOR WOMEN HUNT,2021-06-07,https://doc.louisiana.gov/doc-covid-19-testing/,169,99,2,0,553,208,0,,573,,,,,,,,7205 STATE HWY 74,70776,ST GABRIEL,IBERVILLE,30.263188800000002,-91.07374348,22047,10000974,
579,state,Louisiana,LOUISIANA CORRECTIONAL INSTITUTE FOR WOMEN JETSON,2021-06-07,https://doc.louisiana.gov/doc-covid-19-testing/,185,,0,,674,329,0,,,,,,,,,,,,,,30.2603498,-91.0746222,,,
580,state,Louisiana,LOUISIANA STATE PENITENTIARY,2021-06-07,https://doc.louisiana.gov/doc-covid-19-testing/,603,282,18,4,5284,1934,1,,6073,,,,,,,,17544 TUNICA TRACE,70712,ANGOLA,WEST FELICIANA,30.95976935,-91.59732559,22125,10000963,
586,state,Louisiana,RAYBURN CORRECTIONAL CENTER,2021-06-07,https://doc.louisiana.gov/doc-covid-19-testing/,160,104,2,0,4261,1351,0,,1313,,,,,,,,27268 STATE HWY 21 N,70426,ANGIE,WASHINGTON,30.92169823,-89.81584273,22117,10002416,
587,state,Louisiana,RAYMOND LABORDE CORRECTIONAL CENTER,2021-06-07,https://doc.louisiana.gov/doc-covid-19-testing/,596,104,3,2,4799,1479,1,,1754,,,,,,,,1630 PRISON RD,71327,COTTONPORT,AVOYELLES,30.97442232,-92.02522705,22009,10000960,
591,state,Maine,BOLDUC CORRECTIONAL FACILITY,2021-06-07,https://www.maine.gov/corrections/covid-19-resources,0,,,,206,,,,183,,,,,,,,516 CUSHING RD,04864,WARREN,KNOX,44.0676097,-69.21744666,23013,10000100,
594,state,Maine,MAINE STATE PRISON,2021-06-07,https://www.maine.gov/corrections/covid-19-resources,15,,,,5093,,,,873,,,,,,,,807 CUSHING RD,04864,WARREN,KNOX,44.0654412,-69.23040775,23013,10001163,
595,state,Maine,MOUNTAIN VIEW CORRECTIONAL FACILITY,2021-06-07,https://www.maine.gov/corrections/covid-19-resources,7,,,,905,,,,346,,,,,,,,1182 DOVER RD,04422,CHARLESTON,PENOBSCOT,45.09252047,-69.09444972,23019,10001938,
599,state,Maryland,BALTIMORE CENTRAL BOOKING INTAKE CENTER,2021-06-04,https://news.maryland.gov/dpscs/covid-19/,355,278,0,2,,,,,798,,,,,,,,300 E MADISON ST,21202,BALTIMORE,BALTIMORE CITY,39.2990497,-76.6104617,24510,10004034,
600,state,Maryland,BALTIMORE CITY CORRECTIONAL CENTER,2021-06-04,https://news.maryland.gov/dpscs/covid-19/,152,40,0,1,,,,,446,,,,,,,,901 GREENMOUNT AVE,21202,BALTIMORE,BALTIMORE CITY,39.3003053,-76.606507,24510,10001552,
602,state,Maryland,CHESAPEAKE DETENTION FACILITY,2021-06-04,https://news.maryland.gov/dpscs/covid-19/,189,91,0,0,,,,,358,,,,,,,,401 E MADISON ST,21202,BALTIMORE,BALTIMORE CITY,39.29832772,-76.60941485,24510,10000917,
603,state,Maryland,CMCF CENTRAL MARYLAND CF,2021-06-04,https://news.maryland.gov/dpscs/covid-19/,124,37,2,0,,,,,,,,,,,,,,,,,,,17015,,
605,state,Maryland,DORSEY RUN CORRECTIONAL FACILITY,2021-06-04,https://news.maryland.gov/dpscs/covid-19/,97,79,1,0,,,,,915,,,,,,,,2020 TOULSON ROAD,20794,JESSUP,ANNE ARUNDEL,39.13906251,-76.77697334,24003,10006353,
608,state,Maryland,EASTERN CORRECTIONAL INSTITUTION,2021-06-04,https://news.maryland.gov/dpscs/covid-19/,1099,240,1,0,,,,,2678,,,,,,,,30420 REVELLS NECK RD,21890,WESTOVER,SOMERSET,38.15738518,-75.70440049,24039,10001569,
609,state,Maryland,EASTERN PRERELEASE UNIT,2021-06-04,https://news.maryland.gov/dpscs/covid-19/,3,5,0,0,,,,,240,,,,,,,,,,CHURCH HILL,,,,,,
611,state,Maryland,JESSUP CORRECTIONAL INSTITUTION,2021-06-04,https://news.maryland.gov/dpscs/covid-19/,359,144,3,0,,,,,1820,,,,,,,,"P O BOX 549, HOUSE OF CORRECTION RD",20794,JESSUP,ANNE ARUNDEL,39.1416755,-76.7703613,24003,10001560,
613,state,Maryland,MARYLAND CORRECTIONAL INSTITUTION FOR WOMEN,2021-06-04,https://news.maryland.gov/dpscs/covid-19/,61,118,0,0,,,,,698,,,,,,,,7943 BROCK BRIDGE RD,20794,JESSUP,ANNE ARUNDEL,39.132672,-76.775413,24003,10001559,
614,state,Maryland,MARYLAND CORRECTIONAL INSTITUTION HAGERSTOWN,2021-06-04,https://news.maryland.gov/dpscs/covid-19/,141,90,3,0,,,,,630,,,,,,,,,,HAGERSTOWN,,,,24043,,
615,state,Maryland,MARYLAND CORRECTIONAL TRAINING CENTER HAGERSTOWN,2021-06-04,https://news.maryland.gov/dpscs/covid-19/,226,172,3,1,,,,,2883,,,,,,,,18800 ROXBURY RD,21746,HAGERSTOWN,WASHINGTON,39.56483486,-77.71487398,24043,10001546,
616,state,Maryland,MARYLAND RECEPTION DIAGNOSTICS AND CLASSICIATION CENTER,2021-06-04,https://news.maryland.gov/dpscs/covid-19/,124,101,0,0,,,,,445,,,,,,,,550 E MADISON ST,21202,BALTIMORE,BALTIMORE CITY,39.2991796,-76.6068221,24510,10000918,
617,state,Maryland,METROPOLITAN TRANSITION CENTER BALTIMORE,2021-06-04,https://news.maryland.gov/dpscs/covid-19/,255,171,1,0,,,,,730,,,,,,,,954 FORREST ST,21202,BALTIMORE,BALTIMORE CITY,39.30006162,-76.60856614,24510,10004035,
620,state,Maryland,PATUXENT INSTITUTION,2021-06-04,https://news.maryland.gov/dpscs/covid-19/,69,127,1,0,,,,,907,,,,,,,,7555 WATERLOO RD,20794,JESSUP,HOWARD,39.1640425,-76.7803021,24027,10002364,
621,state,Maryland,ROXBURY CORRECTIONAL INSTITUTION,2021-06-04,https://news.maryland.gov/dpscs/covid-19/,275,118,4,0,,,,,1762,,,,,,,,18701 ROXBURY RD,21746,HAGERSTOWN,WASHINGTON,39.5585136,-77.7151794,24043,10001547,
624,state,Maryland,SOUTHERN MARYLAND PRERELEASE UNIT,2021-06-04,https://news.maryland.gov/dpscs/covid-19/,23,10,0,0,,,,,144,,,,,,,,,,CHARLOTTE HALL,,,,24037,,
625,state,Maryland,STATEWIDE,2021-06-07,https://news.maryland.gov/dpscs/covid-19/,,,,,,,,,,,9181,4048,5810,3995,,,,,,,,,,,
