Facility.ID,Jurisdiction,State,Name,Date,source,Residents.Confirmed,Staff.Confirmed,Residents.Deaths,Staff.Deaths,Residents.Tadmin,Residents.Tested,Residents.Active,Staff.Active,Population.Feb20,Residents.Population,Residents.Initiated,Staff.Initiated,Residents.Initiated.Pct,Staff.Initiated.Pct,Residents.Completed,Staff.Completed,Residents.Completed.Pct,Residents.Vadmin,Staff.Vadmin,Web.Group,Address,Zipcode,City,County,Latitude,Longitude,County.FIPS,ICE.Field.Office
1,state,Alabama,ALABAMA HEADQUARTERS,2022-02-14,http://www.doc.alabama.gov/covid19news,0,135,0,0,,0,0,13,,,0,43,,,,,,,,Prison,,,,,,,,
2,state,Alabama,ALABAMA TREATMENT AND EDUCATION FACILITY,2022-02-14,http://www.doc.alabama.gov/covid19news,42,6,1,0,,66,6,1,155,,462,1,,,,,,,,Prison,102 INDUSTRIAL PARKWAY,35051,COLUMBIANA,SHELBY,33.18100499,-86.62401724,01117,
3,state,Alabama,ALEX CITY COMMUNITY BASED FACILITY,2022-02-14,http://www.doc.alabama.gov/covid19news,83,36,0,0,,170,0,0,241,,106,7,,,,,,,,Prison,HIGHWAY 22 WEST,35011,ALEX CITY,COOSA,32.90447114,-86.00896897,01037,
5,state,Alabama,BIBB CORRECTIONAL FACILITY,2022-02-14,http://www.doc.alabama.gov/covid19news,194,91,4,0,,1683,3,2,1834,,1192,34,,,,,,,,Prison,565 BIBB LANE,35034,BRENT,BIBB,32.92242,-87.16458,01007,
6,state,Alabama,BIRMINGHAM COMMUNITY BASED FACILITY,2022-02-14,http://www.doc.alabama.gov/covid19news,31,47,0,0,,163,1,3,256,,193,31,,,,,,,,Prison,1216 25TH ST N,35234,BIRMINGHAM,JEFFERSON,33.53104632,-86.80836181,01073,
7,state,Alabama,BULLOCK CORRECTIONAL FACILITY,2022-02-14,http://www.doc.alabama.gov/covid19news,214,130,5,1,,1926,2,2,1568,,1018,35,,,,,,,,Prison,104 BULLOCK DR,36089,UNION SPRINGS,BULLOCK,32.14940285,-85.67232013,01011,
8,state,Alabama,CAMDEN COMMUNITY BASED FACILITY,2022-02-14,http://www.doc.alabama.gov/covid19news,7,5,0,0,,58,0,0,68,,34,3,,,,,,,,Prison,1780 ALABAMA HWY 221,36726,CAMDEN,WILCOX,31.99483708,-87.33312321,01131,
9,state,Alabama,CHILDERSBURG COMMUNITY BASED FACILITY,2022-02-14,http://www.doc.alabama.gov/covid19news,28,40,0,0,,222,0,3,408,,248,19,,,,,,,,Prison,13501 PLANT RD,35014,ALPINE,TALLADEGA,33.36493323,-86.33219762,01121,
11,state,Alabama,DONALDSON CORRECTIONAL FACILITY,2022-02-14,http://www.doc.alabama.gov/covid19news,121,61,3,0,,1375,1,6,1518,,567,56,,,,,,,,Prison,100 WARRIOR LN,35023,BESSEMER,JEFFERSON,33.51366663,-87.18478369,01073,
12,state,Alabama,DRAPER QUARANTINE INTAKE FACILITY,2022-02-14,http://www.doc.alabama.gov/covid19news,471,0,0,0,,3150,20,0,,,574,0,,,,,,,,Prison,,,ELMORE,,,,,
13,state,Alabama,EASTERLING CORRECTIONAL FACILITY,2022-02-14,http://www.doc.alabama.gov/covid19news,148,99,2,0,,1067,1,6,1253,,665,59,,,,,,,,Prison,200 WALLACE DR,36017,CLIO,BARBOUR,31.68938149,-85.58555889,01005,
14,state,Alabama,ELBA COMMUNITY BASED FACILITY,2022-02-14,http://www.doc.alabama.gov/covid19news,7,16,0,0,,177,0,1,241,,147,9,,,,,,,,Prison,1620 BOSWELL ST,36323,ELBA,COFFEE,31.41312386,-86.08373748,01031,
15,state,Alabama,ELMORE CORRECTIONAL FACILITY,2022-02-14,http://www.doc.alabama.gov/covid19news,272,46,1,0,,1137,0,2,1196,,523,37,,,,,,,,Prison,3520 MARION SPILLWAY ROAD,36025,ELMORE,ELMORE,32.57430479,-86.32080582,01051,
16,state,Alabama,FOUNTAIN CORRECTIONAL FACILITY,2022-02-14,http://www.doc.alabama.gov/covid19news,66,71,1,0,,241,0,2,1249,,587,16,,,,,,,,Prison,9677 AL HWY 21 N,36503,ATMORE,ESCAMBIA,31.15658,-87.46372,01053,
17,state,Alabama,FRANK LEE COMMUNITY BASED FACILITY,2022-02-14,http://www.doc.alabama.gov/covid19news,42,36,0,0,,147,0,1,298,,142,9,,,,,,,,Prison,5305 INGRAM RD.,36022,DEATSVILLE,ELMORE,32.58235451,-86.39221844,01051,
18,state,Alabama,HAMILTON AGED AND INFIRMED,2022-02-14,http://www.doc.alabama.gov/covid19news,68,80,15,0,,377,0,2,287,,146,23,,,,,,,,Prison,223 SASSER DR,35570,HAMILTON,MARION,34.12434611,-87.99171938,01093,
19,state,Alabama,HAMILTON COMMUNITY BASED FACILITY,2022-02-14,http://www.doc.alabama.gov/covid19news,8,32,2,0,,98,0,0,274,,150,7,,,,,,,,Prison,1826 BEXAR AVE E,35570,HAMILTON,MARION,34.14329559,-87.95895958,01093,
20,state,Alabama,HOLMAN CORRECTIONAL FACILITY,2022-02-14,http://www.doc.alabama.gov/covid19news,98,58,2,0,,379,0,1,277,,249,20,,,,,,,,Prison,866 ROSS RD,36503,ATMORE,ESCAMBIA,31.13438612,-87.4498642,01053,
22,state,Alabama,KILBY CORRECTIONAL FACILITY,2022-02-14,http://www.doc.alabama.gov/covid19news,53,101,2,0,,881,0,1,1448,,472,71,,,,,,,,Prison,12201 WARES FERRY RD,36117,MONTGOMERY,MONTGOMERY,32.38835654,-86.1009811,01101,
23,state,Alabama,LIMESTONE CORRECTIONAL FACILITY,2022-02-14,http://www.doc.alabama.gov/covid19news,189,145,6,0,,1853,0,0,2352,,1228,91,,,,,,,,Prison,28779 NICK DAVIS RD,35749,HARVEST,LIMESTONE,34.81254392,-86.80413307,01083,
24,state,Alabama,LOXLEY COMMUNITY BASED FACILITY,2022-02-14,http://www.doc.alabama.gov/covid19news,112,25,0,0,,262,0,2,375,,161,9,,,,,,,,Prison,14880 COUNTY RD 64,36551,LOXLEY,BALDWIN,30.6153358,-87.77030984,01003,
25,state,Alabama,MOBILE COMMUNITY BASED FACILITY,2022-02-14,http://www.doc.alabama.gov/covid19news,15,26,0,0,,160,0,0,214,,111,8,,,,,,,,Prison,2423 N BELTLINE HWY,36610,PRITCHARD,MOBILE,30.73788106,-88.10905742,01097,
27,state,Alabama,MONTGOMERY WOMENS FACILITY,2022-02-14,http://www.doc.alabama.gov/covid19news,18,27,0,0,,174,0,1,297,,128,28,,,,,,,,Prison,12085 WARES FERRY RD,36117,MONTGOMERY,MONTGOMERY,32.38964157,-86.09912245,01101,
28,state,Alabama,NORTH ALABAMA COMMUNITY BASED FACILITY,2022-02-14,http://www.doc.alabama.gov/covid19news,106,51,0,0,,336,0,4,681,,323,17,,,,,,,,Prison,1401 STATE HIGHWAY 20 WEST,35601,DECATUR,MORGAN,34.61756728,-87.00562813,01103,
29,state,Alabama,RED EAGLE COMMUNITY BASED FACILITY,2022-02-14,http://www.doc.alabama.gov/covid19news,34,37,0,0,,184,1,1,307,,190,20,,,,,,,,Prison,1290 RED EAGLE RD,36110,MONTGOMERY,MONTGOMERY,32.46559439,-86.23690422,01101,
33,state,Alabama,ST CLAIR CORRECTIONAL FACILITY,2022-02-14,http://www.doc.alabama.gov/covid19news,125,107,20,0,,511,3,0,1045,,447,57,,,,,,,,Prison,1000 SAINT CLAIR ROAD,35146,SPRINGVILLE,ST CLAIR,33.74558817,-86.38437373,01115,
35,state,Alabama,STATON CORRECTIONAL FACILITY,2022-02-14,http://www.doc.alabama.gov/covid19news,182,91,7,0,,2346,0,3,1405,,807,57,,,,,,,,Prison,2690 MARION SPILLWAY RD,36025,ELMORE,ELMORE,32.577215700000004,-86.33248852,01051,
39,state,Alabama,TUTWILER PRISON FOR WOMEN,2022-02-14,http://www.doc.alabama.gov/covid19news,113,112,3,2,,856,0,2,806,,481,68,,,,,,,,Prison,8966 US HWY 231 N,36092,WETUMPKA,ELMORE,32.5640382,-86.1940048,01051,
40,state,Alabama,TUTWILER QUARANTINE INTAKE FACILITY,2022-02-14,http://www.doc.alabama.gov/covid19news,59,0,0,0,,757,6,0,,,62,0,,,,,,,,Prison,,,,,,,,
41,state,Alabama,VENTRESS CORRECTIONAL FACILITY,2022-02-14,http://www.doc.alabama.gov/covid19news,122,91,2,0,,1026,1,2,1202,,763,33,,,,,,,,Prison,379 ALABAMA HWY 239 N,36016,CLAYTON,BARBOUR,31.88902864,-85.49299808,01005,
42,state,Alaska,ANCHORAGE CCC,2022-02-14,https://doc.alaska.gov/covid-19,,,,,,,,,832,884,396,,,,343,,,,,Prison,1400 EAST 4TH AVENUE,99501,ANCHORAGE,ANCHORAGE,61.21842095,-149.8562424,02020,
43,state,Alaska,GOOSE CREEK CC,2022-02-14,https://doc.alaska.gov/covid-19,,,,,,,,,1125,1335,876,,,,828,,,,,Prison,22301 WEST ALSOP ROAD,99623,WASILLA,MATANUSKA-SUSITNA,61.36030624,-150.0084479,02170,
44,state,Alaska,LEMON CREEK CC JUNEAU,2022-02-14,https://doc.alaska.gov/covid-19,,,,,,,,,209,202,130,,,,113,,,,,Prison,2000 LEMON CREEK RD,99801,JUNEAU,JUNEAU,58.36260637,-134.4840555,02110,
47,state,Arizona,CENTRAL ARIZONA CORRECTIONAL FACILITY,2022-02-14,https://corrections.az.gov/adcrr-covid-19-dashboard?order=title_field&sort=asc,112,,5,,,1179,,,1281,1277,,,,,,,,,,Prison,1401 E DIVERSION DAM RD,85132,FLORENCE,PINAL,33.03731012,-111.3727528,04021,
51,state,Arizona,DOUGLAS STATE PRISON,2022-02-14,https://corrections.az.gov/adcrr-covid-19-dashboard?order=title_field&sort=asc,1148,,0,,,2221,,,2086,1233,,,,,,,,,,Prison,6911 N BDI BLVD,85607,DOUGLAS,COCHISE,31.46242829,-109.5912299,04003,
52,state,Arizona,EYMAN STATE PRISON,2022-02-14,https://corrections.az.gov/adcrr-covid-19-dashboard?order=title_field&sort=asc,2275,,14,,,5541,,,5693,5328,,,,,,,,,,Prison,4374 E BUTTE AVE,85132,FLORENCE,PINAL,33.03691871,-111.3264441,04021,
53,state,Arizona,FLORENCE STATE PRISON,2022-02-14,https://corrections.az.gov/adcrr-covid-19-dashboard?order=title_field&sort=asc,890,,14,,,3469,,,3924,1965,,,,,,,,,,Prison,1305 E. BUTTE AVE,85132,FLORENCE,PINAL,33.02816949,-111.3707281,04021,
54,state,Arizona,FLORENCE WEST STATE PRISON,2022-02-14,https://corrections.az.gov/adcrr-covid-19-dashboard?order=title_field&sort=asc,46,,0,,,459,,,713,414,,,,,,,,,,Prison,"915 EAST DIVERSION DAM ROAD, PO BOX 1599",85132,FLORENCE,PINAL,33.037233,-111.376527,04021,
55,state,Arizona,KINGMAN STATE PRISON,2022-02-14,https://corrections.az.gov/adcrr-covid-19-dashboard?order=title_field&sort=asc,680,,6,,,2514,,,3301,3098,,,,,,,,,,Prison,4626 WEST ENGLISH DRIVE,86414,GOLDEN VALLEY,MOHAVE,35.02891497,-114.1796097,04015,
56,state,Arizona,LEWIS STATE PRISON,2022-02-14,https://corrections.az.gov/adcrr-covid-19-dashboard?order=title_field&sort=asc,1659,,3,,,5964,,,4623,4719,,,,,,,,,,Prison,26700 S HWY 85,85326,BUCKEYE,MARICOPA,33.2085241,-112.6514629,04013,
57,state,Arizona,MARANA STATE PRISON,2022-02-14,https://corrections.az.gov/adcrr-covid-19-dashboard?order=title_field&sort=asc,40,,0,,,377,,,476,258,,,,,,,,,,Prison,12610 W SILVERBELL RD,85653,MARANA,PIMA,32.41791032,-111.2412161,04019,
58,county,Arizona,MARICOPA COUNTY JAIL,2022-02-14,https://www.maricopa.gov/5574/COVID-19-in-County-Jails,3159,,0,,33173,,191,,5306,,,,,,,,,205,,County,,,PHOENIX,MARICOPA,33.44552,-112.0784,04013,
59,state,Arizona,MARICOPA REEENTRY CENTER,2022-02-14,https://corrections.az.gov/adcrr-covid-19-dashboard?order=title_field&sort=asc,0,,0,,,0,,,57,0,,,,,,,,,,Prison,24601 N 29TH AVE,85027,PHOENIX,MARICOPA,33.70669655,-112.1194385,04013,
60,state,Arizona,PERRYVILLE STATE PRISON,2022-02-14,https://corrections.az.gov/adcrr-covid-19-dashboard?order=title_field&sort=asc,523,,2,,,5769,,,4336,3095,,,,,,,,,,Prison,2105 N CITRUS RD,85395,GOODYEAR,MARICOPA,33.47038654,-112.4377658,04013,
62,state,Arizona,PHOENIX STATE PRISON,2022-02-14,https://corrections.az.gov/adcrr-covid-19-dashboard?order=title_field&sort=asc,1122,,2,,,8976,,,544,490,,,,,,,,,,Prison,2500 E VAN BUREN ST,85008,PHOENIX,MARICOPA,33.45312989,-112.0250399,04013,
63,state,Arizona,PHOENIX WEST STATE PRISON,2022-02-14,https://corrections.az.gov/adcrr-covid-19-dashboard?order=title_field&sort=asc,43,,1,,,356,,,474,422,,,,,,,,,,Prison,3402 W COCOPAH ST,85009,PHOENIX,MARICOPA,33.43277711,-112.1326085,04013,
64,state,Arizona,PIMA REENTRY CENTER,2022-02-14,https://corrections.az.gov/adcrr-covid-19-dashboard?order=title_field&sort=asc,0,,0,,,0,,,52,0,,,,,,,,,,Prison,1275 W STARR PASS BLVD,85713,TUCSON,PIMA,32.2037634,-110.9909333,04019,
65,state,Arizona,RED ROCK STATE PRISON,2022-02-14,https://corrections.az.gov/adcrr-covid-19-dashboard?order=title_field&sort=asc,141,,0,,,1418,,,2007,2006,,,,,,,,,,Prison,1750 EAST ARICA ROAD,85131,ELOY,PINAL,32.81056,-111.5196,04021,
67,state,Arizona,SAFFORD STATE PRISON,2022-02-14,https://corrections.az.gov/adcrr-covid-19-dashboard?order=title_field&sort=asc,902,,1,,,1690,,,1579,805,,,,,,,,,,Prison,896 S COOK RD,85546,SAFFORD,GRAHAM,32.82810149,-109.5636396,04009,
70,state,Arizona,TUCSON STATE PRISON,2022-02-14,https://corrections.az.gov/adcrr-covid-19-dashboard?order=title_field&sort=asc,2467,,13,,,6451,,,5132,4611,,,,,,,,,,Prison,10000 S WILMOT RD,85734,TUCSON,PIMA,32.06640097,-110.8663122,04019,
72,state,Arizona,WINSLOW STATE PRISON,2022-02-14,https://corrections.az.gov/adcrr-covid-19-dashboard?order=title_field&sort=asc,446,,0,,,1758,,,1295,1146,,,,,,,,,,Prison,2100 S HWY 87,86047,WINSLOW,NAVAJO,34.98471625,-110.7210891,04017,
73,state,Arizona,YUMA STATE PRISON,2022-02-14,https://corrections.az.gov/adcrr-covid-19-dashboard?order=title_field&sort=asc,2229,,6,,,5065,,,4876,2821,,,,,,,,,,Prison,7125 E JUAN SANCHEZ BLVD,85349,SAN LUIS,YUMA,32.48750181,-114.6397153,04027,
83,state,California,AVENAL STATE PRISON,2022-02-14,https://www.cdcr.ca.gov/covid19/updates/,4007,1049,8,2,,,52,48,4204,3764,3250,960,,,3219,941,,,,Prison,1 KINGS WAY,93204,AVENAL,KINGS,35.97394934,-120.1231018,06031,
88,state,California,CALIFORNIA CITY CORRECTIONAL FACILITY,2022-02-14,https://www.cdcr.ca.gov/covid19/updates/,1138,576,2,2,,,10,11,2113,2039,1569,439,,,1545,418,,,,Prison,22844 VIRGINIA BLVD,93505,CALIFORNIA CITY,KERN,35.1532512,-117.8588801,06029,
89,state,California,CALIFORNIA CORRECTIONAL CENTER,2022-02-14,https://www.cdcr.ca.gov/covid19/updates/,1968,793,0,0,,,119,49,4049,1577,1260,462,,,1245,450,,,,Prison,711-045 CENTER ROAD,96127,SUSANVILLE,LASSEN,40.40195801,-120.5167302,06035,
90,state,California,CALIFORNIA CORRECTIONAL INSTITUTION,2022-02-14,https://www.cdcr.ca.gov/covid19/updates/,1654,1380,4,3,,,20,27,3696,3079,2555,919,,,2468,897,,,,Prison,24900 HWY 202,93561,TEHACHAPI,KERN,35.10991489,-118.5703307,06029,
91,state,California,CALIFORNIA HEALTH CARE FACILITY,2022-02-14,https://www.cdcr.ca.gov/covid19/updates/,885,1805,20,3,,,9,99,2849,2180,2020,3398,,,2000,3344,,,,Prison,7707 AUSTIN ROAD,95215,STOCKTON,SAN JOAQUIN,37.8947278,-121.1848441,06077,
92,state,California,CALIFORNIA INSTITUTION FOR MEN,2022-02-14,https://www.cdcr.ca.gov/covid19/updates/,2654,1220,30,2,,,60,22,3627,2557,2260,1341,,,2234,1326,,,,Prison,14901 CENTRAL AVENUE,91710,CHINO,SAN BERNARDINO,33.98471223,-117.6823919,06071,
93,state,California,CALIFORNIA INSTITUTION FOR WOMEN,2022-02-14,https://www.cdcr.ca.gov/covid19/updates/,658,827,1,3,,,4,27,1619,990,865,986,,,852,974,,,,Prison,16756 CHINO-CORONA ROAD,92880,CORONA,SAN BERNARDINO,33.94974531,-117.636365,06071,
94,state,California,CALIFORNIA MEDICAL FACILITY,2022-02-14,https://www.cdcr.ca.gov/covid19/updates/,1050,938,12,0,,,117,63,2512,1947,1749,2139,,,1721,2134,,,,Prison,1600 CALIFORNIA DRIVE,95696,VACAVILLE,SOLANO,38.32851019,-121.9791645,06095,
95,state,California,CALIFORNIA MENS COLONY,2022-02-14,https://www.cdcr.ca.gov/covid19/updates/,3064,1240,13,0,,,92,75,3758,3214,2771,1327,,,2742,1302,,,,Prison,COLONY DRIVE,93409,SAN LUIS OBISPO,SAN LUIS OBISPO,35.32457413,-120.6989005,06079,
96,state,California,CALIFORNIA REHABILITATION CENTER,2022-02-14,https://www.cdcr.ca.gov/covid19/updates/,2966,1025,1,1,,,50,22,3802,2497,2209,893,,,2196,882,,,,Prison,3195 WESTERN AVENUE,92860,NORCO,RIVERSIDE,33.92691794,-117.5759442,06065,
97,state,California,CALIFORNIA STATE PRISON CORCORAN,2022-02-14,https://www.cdcr.ca.gov/covid19/updates/,1871,1548,8,3,,,57,77,3043,3505,2879,1435,,,2791,1410,,,,Prison,4001 KING AVENUE,93212,CORCORAN,KINGS,36.06081823,-119.549121,06031,
98,state,California,CALIFORNIA STATE PRISON LOS ANGELES,2022-02-14,https://www.cdcr.ca.gov/covid19/updates/,1947,1312,14,1,,,43,20,3218,2803,2224,1191,,,2167,1144,,,,Prison,44750 60TH STREET WEST,93536,LANCASTER,LOS ANGELES,34.69359649,-118.2276136,06037,
99,state,California,CALIFORNIA STATE PRISON SACRAMENTO,2022-02-14,https://www.cdcr.ca.gov/covid19/updates/,664,1108,2,1,,,66,77,2354,1846,1423,1260,,,1377,1244,,,,Prison,100 PRISON ROAD,95671,REPRESA,SACRAMENTO,38.69444411,-121.1539037,06067,
100,state,California,CALIFORNIA STATE PRISON SAN QUENTIN,2022-02-14,https://www.cdcr.ca.gov/covid19/updates/,2825,875,28,2,,,45,29,4032,3081,2851,1417,,,2826,1385,,,,Prison,MAIN STREET,94964,SAN QUENTIN,MARIN,37.94003982,-122.4903665,06041,
101,state,California,CALIFORNIA STATE PRISON SOLANO,2022-02-14,https://www.cdcr.ca.gov/covid19/updates/,1744,824,7,0,,,16,36,4306,3269,2796,979,,,2769,964,,,,Prison,2100 PEABODY ROAD,95687,VACAVILLE,SOLANO,38.32077652,-121.9752369,06095,
102,state,California,CALIPATRIA STATE PRISON,2022-02-14,https://www.cdcr.ca.gov/covid19/updates/,1287,834,3,1,,,39,46,3109,2799,2338,1016,,,2293,998,,,,Prison,7018 BLAIR ROAD,92233,CALIPATRIA,IMPERIAL,33.16569337,-115.484344,06025,
103,state,California,CDCR CCHCS WORKSITE - FRESNO COUNTY,2022-02-14,https://www.cdcr.ca.gov/covid19/cdcr-cchcs-covid-19-status/,,21,,0,,,,0,,,,,,,,,,,,Prison,,,,FRESNO,,,,
104,state,California,CDCR CCHCS WORKSITE - IMPERIAL COUNTY,2022-02-14,https://www.cdcr.ca.gov/covid19/cdcr-cchcs-covid-19-status/,,9,,0,,,,0,,,,,,,,,,,,Prison,,,,IMPERIAL,,,,
105,state,California,CDCR CCHCS WORKSITE - KERN COUNTY,2022-02-14,https://www.cdcr.ca.gov/covid19/cdcr-cchcs-covid-19-status/,,24,,0,,,,0,,,,,,,,,,,,Prison,,,,KERN,,,,
106,state,California,CDCR CCHCS WORKSITE - MENDOCINO COUNTY,2022-02-14,https://www.cdcr.ca.gov/covid19/cdcr-cchcs-covid-19-status/,,2,,0,,,,0,,,,,,,,,,,,Prison,,,,MENDOCINO,,,,
107,state,California,CDCR CCHCS WORKSITE - ORANGE COUNTY,2022-02-14,https://www.cdcr.ca.gov/covid19/cdcr-cchcs-covid-19-status/,,14,,0,,,,0,,,,,,,,,,,,Prison,,,,ORANGE,,,,
108,state,California,CDCR CCHCS WORKSITE - SAN LUIS OBISPO COUNTY,2022-02-14,https://www.cdcr.ca.gov/covid19/cdcr-cchcs-covid-19-status/,,0,,0,,,,0,,,,,,,,,,,,Prison,,,,SAN LUIS OBISPO,,,,
109,state,California,CDCR CCHCS WORKSITE - SANTA CLARA COUNTY,2022-02-14,https://www.cdcr.ca.gov/covid19/cdcr-cchcs-covid-19-status/,,5,,0,,,,0,,,,,,,,,,,,Prison,,,,SANTA CLARA,,,,
111,state,California,CENTINELA STATE PRISON,2022-02-14,https://www.cdcr.ca.gov/covid19/updates/,986,848,1,2,,,27,32,3475,2839,2382,1080,,,2351,1063,,,,Prison,2302 BROWN ROAD,92251,IMPERIAL,IMPERIAL,32.82339731,-115.7890555,06025,
112,state,California,CENTRAL CALIFORNIA WOMENS FACILITY,2022-02-14,https://www.cdcr.ca.gov/covid19/updates/,1707,860,1,1,,,117,37,2814,2228,1854,937,,,1798,909,,,,Prison,23370 ROAD 22,93610,CHOWCHILLA,MADERA,37.09368073,-120.1527098,06039,
113,state,California,CHUCKAWALLA VALLEY STATE PRISON,2022-02-14,https://www.cdcr.ca.gov/covid19/updates/,2693,632,9,1,,,59,23,2773,2459,2277,633,,,2264,623,,,,Prison,19025 WILEY'S WELL ROAD,92225,BLYTHE,RIVERSIDE,33.56257951,-114.9095058,06065,
115,state,California,CORRECTIONAL TRAINING FACILITY,2022-02-14,https://www.cdcr.ca.gov/covid19/updates/,3088,718,21,2,,,117,27,5063,4160,3851,1050,,,3825,1035,,,,Prison,SOLEDAD PRISON ROAD,93960,SOLEDAD,MONTEREY,36.46964789,-121.3822324,06053,
116,state,California,DEUEL VOCATIONAL INSTITUTION,2022-02-14,https://www.cdcr.ca.gov/covid19/updates/,545,279,0,1,,,0,0,2052,1,,,,,,,,,,Prison,23500 KASSON ROAD,95304,TRACY,SAN JOAQUIN,37.74805759,-121.3306264,06077,
120,state,California,FOLSOM STATE PRISON,2022-02-14,https://www.cdcr.ca.gov/covid19/updates/,2548,730,2,0,,,66,28,2871,2861,2365,821,,,2317,813,,,,Prison,300 PRISON ROAD,95671,REPRESA,SACRAMENTO,38.69538339,-121.1630324,06067,
128,state,California,HIGH DESERT STATE PRISON,2022-02-14,https://www.cdcr.ca.gov/covid19/updates/,2111,1229,2,0,,,2,51,3161,2247,1737,609,,,1689,601,,,,Prison,475-750 RICE CANYON ROAD,96127,SUSANVILLE,LASSEN,40.4034569,-120.5258579,06035,
129,state,California,IRONWOOD STATE PRISON,2022-02-14,https://www.cdcr.ca.gov/covid19/updates/,2193,825,1,2,,,157,31,2896,2148,1701,910,,,1660,884,,,,Prison,19005 WILEY'S WELL ROAD,92225,BLYTHE,RIVERSIDE,33.56098104,-114.9260354,06065,
131,state,California,KERN VALLEY STATE PRISON,2022-02-14,https://www.cdcr.ca.gov/covid19/updates/,1040,1170,6,0,,,9,44,3551,3394,2722,1116,,,2528,1090,,,,Prison,3000 WEST CECIL AVENUE,93216,DELANO,KERN,35.76647437,-119.3253627,06029,
135,county,California,LOS ANGELES JAILS,2022-02-14,https://lasd.org/covid19updates/,8734,4742,17,,108010,,171,,17076,13362,,,,,,,,,,County,,,,,34.0591,-118.2321,06037,
139,state,California,MULE CREEK STATE PRISON,2022-02-14,https://www.cdcr.ca.gov/covid19/updates/,2694,1244,9,1,,,61,75,4007,3791,3490,1126,,,3452,1112,,,,Prison,4001 STATE HIGHWAY 104,95640,IONE,AMADOR,38.37074335,-120.9534458,06005,
140,state,California,NA CHADERJIAN YOUTH CORRECTIONAL FACILITY,2022-02-14,https://www.cdcr.ca.gov/covid19/cdcr-cchcs-covid-19-status/,,183,,0,,,,8,216,,,,,,,,,,,Juvenile,7650 SOUTH NEWCASTLE ROAD,95215,STOCKTON,SAN JOAQUIN,37.8911829,-121.1978212,06077,
141,state,California,NORTH KERN STATE PRISON,2022-02-14,https://www.cdcr.ca.gov/covid19/updates/,2781,1264,5,2,,,38,29,4355,3870,2655,1050,,,2470,1040,,,,Prison,2737 WEST CECIL AVENUE,93215,DELANO,KERN,35.78188512,-119.3098757,06029,
142,state,California,NORTHERN CALIFORNIA YOUTH CORRECTIONAL CENTER,2022-02-14,https://www.cdcr.ca.gov/covid19/cdcr-cchcs-covid-19-status/,,110,,0,,,,7,216,,,,,,,,,,,Juvenile,7650 SOUTH NEWCASTLE ROAD,95215,STOCKTON,SAN JOAQUIN,37.8911829,-121.1978213,06077,
143,state,California,OH CLOSE YOUTH CORRECTIONAL FACILITY,2022-02-14,https://www.cdcr.ca.gov/covid19/cdcr-cchcs-covid-19-status/,,94,,0,,,,6,169,,,,,,,,,,,Juvenile,7650 SOUTH NEWCASTLE ROAD,95213,STOCKTON,SAN JOAQUIN,37.89852126,-121.1976947,06077,
144,county,California,ORANGE COUNTY JAILS,2022-02-14,https://ocsheriff.gov/about-ocsd/covid-19/covid-19-oc-jails,3199,,,,,31027,59,,5074,,,,,,,,,,,County,550 N FLOWER ST,92702,SANTA ANA,ORANGE,33.7489556,-117.8774523,06059,
145,state,California,PELICAN BAY STATE PRISON,2022-02-14,https://www.cdcr.ca.gov/covid19/updates/,462,828,0,0,,,58,98,2648,1940,1610,652,,,1583,638,,,,Prison,5905 LAKE EARL DRIVE,95531,CRESCENT CITY,DEL NORTE,41.85480851,-124.1490751,06015,
146,state,California,PINE GROVE JUVENILE PRISON CAMP,2022-02-14,https://www.cdcr.ca.gov/covid19/cdcr-cchcs-covid-19-status/,,19,,0,,,,0,,,,,,,,,,,,Juvenile,,,,,,,,
147,state,California,PLEASANT VALLEY STATE PRISON,2022-02-14,https://www.cdcr.ca.gov/covid19/updates/,2514,1037,3,0,,,54,52,3131,2537,1960,853,,,1925,834,,,,Prison,24863 WEST JAYNE AVENUE,93210,COALINGA,FRESNO,36.13147309,-120.2488996,06019,
148,state,California,RICHARD A MCGEE CORRECTIONAL TRAINING CENTER,2022-02-14,https://www.cdcr.ca.gov/covid19/cdcr-cchcs-covid-19-status/,,349,,0,,,,9,,,,,,,,,,,,Prison,9850 TWIN CITIES RD,95632,GALT,,38.2890255,-121.3279067,06067,
150,state,California,RJ DONOVAN CORRECTIONAL FACILITY,2022-02-14,https://www.cdcr.ca.gov/covid19/updates/,1428,1176,19,1,,,83,42,3845,3391,2980,1627,,,2938,1596,,,,Prison,480 ALTA ROAD,92179,SAN DIEGO,SAN DIEGO,32.58456487,-116.9335763,06073,
152,state,California,SALINAS VALLEY STATE PRISON,2022-02-14,https://www.cdcr.ca.gov/covid19/updates/,930,1263,6,2,,,62,88,2917,3019,2292,1458,,,2211,1436,,,,Prison,31625 HIGHWAY 101,93960,SOLEDAD,MONTEREY,36.47885699,-121.3743944,06053,
158,state,California,SIERRA CONSERVATION CENTER,2022-02-14,https://www.cdcr.ca.gov/covid19/updates/,2815,735,0,1,,,74,27,4393,2964,2529,667,,,2489,658,,,,Prison,5100 OBYRNES FERRY ROAD,95327,JAMESTOWN,TUOLUMNE,37.89168856,-120.5365401,06109,
161,state,California,SUBSTANCE ABUSE TREATMENT FACILITY,2022-02-14,https://www.cdcr.ca.gov/covid19/updates/,4124,1362,7,2,,,181,57,5291,4888,4162,1307,,,4080,1287,,,,Prison,900 QUEBEC AVE,93212,CORCORAN,KINGS,36.05396,-119.5478,06031,
164,state,California,VALLEY STATE PRISON,2022-02-14,https://www.cdcr.ca.gov/covid19/updates/,1845,745,2,3,,,1,28,2999,2905,2734,912,,,2723,899,,,,Prison,21633 AVENUE 24,93610,CHOWCHILLA,MADERA,37.10547736,-120.1554719,06039,
165,state,California,VENTURA,2022-02-14,https://www.cdcr.ca.gov/covid19/cdcr-cchcs-covid-19-status/,,169,,0,,,,3,,,,,,,,,,,,Prison,,,,,,,,
171,state,California,WASCO STATE PRISON,2022-02-14,https://www.cdcr.ca.gov/covid19/updates/,4046,1274,2,1,,,31,46,4588,3525,2051,1086,,,1947,1067,,,,Prison,701 SCOFIELD AVENUE,93280,WASCO,KERN,35.59431189,-119.4083319,06029,
174,state,Colorado,ARKANSAS VALLEY CORRECTIONAL FACILITY,2022-02-07,https://cdoc.colorado.gov/resources/covid-19-faq-and-updates,1177,,4,,11606,,69,,1065,,,,,,,,,,,Prison,12750 HIGHWAY 96 AT LANE 13,81034,ORDWAY,CROWLEY,38.19146827,-103.8421854,08025,
175,state,Colorado,ARROWHEAD CORRECTIONAL FACILITY,2022-02-07,https://cdoc.colorado.gov/resources/covid-19-faq-and-updates,420,,1,,6670,,3,,528,,,,,,,,,,,Prison,E. US HIGHWAY 50 AND EVANS BLVD,81212,CANON CITY,FREMONT,38.43610328,-105.1590956,08043,
176,state,Colorado,BENT COUNTY CORRECTIONAL FACILITY,2022-02-07,https://cdoc.colorado.gov/resources/covid-19-faq-and-updates,1266,,2,,12608,,125,,1400,,,,,,,,,,,Prison,11560 ROAD FF75,81054,LAS ANIMAS,BENT,38.06456309,-103.2047922,08011,
177,state,Colorado,BUENA VISTA CORRECTIONAL COMPLEX,2022-02-07,https://cdoc.colorado.gov/resources/covid-19-faq-and-updates,1093,,1,,37544,,3,,1234,,,,,,,,,,,Prison,5125 HWY 24 & 285,81211,BUENA VISTA,CHAFFEE,38.82210118,-106.1147135,08015,
178,state,Colorado,CENTENNIAL CORRECTIONAL FACILITY,2022-02-07,https://cdoc.colorado.gov/resources/covid-19-faq-and-updates,350,,0,,27506,,42,,321,,,,,,,,,,,Prison,E US HIGHWAY 50 EVANS BLVD,81215,CANON CITY,FREMONT,38.43776663,-105.1516726,08043,
179,state,Colorado,COLORADO CORRECTIONAL CENTER,2022-02-07,https://cdoc.colorado.gov/resources/covid-19-faq-and-updates,29,,0,,3894,,0,,125,,,,,,,,,,,Prison,15445 SOUTH GOLDEN ROAD,80401,GOLDEN,JEFFERSON,39.734937360000004,-105.171343,08059,
180,state,Colorado,COLORADO STATE PENITENTIARY,2022-02-07,https://cdoc.colorado.gov/resources/covid-19-faq-and-updates,304,,0,,12483,,52,,700,,,,,,,,,,,Prison,E US HIGHWAY 50 EVANS BLVD,81215,CANON CITY,FREMONT,38.44080528,-105.1580096,08043,
181,state,Colorado,COLORADO TERRITORIAL CORRECTIONAL FACILITY,2022-02-07,https://cdoc.colorado.gov/resources/covid-19-faq-and-updates,878,,6,,16670,,89,,951,,,,,,,,,,,Prison,275 WEST UNITED STATES HIGHWAY 50,81215,CANON CITY,FREMONT,38.43802317,-105.2486951,08043,
182,state,Colorado,CROWLEY COUNTY CORRECTIONAL FACILITY,2022-02-07,https://cdoc.colorado.gov/resources/covid-19-faq-and-updates,961,,2,,29076,,3,,1826,,,,,,,,,,,Prison,6564 HIGHWAY 96,81062,OLNEY SPRINGS,CROWLEY,38.15673868,-103.9573023,08025,
183,state,Colorado,DELTA CORRECTIONAL FACILITY,2022-02-07,https://cdoc.colorado.gov/resources/covid-19-faq-and-updates,328,,0,,4624,,1,,703,,,,,,,,,,,Prison,11363 LOCKHART ROAD,81416,DELTA,DELTA,38.70911617,-108.1486112,08029,
184,state,Colorado,DENVER RECEPTION DIAGNOSTIC CENTER,2022-02-07,https://cdoc.colorado.gov/resources/covid-19-faq-and-updates,359,,2,,26783,,17,,584,,,,,,,,,,,Prison,10900 SMITH ROAD,80239,DENVER,DENVER,39.76677716,-104.8608026,08031,
185,state,Colorado,DENVER WOMENS CORRECTIONAL FACILITY,2022-02-07,https://cdoc.colorado.gov/resources/covid-19-faq-and-updates,453,,0,,21235,,21,,921,,,,,,,,,,,Prison,3600 HAVANA STREET,80239,DENVER,DENVER,39.76510225,-104.860784,08031,
190,state,Colorado,FOUR MILE CORRECTIONAL FACILITY,2022-02-07,https://cdoc.colorado.gov/resources/covid-19-faq-and-updates,456,,0,,5764,,5,,519,,,,,,,,,,,Prison,E US HIGHWAY 50 & EVANS BLVD,81212,CANON CITY,FREMONT,38.42976983,-105.1478509,08043,
191,state,Colorado,FREMONT CORRECTIONAL FACILITY,2022-02-07,https://cdoc.colorado.gov/resources/covid-19-faq-and-updates,1356,,4,,31582,,223,,1622,,,,,,,,,,,Prison,E US HIGHWAY 50 EVANS BLVD,81215,CANON CITY,FREMONT,38.4226424,-105.161617,08043,
192,state,Colorado,LA VISTA CORRECTIONAL FACILITY,2022-02-07,https://cdoc.colorado.gov/resources/covid-19-faq-and-updates,293,,0,,9806,,6,,694,,,,,,,,,,,Prison,1401 WEST 17TH STREET,81003,PUEBLO,PUEBLO,38.28484966,-104.6281974,08101,
193,state,Colorado,LIMON CORRECTIONAL FACILITY,2022-02-07,https://cdoc.colorado.gov/resources/covid-19-faq-and-updates,1019,,0,,7489,,63,,926,,,,,,,,,,,Prison,49030 STATE HIGHWAY 71 SOUTH,80826,LIMON,LINCOLN,39.21808522,-103.6916854,08073,
194,state,Colorado,RIFLE CORRECTIONAL CENTER,2022-02-07,https://cdoc.colorado.gov/resources/covid-19-faq-and-updates,6,,0,,1425,,1,,189,,,,,,,,,,,Prison,200 COUNTY ROAD 219,81650,RIFLE,GARFIELD,39.65016626,-107.7790488,08045,
195,state,Colorado,SAN CARLOS CORRECTIONAL FACILITY,2022-02-07,https://cdoc.colorado.gov/resources/covid-19-faq-and-updates,27,,0,,4319,,0,,216,,,,,,,,,,,Prison,1410 WEST 13TH STREET,81003,PUEBLO,PUEBLO,38.28008753,-104.6317795,08101,
198,state,Colorado,STERLING CORRECTIONAL FACILITY,2022-02-07,https://cdoc.colorado.gov/resources/covid-19-faq-and-updates,2152,,11,,42539,,238,,2504,,,,,,,,,,,Prison,12101 HIGHWAY 61,80751,STERLING,LOGAN,40.61123458,-103.1621015,08075,
199,state,Colorado,TRINIDAD CORRECTIONAL FACILITY,2022-02-07,https://cdoc.colorado.gov/resources/covid-19-faq-and-updates,433,,0,,6488,,45,,502,,,,,,,,,,,Prison,21000 HIGHWAY 350 EAST,81059,MODEL,LAS ANIMAS,37.30034613,-104.2866571,08071,
200,state,Colorado,YOUTHFUL OFFENDER SYSTEM,2022-02-07,https://cdoc.colorado.gov/resources/covid-19-faq-and-updates,186,,0,,3237,,60,,219,,,,,,,,,,,Juvenile,1300 WEST 13TH ST,81003,PUEBLO,PUEBLO,38.27955439,-104.6274606,08101,
201,state,Connecticut,BRIDGEPORT CORRECTIONAL CENTER,2022-02-14,https://portal.ct.gov/DOC/Common-Elements/Common-Elements/Health-Information-and-Advisories,856,,,,,,,,689,,,,,,,,,,,Prison,1106 NORTH AVE,06604,BRIDGEPORT,FAIRFIELD,41.1906143,-73.20106036,09001,
202,state,Connecticut,BROOKLYN CORRECTIONAL INSTITUTION,2022-02-14,https://portal.ct.gov/DOC/Common-Elements/Common-Elements/Health-Information-and-Advisories,174,,,,,,,,428,,,,,,,,,,,Prison,59 HARTFORD RD,06234,BROOKLYN,WINDHAM,41.78416388,-71.95426216,09015,
203,state,Connecticut,CARL ROBINSON CORRECTIONAL INSTITUTION,2022-02-14,https://portal.ct.gov/DOC/Common-Elements/Common-Elements/Health-Information-and-Advisories,583,,,,,,,,1317,,,,,,,,,,,Prison,285 SHAKER RD,06082,ENFIELD,HARTFORD,42.0156533,-72.515607,09003,
204,state,Connecticut,CHESHIRE CORRECTIONAL INSTITUTION,2022-02-14,https://portal.ct.gov/DOC/Common-Elements/Common-Elements/Health-Information-and-Advisories,570,,,,,,,,1147,,,,,,,,,,,Prison,900 HIGHLAND AVE,06410,CHESHIRE,NEW HAVEN,41.52149124,-72.9017651,09009,
206,state,Connecticut,CORRIGAN RADGOWSKI CORRECTIONAL CENTER,2022-02-14,https://portal.ct.gov/DOC/Common-Elements/Common-Elements/Health-Information-and-Advisories,767,,,,,,,,734,,,,,,,,,,,Prison,986 NORWICH-NEW LONDON TURNPIKE,06382,UNCASVILLE,NEW LONDON,41.45418432,-72.11217243,09011,
209,state,Connecticut,GARNER CORRECTIONAL INSTITUTION,2022-02-14,https://portal.ct.gov/DOC/Common-Elements/Common-Elements/Health-Information-and-Advisories,228,,,,,,,,543,,,,,,,,,,,Prison,50 NUNNAWAUK RD,06470,NEWTOWN,FAIRFIELD,41.40035888,-73.2721123,09001,
210,state,Connecticut,HARTFORD CORRECTIONAL CENTER,2022-02-14,https://portal.ct.gov/DOC/Common-Elements/Common-Elements/Health-Information-and-Advisories,876,,,,,,,,888,,,,,,,,,,,Prison,177 WESTON ST,06120,HARTFORD,HARTFORD,41.79362408,-72.66139948,09003,
212,state,Connecticut,MACDOUGALL WALKER CORRECTIONAL INSTITUTION,2022-02-14,https://portal.ct.gov/DOC/Common-Elements/Common-Elements/Health-Information-and-Advisories,1058,,,,,,,,1471,,,,,,,,,,,Prison,1153 EAST ST S,06080,SUFFIELD,HARTFORD,41.95048033,-72.6367468,09003,
213,state,Connecticut,MANSON YOUTH CORRECTIONAL CENTER,2022-02-14,https://portal.ct.gov/DOC/Common-Elements/Common-Elements/Health-Information-and-Advisories,139,,,,,,,,283,,,,,,,,,,,Juvenile,42 JARVIS ST,06410,CHESHIRE,NEW HAVEN,41.53050021,-72.89979775,09009,
214,state,Connecticut,NEW HAVEN CORRECTIONAL CENTER,2022-02-14,https://portal.ct.gov/DOC/Common-Elements/Common-Elements/Health-Information-and-Advisories,1038,,,,,,,,683,,,,,,,,,,,Prison,245 WHALLEY AVE,06511,NEW HAVEN,NEW HAVEN,41.31748057,-72.93997131,09009,
216,state,Connecticut,NORTHERN CORRECTIONAL INSTITUTION,2022-02-14,https://portal.ct.gov/DOC/Common-Elements/Common-Elements/Health-Information-and-Advisories,14,,,,,,,,78,,,,,,,,,,,Prison,287 BILTON RD,06071,SOMERS,TOLLAND,42.0188064,-72.4948806,09013,
217,state,Connecticut,OSBORN CORRECTIONAL INSTITUTION,2022-02-14,https://portal.ct.gov/DOC/Common-Elements/Common-Elements/Health-Information-and-Advisories,711,,,,,,,,1253,,,,,,,,,,,Prison,335 BILTON RD,06071,SOMERS,TOLLAND,42.01640023,-72.49693453,09013,
220,state,Connecticut,WILLARD CYBULSKI CORRECTIONAL INSTITUTION,2022-02-14,https://portal.ct.gov/DOC/Common-Elements/Common-Elements/Health-Information-and-Advisories,232,,,,,,,,1090,,,,,,,,,,,Prison,391 SHAKER RD,06082,ENFIELD,TOLLAND,42.0167978,-72.5062987,09003,
221,state,Connecticut,YORK CORRECTIONAL INSTITUTION,2022-02-14,https://portal.ct.gov/DOC/Common-Elements/Common-Elements/Health-Information-and-Advisories,402,,,,,,,,883,,,,,,,,,,,Prison,201 W MAIN ST,06357,NIANTIC,NEW LONDON,41.32308179,-72.23754189,09011,
222,state,Delaware,DELORES J BAYLOR WOMANS CORRECTIONAL INSTITUTION,2022-02-14,https://doc.delaware.gov/assets/documents/Confirmed_COVID_Cases.pdf,,,0,,,,12,0,350,,,,,,,,,,,Prison,660 BAYLOR BLVD,19720,NEW CASTLE,NEW CASTLE,39.7039322,-75.58125772,10003,
223,state,Delaware,DOVER PROBATION AND PAROLE,2022-02-14,https://doc.delaware.gov/assets/documents/Confirmed_COVID_Cases.pdf,,,,,,,,0,,,,,,,,,,,,Prison,,,,,,,,
226,state,Delaware,HOWARD R YOUNG CORRECTIONAL INSTITUTION,2022-02-14,https://doc.delaware.gov/assets/documents/Confirmed_COVID_Cases.pdf,,,0,,,,8,3,1354,,,,,,,,,,,Prison,1301 E 12TH ST,19802,WILMINGTON,NEW CASTLE,39.7412423,-75.5294058,10003,
227,state,Delaware,JAMES T VAUGHN CORRECTIONAL CENTER,2022-02-14,https://doc.delaware.gov/assets/documents/Confirmed_COVID_Cases.pdf,,,8,,,,4,4,2424,,,,,,,,,,,Prison,1181 PADDOCK RD,19977,SMYRNA,NEW CASTLE,39.33295451,-75.59958958,10003,
231,state,Delaware,PLUMMER COMMUNITY CORRECTIONS CENTER,2022-02-14,https://doc.delaware.gov/assets/documents/Confirmed_COVID_Cases.pdf,,,0,,,,0,0,156,,,,,,,,,,,Prison,38 TODDS LN,19802,WILMINGTON,NEW CASTLE,39.75664471,-75.52904371,10003,
233,state,Delaware,SPECIAL OPERATIONS GROUP,2022-02-14,https://doc.delaware.gov/assets/documents/Confirmed_COVID_Cases.pdf,,,,,,,,0,,,,,,,,,,,,Prison,,,,,,,,
236,state,Delaware,SUSSEX COMMUNITY CORRECTIONS CENTER,2022-02-14,https://doc.delaware.gov/assets/documents/Confirmed_COVID_Cases.pdf,,,0,,,,1,2,308,,,,,,,,,,,Prison,23207 DUPONT BLVD,19947,GEORGETOWN,SUSSEX,38.6596352,-75.3711832,10005,
237,state,Delaware,SUSSEX CORRECTIONAL INSTITUTION,2022-02-14,https://doc.delaware.gov/assets/documents/Confirmed_COVID_Cases.pdf,,,5,,,,8,5,1157,,,,,,,,,,,Prison,23203 DUPONT BLVD,19947,GEORGETOWN,SUSSEX,38.665915,-75.3801231,10005,
240,state,Florida,APALACHEE CORRECTIONAL INSTITUTION,2022-02-14,http://ww11.doh.state.fl.us/comm/_partners/covid19_report_archive/correction-facilities-deaths/fdc_death_latest.pdf,,,1,0,,,,,1804,,,,,,,,,,,Prison,52 WEST UNIT DR,32460,SNEADS,JACKSON,30.71148316,-84.88818219,12063,
241,state,Florida,AVON PARK CORRECTIONAL INSTITUTION,2022-02-14,http://ww11.doh.state.fl.us/comm/_partners/covid19_report_archive/correction-facilities-deaths/fdc_death_latest.pdf,,,3,0,,,,,1543,,,,,,,,,,,Prison,8100 HIGHWAY 64 EAST,33825,AVON PARK,POLK,27.6462871,-81.4036521,12105,
242,state,Florida,BAKER CORRECTIONAL INSTITUTION,2022-02-14,http://ww11.doh.state.fl.us/comm/_partners/covid19_report_archive/correction-facilities-deaths/fdc_death_latest.pdf,,,1,0,,,,,1695,,,,,,,,,,,Prison,20706 US HIGHWAY 90 W,32087,SANDERSON,BAKER,30.21325143,-82.37451212,12003,
243,state,Florida,BAY CF,2022-02-14,http://ww11.doh.state.fl.us/comm/_partners/covid19_report_archive/correction-facilities-deaths/fdc_death_latest.pdf,,,3,0,,,,,964,,,,,,,,,,,Prison,5400 BAYLINE DR,32404,PANAMA CITY,BAY,30.26570712,-85.50553247,12005,
244,state,Florida,BLACKWATER CF,2022-02-14,http://ww11.doh.state.fl.us/comm/_partners/covid19_report_archive/correction-facilities-deaths/fdc_death_latest.pdf,,,7,0,,,,,1977,,,,,,,,,,,Prison,5914 JEFF ATES ROAD,32583,MILTON,SANTA ROSA,30.64568696,-86.95060909,12113,
246,state,Florida,CALHOUN CORRECTIONAL INSTITUTION,2022-02-14,http://ww11.doh.state.fl.us/comm/_partners/covid19_report_archive/correction-facilities-deaths/fdc_death_latest.pdf,,,3,0,,,,,1808,,,,,,,,,,,Prison,19564 SE INSTITUTION DR,32424,BLOUNTSTOWN,CALHOUN,30.40585,-85.06394467,12013,
247,state,Florida,CENTRAL FLORIDA RECEPTION CENTER,2022-02-14,http://ww11.doh.state.fl.us/comm/_partners/covid19_report_archive/correction-facilities-deaths/fdc_death_latest.pdf,,,5,0,,,,,2422,,,,,,,,,,,Prison,7000 H C KELLEY RD,32831,ORLANDO,ORANGE,28.45327514,-81.15900956,12095,
249,state,Florida,CENTURY CORRECTIONAL INSTITUTION,2022-02-14,http://ww11.doh.state.fl.us/comm/_partners/covid19_report_archive/correction-facilities-deaths/fdc_death_latest.pdf,,,3,0,,,,,1514,,,,,,,,,,,Prison,400 TEDDER RD,32535,CENTURY,ESCAMBIA,30.95817641,-87.29950017,12033,
250,state,Florida,CHARLOTTE CORRECTIONAL INSTITUTION,2022-02-14,http://ww11.doh.state.fl.us/comm/_partners/covid19_report_archive/correction-facilities-deaths/fdc_death_latest.pdf,,,0,0,,,,,1203,,,,,,,,,,,Prison,33123 OIL WELL RD,33955,PUNTA GORDA,CHARLOTTE,26.8036079,-81.90380995,12015,
255,state,Florida,COLUMBIA CORRECTIONAL INSTITUTION,2022-02-14,http://ww11.doh.state.fl.us/comm/_partners/covid19_report_archive/correction-facilities-deaths/fdc_death_latest.pdf,,,10,0,,,,,2906,,,,,,,,,,,Prison,7906 EAST HIGHWAY 90,32055,LAKE CITY,COLUMBIA,30.19252797,-82.50773893,12023,
260,state,Florida,CROSS CITY CI,2022-02-14,http://ww11.doh.state.fl.us/comm/_partners/covid19_report_archive/correction-facilities-deaths/fdc_death_latest.pdf,,,3,0,,,,,1044,,,,,,,,,,,Prison,568 NE 255TH ST,32628,CROSS CITY,DIXIE,29.63475364,-83.09887133,12029,
261,state,Florida,DADE CORRECTIONAL INSTITUTION,2022-02-14,http://ww11.doh.state.fl.us/comm/_partners/covid19_report_archive/correction-facilities-deaths/fdc_death_latest.pdf,,,10,0,,,,,1440,,,,,,,,,,,Prison,19000 SW 377TH ST,33034,FLORIDA CITY,MIAMI-DADE,25.4154012,-80.4999188,12086,
262,state,Florida,DESOTO ANNEX,2022-02-14,http://ww11.doh.state.fl.us/comm/_partners/covid19_report_archive/correction-facilities-deaths/fdc_death_latest.pdf,,,0,0,,,,,1797,,,,,,,,,,,Prison,13617 SE HWY 70,34266,ARCADIA,DESOTO,27.20934,-81.66191,12027,
265,state,Florida,EVERGLADES CORRECTIONAL INSTITUTION,2022-02-14,http://ww11.doh.state.fl.us/comm/_partners/covid19_report_archive/correction-facilities-deaths/fdc_death_latest.pdf,,,7,0,,,,,2178,,,,,,,,,,,Prison,1599 S.W. 187TH AVE.,33194,MIAMI,MIAMI-DADE,25.75086336,-80.48896138,12086,
266,state,Florida,FLORIDA STATE PRISON,2022-02-14,http://ww11.doh.state.fl.us/comm/_partners/covid19_report_archive/correction-facilities-deaths/fdc_death_latest.pdf,,,0,0,,,,,2106,,,,,,,,,,,Prison,7819 N.W. 228TH STREET,32026,RAIFORD,BRADFORD,30.0584396,-82.1836504,12007,
267,state,Florida,FLORIDA WOMENS RECEPTION CENTER,2022-02-14,http://ww11.doh.state.fl.us/comm/_partners/covid19_report_archive/correction-facilities-deaths/fdc_death_latest.pdf,,,5,1,,,,,898,,,,,,,,,,,Prison,3700 NW 111TH PLACE,34482,OCALA,MARION,29.30979922,-82.18626021,12083,
268,state,Florida,FRANKLIN CORRECTIONAL INSTITUTION,2022-02-14,http://ww11.doh.state.fl.us/comm/_partners/covid19_report_archive/correction-facilities-deaths/fdc_death_latest.pdf,,,1,0,,,,,1227,,,,,,,,,,,Prison,1760 HWY 67 NORTH,32322,CARRABELLE,FRANKLIN,29.87797428,-84.64585656,12037,
269,state,Florida,GADSDEN CF,2022-02-14,http://ww11.doh.state.fl.us/comm/_partners/covid19_report_archive/correction-facilities-deaths/fdc_death_latest.pdf,,,0,0,,,,,1049,,,,,,,,,,,Prison,6044 GREENSBORO HWY,32351,QUINCY,GADSDEN,30.5897214,-84.65558376,12039,
270,state,Florida,GADSDEN REENTRY CENTER,2022-02-14,http://ww11.doh.state.fl.us/comm/_partners/covid19_report_archive/correction-facilities-deaths/fdc_death_latest.pdf,,,0,0,,,,,395,,,,,,,,,,,Prison,630 OPPORTUNITY LANE,32333,HAVANA,GADSDEN,30.54608079,-84.49489877,12039,
271,state,Florida,GRACEVILLE CF,2022-02-14,http://ww11.doh.state.fl.us/comm/_partners/covid19_report_archive/correction-facilities-deaths/fdc_death_latest.pdf,,,6,0,,,,,264,,,,,,,,,,,Prison,5230 EZELL RD,32440,GRACEVILLE,JACKSON,30.94829087,-85.49222414,12063,
272,state,Florida,GULF CORRECTIONAL INSTITUTION,2022-02-14,http://ww11.doh.state.fl.us/comm/_partners/covid19_report_archive/correction-facilities-deaths/fdc_death_latest.pdf,,,1,2,,,,,1070,,,,,,,,,,,Prison,699 IKE STEELE ROAD,32465,WEWAHITCHKA,GULF,30.17512766,-85.26724893,12045,
273,state,Florida,HAMILTON CORRECTIONAL INSTITUTION,2022-02-14,http://ww11.doh.state.fl.us/comm/_partners/covid19_report_archive/correction-facilities-deaths/fdc_death_latest.pdf,,,2,0,,,,,2257,,,,,,,,,,,Prison,10650 SW 46TH ST,32052,JASPER,HAMILTON,30.504668,-82.9631921,12047,
274,state,Florida,HARDEE CORRECTIONAL INSTITUTION,2022-02-14,http://ww11.doh.state.fl.us/comm/_partners/covid19_report_archive/correction-facilities-deaths/fdc_death_latest.pdf,,,0,0,,,,,1606,,,,,,,,,,,Prison,6899 STATE RD 62,33834,BOWLING GREEN,HARDEE,27.59369353,-82.00687498,12049,
275,state,Florida,HERNANDO CORRECTIONAL INSTITUTION,2022-02-14,http://ww11.doh.state.fl.us/comm/_partners/covid19_report_archive/correction-facilities-deaths/fdc_death_latest.pdf,,,0,0,,,,,436,,,,,,,,,,,Prison,16415 SPRING HILL DR,34604,BROOKSVILLE,HERNANDO,28.48302199,-82.45443373,12053,
277,state,Florida,HOLMES CORRECTIONAL INSTITUTION,2022-02-14,http://ww11.doh.state.fl.us/comm/_partners/covid19_report_archive/correction-facilities-deaths/fdc_death_latest.pdf,,,1,0,,,,,1444,,,,,,,,,,,Prison,3142 THOMAS DR,32425,BONIFAY,HOLMES,30.75545064,-85.6701594,12059,
278,state,Florida,HOMESTEAD CORRECTIONAL INSTITUTION,2022-02-14,http://ww11.doh.state.fl.us/comm/_partners/covid19_report_archive/correction-facilities-deaths/fdc_death_latest.pdf,,,3,0,,,,,707,,,,,,,,,,,Prison,19000 SW 377TH ST,33034,FLORIDA CITY,MIAMI-DADE,25.41299306,-80.49729982,12086,
279,state,Florida,JACKSON CORRECTIONAL INSTITUTION,2022-02-14,http://ww11.doh.state.fl.us/comm/_partners/covid19_report_archive/correction-facilities-deaths/fdc_death_latest.pdf,,,0,1,,,,,2331,,,,,,,,,,,Prison,5563 10TH ST,32445,MALONE,JACKSON,30.96872589,-85.16860405,12063,
281,state,Florida,JEFFERSON CORRECTIONAL INSTITUTION,2022-02-14,http://ww11.doh.state.fl.us/comm/_partners/covid19_report_archive/correction-facilities-deaths/fdc_death_latest.pdf,,,0,0,,,,,783,,,,,,,,,,,Prison,1050 BIG JOE RD,32344,MONTICELLO,JEFFERSON,30.50973618,-83.80157593,12065,
283,state,Florida,LAKE CITY CF,2022-02-14,http://ww11.doh.state.fl.us/comm/_partners/covid19_report_archive/correction-facilities-deaths/fdc_death_latest.pdf,,,0,0,,,,,876,,,,,,,,,,,Prison,7906 EAST HIGHWAY 90,32055,LAKE CITY,COLUMBIA,30.19252797,-82.50773893,12023,
284,state,Florida,LAKE CORRECTIONAL INSTITUTION,2022-02-14,http://ww11.doh.state.fl.us/comm/_partners/covid19_report_archive/correction-facilities-deaths/fdc_death_latest.pdf,,,2,0,,,,,1006,,,,,,,,,,,Prison,19225 US HWY 27,34715,CLERMONT,LAKE,28.62049362,-81.76642774,12069,
285,state,Florida,LANCASTER CORRECTIONAL INSTITUTION,2022-02-14,http://ww11.doh.state.fl.us/comm/_partners/covid19_report_archive/correction-facilities-deaths/fdc_death_latest.pdf,,,1,0,,,,,720,,,,,,,,,,,Prison,3449 SW STATE RD 26,32693,TRENTON,GILCHRIST,29.60801197,-82.8634739,12041,
286,state,Florida,LAWTEY CORRECTIONAL INSTITUTION,2022-02-14,http://ww11.doh.state.fl.us/comm/_partners/covid19_report_archive/correction-facilities-deaths/fdc_death_latest.pdf,,,0,0,,,,,804,,,,,,,,,,,Prison,22298 NE COUNTY ROAD 200B,32058,LAWTEY,BRADFORD,30.0339212,-82.07236464,12007,
287,state,Florida,LIBERTY CORRECTIONAL INSTITUTION,2022-02-14,http://ww11.doh.state.fl.us/comm/_partners/covid19_report_archive/correction-facilities-deaths/fdc_death_latest.pdf,,,3,0,,,,,1771,,,,,,,,,,,Prison,11064 NW DEMPSEY BARRON RD,32321,BRISTOL,LIBERTY,30.46383683,-84.85588125,12077,
288,state,Florida,LOWELL CORRECTIONAL INSTITUTION,2022-02-14,http://ww11.doh.state.fl.us/comm/_partners/covid19_report_archive/correction-facilities-deaths/fdc_death_latest.pdf,,,2,0,,,,,2405,,,,,,,,,,,Prison,11120 NW GAINESVILLE RD,34482,OCALA,MARION,29.31079789,-82.20039763,12083,
289,state,Florida,MADISON CORRECTIONAL INSTITUTION,2022-02-14,http://ww11.doh.state.fl.us/comm/_partners/covid19_report_archive/correction-facilities-deaths/fdc_death_latest.pdf,,,2,1,,,,,1277,,,,,,,,,,,Prison,382 SW MCI WAY,32340,MADISON,MADISON,30.44008751,-83.42161169,12079,
291,state,Florida,MARION CORRECTIONAL INSTITUTION,2022-02-14,http://ww11.doh.state.fl.us/comm/_partners/covid19_report_archive/correction-facilities-deaths/fdc_death_latest.pdf,,,0,0,,,,,1569,,,,,,,,,,,Prison,3269 NW 105TH ST,34475,OCALA,MARION,29.30810089,-82.17502385,12083,
292,state,Florida,MARTIN CORRECTIONAL INSTITUTION,2022-02-14,http://ww11.doh.state.fl.us/comm/_partners/covid19_report_archive/correction-facilities-deaths/fdc_death_latest.pdf,,,0,1,,,,,1720,,,,,,,,,,,Prison,1150 SW ALLAPATTAH ROAD,34956,INDIANTOWN,MARTIN,27.19661972,-80.48487746,12085,
293,state,Florida,MAYO ANNEX,2022-02-14,http://ww11.doh.state.fl.us/comm/_partners/covid19_report_archive/correction-facilities-deaths/fdc_death_latest.pdf,,,0,0,,,,,1399,,,,,,,,,,,Prison,8784 US HWY 27 W,32066,MAYO,LAFAYETTE,30.1384625,-83.30514217,12067,
296,state,Florida,MOORE HAVEN CF,2022-02-14,http://ww11.doh.state.fl.us/comm/_partners/covid19_report_archive/correction-facilities-deaths/fdc_death_latest.pdf,,,1,0,,,,,964,,,,,,,,,,,Prison,1282 EAST STATE ROAD 78,33471,MOORE HAVEN,GLADES,26.83843221,-81.12018204,12043,
297,state,Florida,NEW RIVER CORRECTIONAL INSTITUTION,2022-02-14,http://ww11.doh.state.fl.us/comm/_partners/covid19_report_archive/correction-facilities-deaths/fdc_death_latest.pdf,,,3,0,,,,,1255,,,,,,,,,,,Prison,8000 NW 80TH PLACE,32083,RAIFORD,BRADFORD,30.0628479,-82.17809153,12007,
298,state,Florida,NORTHWEST FLORIDA RECEPTION CENTER,2022-02-14,http://ww11.doh.state.fl.us/comm/_partners/covid19_report_archive/correction-facilities-deaths/fdc_death_latest.pdf,,,1,0,,,,,3127,,,,,,,,,,,Prison,4455 SAM MITCHELL DR,32428,CHIPLEY,WASHINGTON,30.52072999,-85.65969841,12133,
299,state,Florida,OKALOOSA CORRECTIONAL INSTITUTION,2022-02-14,http://ww11.doh.state.fl.us/comm/_partners/covid19_report_archive/correction-facilities-deaths/fdc_death_latest.pdf,,,2,0,,,,,1110,,,,,,,,,,,Prison,3189 COLONEL GREG MALLOY RD,32539,CRESTVIEW,OKALOOSA,30.69681196,-86.527331040000007,12091,
300,state,Florida,OKEECHOBEE CORRECTIONAL INSTITUTION,2022-02-14,http://ww11.doh.state.fl.us/comm/_partners/covid19_report_archive/correction-facilities-deaths/fdc_death_latest.pdf,,,6,0,,,,,2178,,,,,,,,,,,Prison,3420 NE 168TH ST,34972,OKEECHOBEE,OKEECHOBEE,27.39606954,-80.78444465,12093,
302,state,Florida,POLK CORRECTIONAL INSTITUTION,2022-02-14,http://ww11.doh.state.fl.us/comm/_partners/covid19_report_archive/correction-facilities-deaths/fdc_death_latest.pdf,,,1,0,,,,,1381,,,,,,,,,,,Prison,10800 EVANS RD,33868,POLK CITY,POLK,28.19151724,-81.78675795,12105,
303,state,Florida,PUTNAM CORRECTIONAL INSTITUTION,2022-02-14,http://ww11.doh.state.fl.us/comm/_partners/covid19_report_archive/correction-facilities-deaths/fdc_death_latest.pdf,,,0,0,,,,,450,,,,,,,,,,,Prison,128 YELVINGTON RD,32131,EAST PALATKA,PUTNAM,29.64617008,-81.58778592,12107,
304,state,Florida,RECEPTION MEDICAL CENTER,2022-02-14,http://ww11.doh.state.fl.us/comm/_partners/covid19_report_archive/correction-facilities-deaths/fdc_death_latest.pdf,,,45,2,,,,,2386,,,,,,,,,,,Prison,7765 S COUNTY RD 231,32054,LAKE BUTLER,UNION,29.98965556,-82.35918381,12125,
308,state,Florida,SANTA ROSA CI,2022-02-14,http://ww11.doh.state.fl.us/comm/_partners/covid19_report_archive/correction-facilities-deaths/fdc_death_latest.pdf,,,0,0,,,,,1441,,,,,,,,,,,Prison,5850 E MILTON RD,32583,MILTON,SANTA ROSA,30.64561525,-86.96742857,12113,
309,state,Florida,SOUTH BAY CF,2022-02-14,http://ww11.doh.state.fl.us/comm/_partners/covid19_report_archive/correction-facilities-deaths/fdc_death_latest.pdf,,,8,0,,,,,1924,,,,,,,,,,,Prison,600 US HWY 27 S,33493,SOUTH BAY,PALM BEACH,26.65774766,-80.71928984,12099,
311,state,Florida,SOUTH FLORIDA RECEPTION CENTER,2022-02-14,http://ww11.doh.state.fl.us/comm/_partners/covid19_report_archive/correction-facilities-deaths/fdc_death_latest.pdf,,,26,0,,,,,1531,,,,,,,,,,,Prison,14000 NW 41ST ST,33178,DORAL,MIAMI-DADE,25.80587656,-80.42638712,12086,
312,county,Florida,ST LUCIE COUNTY JAIL,2022-02-14,https://www.stluciesheriff.com/288/COVID-19-Information,,,,,,,4,,808,1335,,,,,,,,,,County,,,,,,,,
314,state,Florida,SUMTER CORRECTIONAL INSTITUTION,2022-02-14,http://ww11.doh.state.fl.us/comm/_partners/covid19_report_archive/correction-facilities-deaths/fdc_death_latest.pdf,,,3,0,,,,,1324,,,,,,,,,,,Prison,9544 COUNTY RD 476B,33513,BUSHNELL,SUMTER,28.61748387,-82.20754297,12119,
315,state,Florida,SUWANNEE CORRECTIONAL INSTITUTION,2022-02-14,http://ww11.doh.state.fl.us/comm/_partners/covid19_report_archive/correction-facilities-deaths/fdc_death_latest.pdf,,,7,0,,,,,2043,,,,,,,,,,,Prison,5964 US HWY 90,32060,LIVE OAK,SUWANNEE,30.23819413,-82.87311813,12121,
317,state,Florida,TAYLOR CORRECTIONAL INSTITUTION,2022-02-14,http://ww11.doh.state.fl.us/comm/_partners/covid19_report_archive/correction-facilities-deaths/fdc_death_latest.pdf,,,4,1,,,,,2264,,,,,,,,,,,Prison,8501 HAMPTON SPRINGS ROAD,32348,PERRY,TAYLOR,30.040944,-83.71342,12123,
318,state,Florida,TOMOKA CORRECTIONAL INSTITUTION,2022-02-14,http://ww11.doh.state.fl.us/comm/_partners/covid19_report_archive/correction-facilities-deaths/fdc_death_latest.pdf,,,2,0,,,,,1497,,,,,,,,,,,Prison,3950 TIGER BAY RD,32124,DAYTONA BEACH,VOLUSIA,29.15157094,-81.15726813,12127,
319,state,Florida,UNION CORRECTIONAL INSTITUTION,2022-02-14,http://ww11.doh.state.fl.us/comm/_partners/covid19_report_archive/correction-facilities-deaths/fdc_death_latest.pdf,,,16,0,,,,,1720,,,,,,,,,,,Prison,7819 NW 228TH ST,32083,RAIFORD,UNION,30.06674635,-82.19278712,12125,
320,state,Florida,WAKULLA CORRECTIONAL INSTITUTION,2022-02-14,http://ww11.doh.state.fl.us/comm/_partners/covid19_report_archive/correction-facilities-deaths/fdc_death_latest.pdf,,,6,0,,,,,2976,,,,,,,,,,,Prison,110 MELALEUCA DRIVE,32327,CRAWFORDVILLE,WAKULLA,30.2614929,-84.1748045,12129,
321,state,Florida,WALTON CORRECTIONAL INSTITUTION,2022-02-14,http://ww11.doh.state.fl.us/comm/_partners/covid19_report_archive/correction-facilities-deaths/fdc_death_latest.pdf,,,1,0,,,,,1437,,,,,,,,,,,Prison,691 INSTITUTION RD,32433,DEFUNIAK SPRINGS,WALTON,30.77868009,-86.10318532,12131,
322,state,Florida,ZEPHYRHILLS CORRECTIONAL INSTITUTION,2022-02-14,http://ww11.doh.state.fl.us/comm/_partners/covid19_report_archive/correction-facilities-deaths/fdc_death_latest.pdf,,,4,0,,,,,603,,,,,,,,,,,Prison,2739 GALL BLVD,33541,ZEPHYRHILLS,PASCO,28.19909791,-82.19869217,12101,
323,state,Georgia,APPLING INTEGRATED TREATMENT FACILITY,2021-07-16,http://www.dcor.state.ga.us/content/CVD_Dashboard,17,7,0,0,,,,,191,,,,,,,,,,,Prison,252 WEST PARK DRIVE,31513,BAXLEY,APPLING,31.8050704,-82.40883899,13001,
324,state,Georgia,ATLANTA TRANSITIONAL CENTER,2021-07-16,http://www.dcor.state.ga.us/content/CVD_Dashboard,17,7,0,0,,,,,273,,,,,,,,,,,Prison,332 PONCE DE LEON AVE NE,30308,ATLANTA,FULTON,33.77270217,-84.3762642,13121,
326,state,Georgia,AUGUSTA STATE MEDICAL PRISON,2021-07-16,http://www.dcor.state.ga.us/content/CVD_Dashboard,267,122,6,1,,,,,1223,,,,,,,,,,,Prison,3001 GORDON HWY,30813,GROVETOWN,COLUMBIA,33.43287905,-82.18852112,13073,
327,state,Georgia,AUGUSTA TRANSITIONAL CENTER,2021-07-16,http://www.dcor.state.ga.us/content/CVD_Dashboard,16,12,0,0,,,,,225,,,,,,,,,,,Prison,601 TAYLOR STREET,30906,AUGUSTA,RICHMOND,33.46676876,-81.96605692,13245,
328,state,Georgia,AUTRY STATE PRISON,2021-07-16,http://www.dcor.state.ga.us/content/CVD_Dashboard,107,29,3,0,,,,,1436,,,,,,,,,,,Prison,3178 MOUNT ZION CHURCH RD,31779,PELHAM,MITCHELL,31.18946471,-84.14510952,13205,
329,state,Georgia,BACON PROBATION DETENTION CENTER,2021-07-16,http://www.dcor.state.ga.us/content/CVD_Dashboard,26,18,0,0,,,,,232,,,,,,,,,,,Prison,165 EAST EASTSIDE INDUSTRIAL BOULEVARD,31510,ALMA,BACON,31.53308262,-82.44987705,13005,
330,state,Georgia,BAINBRIDGE PROBATION SUBSTANCE ABUSE TREATMENT,2021-07-16,http://www.dcor.state.ga.us/content/CVD_Dashboard,91,28,0,0,,,,,,,,,,,,,,,,Prison,235 STATE HOSPITAL ROAD,39817,BAINBRIDGE,DECATUR,30.98252995,-84.63677462,13087,
332,state,Georgia,BALDWIN STATE PRISON,2021-07-16,http://www.dcor.state.ga.us/content/CVD_Dashboard,33,51,2,0,,,,,961,,,,,,,,,,,Prison,140 LAYING FARM RD,31034,HARDWICK,BALDWIN,33.0250608,-83.2213613,13009,
333,state,Georgia,BLECKLEY PROBATION SUBSTANCE ABUSE TREATMENT CENTER,2021-07-16,http://www.dcor.state.ga.us/content/CVD_Dashboard,66,20,0,0,,,,,,,,,,,,,,,,Prison,,,,,,,,
334,state,Georgia,BULLOCH COUNTY CORRECTIONAL INSTITUTION,2021-07-16,http://www.dcor.state.ga.us/content/CVD_Dashboard,2,0,0,0,,,,,153,,,,,,,,,,,Prison,,,,,,,,
335,state,Georgia,BURRUSS CORRECTIONAL TRAINING CENTER,2021-07-16,http://www.dcor.state.ga.us/content/CVD_Dashboard,29,25,1,0,,,,,769,,,,,,,,,,,Prison,1000 INDIAN SPRINGS DR,31029,FORSYTH,MONROE,33.05554556,-83.97538536,13207,
336,state,Georgia,CALHOUN STATE PRISON,2021-07-16,http://www.dcor.state.ga.us/content/CVD_Dashboard,59,35,1,1,,,,,1675,,,,,,,,,,,Prison,27823 MAIN ST,39866,MORGAN,CALHOUN,31.53975718,-84.6166883,13037,
337,state,Georgia,CARROLL COUNTY CORRECTIONAL INSTITUTION,2021-07-16,http://www.dcor.state.ga.us/content/CVD_Dashboard,18,0,0,0,,,,,250,,,,,,,,,,,Prison,96 HORSLEY MILL ROAD,30117,CARROLLTON,CARROLL,33.57869711,-85.04659773,13045,
338,state,Georgia,CENTRAL STATE PRISON,2021-07-16,http://www.dcor.state.ga.us/content/CVD_Dashboard,36,55,0,0,,,,,1142,,,,,,,,,,,Prison,4600 FULTON MILL RD,31208,MACON,BIBB,32.77682714,-83.75181934,13021,
339,state,Georgia,CLARKE COUNTY CORRECTIONAL INSTITUTION,2021-07-16,http://www.dcor.state.ga.us/content/CVD_Dashboard,17,0,0,0,,,,,160,,,,,,,,,,,Prison,2825 COUNTY FARM ROAD,30601,ATHENS,CLARKE,33.94472297,-83.33031431,13059,
340,state,Georgia,CLAYTON COUNTY CORRECTIONAL INSTITUTION,2021-07-16,http://www.dcor.state.ga.us/content/CVD_Dashboard,15,0,0,0,,,,,261,,,,,,,,,,,Prison,,,,,,,,
341,state,Georgia,CLAYTON TRANSITIONAL CENTER,2021-07-16,http://www.dcor.state.ga.us/content/CVD_Dashboard,7,12,0,0,,,,,371,,,,,,,,,,,Prison,242 FALCON DR,30297,FOREST PARK,CLAYTON,33.62430193,-84.3976813,13063,
342,state,Georgia,COASTAL STATE PRISON,2021-07-16,http://www.dcor.state.ga.us/content/CVD_Dashboard,131,52,8,0,,,,,1597,,,,,,,,,,,Prison,200 GULF STREAM RD,31418,GARDEN CITY,CHATHAM,32.13759217,-81.18656693,13051,
343,state,Georgia,COFFEE CORRECTIONAL FACILITY,2021-07-16,http://www.dcor.state.ga.us/content/CVD_Dashboard,239,0,5,0,,,,,2630,,,,,,,,,,,Prison,1153 NORTH LIBERTY STREET,31554,NICHOLLS,COFFEE,31.53063543,-82.63791259,13069,
344,state,Georgia,COLQUITT COUNTY CORRECTIONAL INSTITUTION,2021-07-16,http://www.dcor.state.ga.us/content/CVD_Dashboard,11,0,0,0,,,,,192,,,,,,,,,,,Prison,200 SOUTH VANDENBERG DRIVE,31768,MOULTRIE,COLQUITT,31.12973082,-83.70786594,13071,
345,state,Georgia,COLUMBUS TRANSITIONAL CENTER,2021-07-16,http://www.dcor.state.ga.us/content/CVD_Dashboard,9,6,0,0,,,,,136,,,,,,,,,,,Prison,3900 SCHATULGA ROAD,31907,COLUMBUS,MUSCOGEE,32.49407873,-84.86892761,13215,
346,state,Georgia,COLWELL PROBATION DETENTION CENTER,2021-07-16,http://www.dcor.state.ga.us/content/CVD_Dashboard,48,7,0,0,,,,,,,,,,,,,,,,Prison,,,,,,,,
347,state,Georgia,COWETA COUNTY CORRECTIONAL INSTITUTION,2021-07-16,http://www.dcor.state.ga.us/content/CVD_Dashboard,84,0,0,0,,,,,233,,,,,,,,,,,Prison,101 SELT ROAD,30263,NEWNAN,COWETA,33.39536115,-84.82112952,13077,
350,state,Georgia,DECATUR COUNTY CORRECTIONAL INSTITUTION,2021-07-16,http://www.dcor.state.ga.us/content/CVD_Dashboard,2,0,0,0,,,,,183,,,,,,,,,,,Prison,1153 AIRPORT ROAD,39817,BAINBRIDGE,DECATUR,30.90775178,-84.60333237,13087,
351,state,Georgia,DODGE STATE PRISON,2021-07-16,http://www.dcor.state.ga.us/content/CVD_Dashboard,40,34,3,1,,,,,1247,,,,,,,,,,,Prison,2971 OLD BETHEL CHURCH ROAD,31012,CHESTER,DODGE,32.3942334,-83.16745955,13091,
352,state,Georgia,DOOLY STATE PRISON,2021-07-16,http://www.dcor.state.ga.us/content/CVD_Dashboard,80,27,4,0,,,,,1717,,,,,,,,,,,Prison,1412 PLUNKETT ROAD,31091,UNADILLA,HOUSTON,32.28092423,-83.71567596,13093,
353,state,Georgia,EFFINGHAM COUNTY CORRECTIONAL INSTITUTION,2021-07-16,http://www.dcor.state.ga.us/content/CVD_Dashboard,49,0,0,0,,,,,195,,,,,,,,,,,Prison,,,SPRINGFIELD,,,,,
354,state,Georgia,EMANUEL PROBATION DETENTION CENTER,2021-07-16,http://www.dcor.state.ga.us/content/CVD_Dashboard,12,11,0,0,,,,,,,,,,,,,,,,Prison,121 CASA DRIVE,30471,TWIN CITY,EMANUEL,32.57167374,-82.16113585,13107,
355,state,Georgia,EMANUEL WOMENS FACILITY,2021-07-16,http://www.dcor.state.ga.us/content/CVD_Dashboard,30,25,0,0,,,,,412,,,,,,,,,,,Prison,714 GUMLOG ROAD,30401,SWAINSBORO,EMANUEL,32.61303825,-82.3564078,13107,
356,state,Georgia,FLOYD COUNTY CORRECTIONAL INSTITUTION,2021-07-16,http://www.dcor.state.ga.us/content/CVD_Dashboard,0,0,0,0,,,,,445,,,,,,,,,,,Prison,,,,,,,,
357,state,Georgia,GEORGIA DIAGNOSTIC AND CLASSIFICATION PRISON,2021-07-16,http://www.dcor.state.ga.us/content/CVD_Dashboard,415,88,7,0,,,,,3290,,,,,,,,,,,Prison,2978 STATE HWYY 36 W PRISON BLVD,30233,JACKSON,BUTTS,33.22107373,-84.06161828,13035,
358,state,Georgia,GEORGIA DIAGNOSTIC AND CLASSIFICATION PRISON SPECIAL MANAGEMENT UNIT,2021-07-16,http://www.dcor.state.ga.us/content/CVD_Dashboard,0,12,0,0,,,,,3290,,,,,,,,,,,Prison,2978 STATE HWYY 36 W PRISON BLVD,30233,JACKSON,BUTTS,33.22107373,-84.06161828,13035,
359,state,Georgia,GEORGIA STATE PRISON,2021-07-16,http://www.dcor.state.ga.us/content/CVD_Dashboard,34,45,3,0,,,,,1459,,,,,,,,,,,Prison,300 1ST AVENUE SOUTH,30453,REIDSVILLE,TATTNALL,32.00512895,-82.16473427,13267,
360,state,Georgia,GWINNETT COUNTY CORRECTIONAL INSTITUTION,2021-07-16,http://www.dcor.state.ga.us/content/CVD_Dashboard,75,0,0,0,,,,,222,,,,,,,,,,,Prison,,,,,,,,
361,state,Georgia,HALL COUNTY CORRECTIONAL INSTITUTION,2021-07-16,http://www.dcor.state.ga.us/content/CVD_Dashboard,5,0,0,0,,,,,207,,,,,,,,,,,Prison,1698 BARBER ROAD,30507,GAINESVILLE,HALL,34.24037727,-83.81411093,13139,
362,state,Georgia,HANCOCK STATE PRISON,2021-07-16,http://www.dcor.state.ga.us/content/CVD_Dashboard,129,25,0,0,,,,,1186,,,,,,,,,,,Prison,701 PRISON BLVD,31087,SPARTA,HANCOCK,33.24549405,-82.95092313,13141,
363,state,Georgia,HARRIS COUNTY CORRECTIONAL INSTITUTION,2021-07-16,http://www.dcor.state.ga.us/content/CVD_Dashboard,3,0,0,0,,,,,155,,,,,,,,,,,Prison,9982 SR 116,31811,HAMILTON,HARRIS,32.76447267,-84.86400695,13145,
364,state,Georgia,HAYS STATE PRISON,2021-07-16,http://www.dcor.state.ga.us/content/CVD_Dashboard,43,42,0,0,,,,,1060,,,,,,,,,,,Prison,777 UNDERWOOD DRIVE,30753,TRION,CHATTOOGA,34.50768663,-85.31195302,13055,
365,state,Georgia,HELMS FACILITY,2021-07-16,http://www.dcor.state.ga.us/content/CVD_Dashboard,0,7,0,0,,,,,13,,,,,,,,,,,Prison,1275 CONSTITUTION ROAD SE,30316,ATLANTA,DEKALB,33.68857362,-84.33823463,13089,
366,state,Georgia,HUDSON TRANSITIONAL CENTER,2021-07-16,http://www.dcor.state.ga.us/content/CVD_Dashboard,3,4,0,0,,,,,154,,,,,,,,,,,Prison,,,,,,,,
367,state,Georgia,JACKSON COUNTY CORRECTIONAL INSTITUTION,2021-07-16,http://www.dcor.state.ga.us/content/CVD_Dashboard,0,0,0,0,,,,,151,,,,,,,,,,,Prison,265 I.W. DAVIS ROAD,30549,JEFFERSON,JACKSON,34.15197172,-83.55731447,13157,
368,state,Georgia,JEFFERSON COUNTY CORRECTIONAL INSTITUTION,2021-07-16,http://www.dcor.state.ga.us/content/CVD_Dashboard,4,0,0,0,,,,,194,,,,,,,,,,,Prison,1159 CLARKS MILL ROAD,30434,LOUISVILLE,JEFFERSON,33.02109834,-82.40712914,13163,
369,state,Georgia,JENKINS CORRECTIONAL CENTER,2021-07-16,http://www.dcor.state.ga.us/content/CVD_Dashboard,31,0,4,0,,,,,1147,,,,,,,,,,,Prison,,,,,,,,
370,state,Georgia,JOHNSON STATE PRISON,2021-07-16,http://www.dcor.state.ga.us/content/CVD_Dashboard,131,26,2,0,,,,,1594,,,,,,,,,,,Prison,290 DONOVAN-HARRISON ROAD,31096,WRIGHTSVILLE,JOHNSON,32.74353362,-82.70234985,13167,
371,state,Georgia,LEE ARRENDALE STATE PRISON,2021-07-16,http://www.dcor.state.ga.us/content/CVD_Dashboard,106,48,0,0,,,,,1618,,,,,,,,,,,Prison,2023 GAINESVILLE HWY,30510,ALTO,HABERSHAM,34.45106681,-83.59596645,13137,
372,state,Georgia,LEE ARRENDALE TRANSITIONAL CENTER,2021-07-16,http://www.dcor.state.ga.us/content/CVD_Dashboard,1,3,0,0,,,,,124,,,,,,,,,,,Prison,,,ALTO,,,,,
373,state,Georgia,LEE STATE PRISON,2021-07-16,http://www.dcor.state.ga.us/content/CVD_Dashboard,28,48,2,0,,,,,749,,,,,,,,,,,Prison,153 PINEWOOD DRIVE,31763,LEESBURG,LEE,31.76369451,-84.19354919,13177,
374,state,Georgia,LONG UNIT,2021-07-16,http://www.dcor.state.ga.us/content/CVD_Dashboard,9,19,1,0,,,,,223,,,,,,,,,,,Prison,,,,,,,,
375,state,Georgia,MACON STATE PRISON,2021-07-16,http://www.dcor.state.ga.us/content/CVD_Dashboard,38,66,2,0,,,,,1706,,,,,,,,,,,Prison,2728 SOUTH 49 HWY,31068,OGLETHORPE,MACON,32.25930659,-84.09144003,13193,
376,state,Georgia,MACON TRANSITIONAL CENTER,2021-07-16,http://www.dcor.state.ga.us/content/CVD_Dashboard,10,4,1,0,,,,,134,,,,,,,,,,,Prison,200 HENRY ST,31206,MACON,BIBB,32.81494127,-83.63770702,13021,
377,state,Georgia,MCEVER PDC,2021-07-16,http://www.dcor.state.ga.us/content/CVD_Dashboard,34,16,0,0,,,,,,,,,,,,,,,,Prison,2100 KINGS CHAPEL ROAD,31069,PERRY,HOUSTON,32.46494728,-83.69501268,13153,
379,state,Georgia,METRO REENTRY FACILITY,2021-07-16,http://www.dcor.state.ga.us/content/CVD_Dashboard,4,30,0,0,,,,,351,,,,,,,,,,,Prison,1303 CONSTITUTION ROAD,30316,ATLANTA,DEKALB,33.687261,-84.336355,13089,
380,state,Georgia,METRO TRANSITIONAL CENTER,2021-07-16,http://www.dcor.state.ga.us/content/CVD_Dashboard,10,12,0,0,,,,,228,,,,,,,,,,,Prison,1303 CONSTITUTION ROAD,30316,ATLANTA,DEKALB,33.6885252,-84.336397,13089,
381,state,Georgia,MITCHELL COUNTY CORRECTIONAL INSTITUTION,2021-07-16,http://www.dcor.state.ga.us/content/CVD_Dashboard,3,0,0,0,,,,,141,,,,,,,,,,,Prison,4838 STATE HWY 37 E,31730,CAMILLA,MITCHELL,31.2324018,-84.180085,13205,
382,state,Georgia,MONTGOMERY STATE PRISON,2021-07-16,http://www.dcor.state.ga.us/content/CVD_Dashboard,23,29,1,0,,,,,416,,,,,,,,,,,Prison,650 MOUNT VERNON ALSTON ROAD,30445,MOUNT VERNON,MONTGOMERY,32.16187443,-82.56612123,13209,
383,state,Georgia,MUSCOGEE COUNTY CORRECTIONAL INSTITUTION,2021-07-16,http://www.dcor.state.ga.us/content/CVD_Dashboard,4,0,0,0,,,,,535,,,,,,,,,,,Prison,,,COLUMBUS,,,,,
384,state,Georgia,NORTHWEST RESIDENTIAL SUBSTANCE ABUSE TREATMENT,2021-07-16,http://www.dcor.state.ga.us/content/CVD_Dashboard,19,0,0,0,,,,,,,,,,,,,,,,Prison,,,ROCK SPRING,,,,,
385,state,Georgia,PATTEN PROBATION DETENTION CENTER,2021-07-16,http://www.dcor.state.ga.us/content/CVD_Dashboard,15,13,0,0,,,,,,,,,,,,,,,,Prison,1009 NORTH 10TH AVENUE,31635,LAKELAND,LANIER,31.03988304,-83.0617537,13173,
386,state,Georgia,PAULDING RESIDENTIAL SUBSTANCE ABUSE TREATMENT,2021-07-16,http://www.dcor.state.ga.us/content/CVD_Dashboard,51,29,0,0,,,,,150,,,,,,,,,,,Prison,1295 N INDUSTRIAL BLVD,30132,DALLAS,PAULDING,33.94976674,-84.81466644,13223,
387,state,Georgia,PHILLIPS STATE PRISON,2021-07-16,http://www.dcor.state.ga.us/content/CVD_Dashboard,113,52,1,0,,,,,1083,,,,,,,,,,,Prison,2989 WEST ROCK QUARRY ROAD,30519,BUFORD,GWINNETT,34.0942918,-83.9105205,13135,
388,state,Georgia,PHILLIPS TRANSITIONAL CENTER,2021-07-16,http://www.dcor.state.ga.us/content/CVD_Dashboard,9,3,0,0,,,,,187,,,,,,,,,,,Prison,2989 W ROCK QUARRY ROAD,30519,BUFORD,GWINNETT,34.09554623,-83.90946974,13135,
389,state,Georgia,PULASKI STATE PRISON,2021-07-16,http://www.dcor.state.ga.us/content/CVD_Dashboard,118,64,1,0,,,,,1187,,,,,,,,,,,Prison,373 UPPER RIVER ROAD,31036,HAWKINSVILLE,PULASKI,32.3115199,-83.45723464,13235,
390,state,Georgia,RICHMOND COUNTY CORRECTIONAL INSTITUTION,2021-07-16,http://www.dcor.state.ga.us/content/CVD_Dashboard,12,0,0,0,,,,,239,,,,,,,,,,,Prison,2314 TOBACCO RD,30906,AUGUSTA,RICHMOND,33.37332514,-82.0392013,13245,
391,state,Georgia,RIVERBEND CORRECTIONAL FACILITY,2021-07-16,http://www.dcor.state.ga.us/content/CVD_Dashboard,18,0,3,0,,,,,1517,,,,,,,,,,,Prison,196 LAYING FARM ROAD,31061,MILLEDGEVILLE,BALDWIN,33.02808425,-83.219548,13009,
392,state,Georgia,ROGERS STATE PRISON,2021-07-16,http://www.dcor.state.ga.us/content/CVD_Dashboard,20,28,1,0,,,,,1438,,,,,,,,,,,Prison,1978 GEORGIA HIGHWAY 147,30453,REIDSVILLE,TATTNALL,32.00090161,-82.17994887,13267,
393,state,Georgia,RUTLEDGE STATE PRISON,2021-07-16,http://www.dcor.state.ga.us/content/CVD_Dashboard,27,28,2,0,,,,,630,,,,,,,,,,,Prison,7175 MANOR ROAD,31907,COLUMBUS,MUSCOGEE,32.49582796,-84.86617971,13215,
394,state,Georgia,SCREVEN COUNTY CORRECTIONAL INSTITUTION,2021-07-16,http://www.dcor.state.ga.us/content/CVD_Dashboard,0,0,0,0,,,,,145,,,,,,,,,,,Prison,859 ROCKYFORD ROAD,30467,SYLVANIA,SCREVEN,32.750259990000004,-81.67027866,13251,
395,state,Georgia,SMITH STATE PRISON,2021-07-16,http://www.dcor.state.ga.us/content/CVD_Dashboard,26,23,1,0,,,,,1493,,,,,,,,,,,Prison,9676 UNITED STATES HIGHWAY 301 NORTH,30427,GLENNVILLE,TATTNALL,31.97310836,-81.91578361,13267,
396,state,Georgia,SMITH TRANSITIONAL CENTER,2021-07-16,http://www.dcor.state.ga.us/content/CVD_Dashboard,11,3,0,0,,,,,207,,,,,,,,,,,Prison,8631 UNITED STATES HIGHWAY 301 NORTH,30417,CLAXTON,EVANS,32.17946064,-81.89434266,13109,
398,state,Georgia,SPALDING COUNTY CORRECTIONAL INSTITUTION,2021-07-16,http://www.dcor.state.ga.us/content/CVD_Dashboard,0,0,0,0,,,,,377,,,,,,,,,,,Prison,295 JUSTICE BLVD,30223,GRIFFIN,SPALDING,33.23601744,-84.29297557,13255,
399,state,Georgia,SUMTER COUNTY CORRECTIONAL INSTITUTION,2021-07-16,http://www.dcor.state.ga.us/content/CVD_Dashboard,0,0,0,0,,,,,357,,,,,,,,,,,Prison,,,,,,,,
400,state,Georgia,TELFAIR STATE PRISON,2021-07-16,http://www.dcor.state.ga.us/content/CVD_Dashboard,81,37,6,0,,,,,1396,,,,,,,,,,,Prison,210 LONGBRIDGE ROAD,31037,HELENA,TELFAIR,32.08798443,-82.90954913,13271,
401,state,Georgia,TERRELL COUNTY CORRECTIONAL INSTITUTION,2021-07-16,http://www.dcor.state.ga.us/content/CVD_Dashboard,0,0,0,0,,,,,142,,,,,,,,,,,Prison,3110 ALBANY HIGHWAY,39842,DAWSON,TERRELL,31.7420575,-84.41413376,13273,
402,state,Georgia,TREUTLEN PROBATION DETENTION CENTER,2021-07-16,http://www.dcor.state.ga.us/content/CVD_Dashboard,65,25,0,0,,,,,,,,,,,,,,,,Prison,1 SESSIONS STREET,30457,SOPERTON,TREUTLEN,32.3624615,-82.60238104,13283,
403,state,Georgia,TURNER RESIDENTIAL SUBSTANCE ABUSE TREATMENT,2021-07-16,http://www.dcor.state.ga.us/content/CVD_Dashboard,49,19,0,0,,,,,,,,,,,,,,,,Prison,514 SOUTH RAILROAD AVE,31790,SYCAMORE,TURNER,31.6621587,-83.63393731,13287,
404,state,Georgia,VALDOSTA STATE PRISON,2021-07-16,http://www.dcor.state.ga.us/content/CVD_Dashboard,57,93,0,0,,,,,781,,,,,,,,,,,Prison,3259 VALTECH RD,31601,VALDOSTA,LOWNDES,30.85995723,-83.34575403,13185,
405,state,Georgia,VALDOSTA TRANSITIONAL CENTER,2021-07-16,http://www.dcor.state.ga.us/content/CVD_Dashboard,6,14,0,0,,,,,159,,,,,,,,,,,Prison,263 GILL HARBIN INDUSTRIAL BLVD.,31601,VALDOSTA,LOWNDES,30.80565871,-83.2675069,13185,
406,state,Georgia,WALKER STATE PRISON,2021-07-16,http://www.dcor.state.ga.us/content/CVD_Dashboard,64,34,1,0,,,,,415,,,,,,,,,,,Prison,97 KEVIN LANE,30739,ROCK SPRING,WALKER,34.8087205,-85.26194184,13295,
407,state,Georgia,WARE STATE PRISON,2021-07-16,http://www.dcor.state.ga.us/content/CVD_Dashboard,32,67,4,0,,,,,1549,,,,,,,,,,,Prison,3620 NORTH HARRIS ROAD,31501,WAYCROSS,WARE,31.25673084,-82.39335661,13299,
408,state,Georgia,WASHINGTON STATE PRISON,2021-07-16,http://www.dcor.state.ga.us/content/CVD_Dashboard,43,9,0,0,,,,,1577,,,,,,,,,,,Prison,13262 HWY 24 E,31018,DAVISBORO,WASHINGTON,32.98872379,-82.59490798,13303,
409,state,Georgia,WEST CENTRAL INTEGRATED TREATMENT FACILITY,2021-07-16,http://www.dcor.state.ga.us/content/CVD_Dashboard,45,28,0,0,,,,,,,,,,,,,,,,Prison,1070 COUNTY FARM ROAD,30295,ZEBULON,PIKE,33.11609815,-84.3610402,13231,
410,state,Georgia,WHEELER CORRECTIONAL FACILITY,2021-07-16,http://www.dcor.state.ga.us/content/CVD_Dashboard,172,0,13,0,,,,,2651,,,,,,,,,,,Prison,195 NORTH BROAD STREET,30411,ALAMO,WHEELER,32.1504927,-82.79500753,13309,
411,state,Georgia,WHITWORTH WOMENS FACILITY,2021-07-16,http://www.dcor.state.ga.us/content/CVD_Dashboard,21,23,1,0,,,,,442,,,,,,,,,,,Prison,414 VALLEY HART ROAD,30643,HARTWELL,HART,34.31194,-82.93828,13147,
412,state,Georgia,WILCOX STATE PRISON,2021-07-16,http://www.dcor.state.ga.us/content/CVD_Dashboard,71,39,3,1,,,,,1856,,,,,,,,,,,Prison,470 SOUTH BROAD STREET,31001,ABBEVILLE,WILCOX,31.98502256,-83.30017247,13315,
413,state,Georgia,WOMENS PROBATION DETENTION CENTER,2021-07-16,http://www.dcor.state.ga.us/content/CVD_Dashboard,29,14,0,0,,,,,,,,,,,,,,,,Prison,8662 U.S. HWY 301 NORTH,30417,CLAXTON,EVANS,32.179347,-81.8948173,13109,
414,state,Hawaii,HALAWA CORRECTIONAL FACILITY,2022-02-14,https://dps.hawaii.gov/blog/2020/03/17/coronavirus-covid-19-information-and-resources/,1084,,7,,8538,,157,6,852,,,,,,,,,,,Prison,99-902 MOANALUA RD,96701,AIEA,HONOLULU,21.37379134,-157.8989822,15003,
415,state,Hawaii,HAWAII COMMUNITY CORRECTIONAL CENTER,2022-02-14,https://dps.hawaii.gov/blog/2020/03/17/coronavirus-covid-19-information-and-resources/,503,,0,,3638,,21,4,515,,,,,,,,,,,Prison,60 PUNAHELE STREET,96720,HILO,HAWAII,19.71830866,-155.0989632,15001,
417,state,Hawaii,KAUAI COMMUNITY CORRECTIONAL CENTER,2022-02-14,https://dps.hawaii.gov/blog/2020/03/17/coronavirus-covid-19-information-and-resources/,164,,0,,1709,,23,1,159,,,,,,,,,,,Prison,3-5351 KUHIO HIGHWAY,96766,LIHUE,KAUAI,22.02515252,-159.3428192,15007,
418,state,Hawaii,KULANI CORRECTIONAL FACILITY,2022-02-14,https://dps.hawaii.gov/blog/2020/03/17/coronavirus-covid-19-information-and-resources/,2,,0,,819,,0,4,184,,,,,,,,,,,Prison,HC 01 STAINBACK HWY,96720,HILO,HAWAII,19.54917893,-155.3011053,15001,
419,state,Hawaii,MAUI COMMUNITY CORRECTIONAL CENTER,2022-02-14,https://dps.hawaii.gov/blog/2020/03/17/coronavirus-covid-19-information-and-resources/,473,,0,,4012,,18,3,452,,,,,,,,,,,Prison,600 WAIALE DR,96793,WAILUKU,MAUI,20.87701605,-156.4983753,15009,
422,state,Hawaii,OHAU COMMUNITY CORRECTIONAL CENTER,2022-02-14,https://dps.hawaii.gov/blog/2020/03/17/coronavirus-covid-19-information-and-resources/,1285,,0,,17389,,108,4,1268,,,,,,,,,,,Prison,2199 KAMEHAMEHA HIGHWAY,96819,HONOLULU,HONOLULU,21.32989382,-157.884874,15003,
423,state,Hawaii,SAGUARO CORRECTIONAL CENTER,2022-02-14,https://dps.hawaii.gov/blog/2020/03/17/coronavirus-covid-19-information-and-resources/,696,,2,,3898,,0,,1226,,,,,,,,,,,Prison,1250 EAST ARICA ROAD,85131,ELOY,PINAL,32.80930398,-111.5264356,04021,
425,state,Hawaii,WAIAWA CORRECTIONAL FACILITY,2022-02-14,https://dps.hawaii.gov/blog/2020/03/17/coronavirus-covid-19-information-and-resources/,248,,0,,2064,,0,2,202,,,,,,,,,,,Prison,94-560 KAMEHAMEHA HWY,96797,WAIPAHU,HONOLULU,21.44465003,-157.9609092,15003,
426,state,Hawaii,WOMENS COMMUNITY CORRECTIONAL CENTER,2022-02-14,https://dps.hawaii.gov/blog/2020/03/17/coronavirus-covid-19-information-and-resources/,167,,0,,2695,,6,1,278,,,,,,,,,,,Prison,42-477 KALANIANAOLE HWY,96734,KAILUA,HONOLULU,21.37802504,-157.7484499,15003,
427,state,Idaho,CAPP,2022-02-14,https://www.idoc.idaho.gov/content/careers/covid-19,,,,,,,,,431,,192,,,,192,,,,,Prison,15505 SOUTH PLEASANT VALLEY ROAD,83634,KUNA,ADA,43.46183741,-116.2357735,16001,
428,state,Idaho,CENTRAL OFFICE,2022-02-14,https://www.idoc.idaho.gov/content/careers/covid-19,,43,,,,,,2,,,,,,,,,,,,Prison,,,,,,,,
429,state,Idaho,DISTRICT 1,2022-02-14,https://www.idoc.idaho.gov/content/careers/covid-19,,15,,,,,,0,,,,,,,,,,,,Prison,,,,,,,,
430,state,Idaho,DISTRICT 3,2022-02-14,https://www.idoc.idaho.gov/content/careers/covid-19,,15,,,,,,0,,,,,,,,,,,,Prison,,,,,,,,
431,state,Idaho,DISTRICT 4,2022-02-14,https://www.idoc.idaho.gov/content/careers/covid-19,,31,,,,,,2,,,,,,,,,,,,Prison,,,,,,,,
432,state,Idaho,DISTRICT 5,2022-02-14,https://www.idoc.idaho.gov/content/careers/covid-19,,14,,,,,,0,,,,,,,,,,,,Prison,,,,,,,,
434,state,Idaho,EAST BOISE COMMUNITY REENTRY CENTER,2022-02-14,https://www.idoc.idaho.gov/content/careers/covid-19,,6,,,,,,0,109,,144,,,,143,,,,,Prison,2366 OLD PENITENTIARY RD,83712,BOISE,ADA,43.60314093,-116.1638439,16001,
435,state,Idaho,IDAHO CORRECTIONAL INSTITUTION OROFINO,2022-02-14,https://www.idoc.idaho.gov/content/careers/covid-19,,64,,,,,,0,576,,451,,,,451,,,,,Prison,381 WEST HOSPITAL DRIVE,83544,OROFINO,CLEARWATER,46.49197836,-116.2607095,16035,
436,state,Idaho,IDAHO FALLS COMMUNITY REENTRY CENTER,2022-02-14,https://www.idoc.idaho.gov/content/careers/covid-19,,6,,,,,,0,95,,81,,,,76,,,,,Prison,3955 BOMBARDIER AVE,83402,IDAHO FALLS,BONNEVILLE,43.46230015,-112.0639693,16019,
437,state,Idaho,IDAHO MAXIMUM SECURITY INSTIUTION,2022-02-14,https://www.idoc.idaho.gov/content/careers/covid-19,,62,,,,,,6,1473,,346,,,,346,,,,,Prison,13500 S PLEASANT VALLEY RD,83634,KUNA,ADA,43.47938786,-116.2189574,16001,
438,state,Idaho,IDAHO STATE CORRECTIONAL CENTER,2022-02-14,https://www.idoc.idaho.gov/content/careers/covid-19,,130,,,,,,0,2181,,1559,,,,1551,,,,,Prison,14601 S PLEASANT VALLEY RD,83634,KUNA,ADA,43.47119944,-116.2375874,16001,
439,state,Idaho,IDAHO STATE CORRECTIONAL INSTITUTION,2022-02-14,https://www.idoc.idaho.gov/content/careers/covid-19,,145,,,,,,5,1473,,2217,,,,2207,,,,,Prison,13500 S PLEASANT VALLEY RD,83634,KUNA,ADA,43.47938786,-116.2189574,16001,
441,state,Idaho,NORTH IDAHO CORRRECTIONAL INSTIUTION,2022-02-14,https://www.idoc.idaho.gov/content/careers/covid-19,,46,,,,,,0,409,,161,,,,161,,,,,Prison,236 RADAR RD,83522,COTTONWOOD,IDAHO,46.07917307,-116.4280588,16049,
442,state,Idaho,POCATELLO WOMENS CORRECTIONAL CENTER,2022-02-14,https://www.idoc.idaho.gov/content/careers/covid-19,,21,,,,,,1,323,,291,,,,268,,,,,Prison,1451 FORE RD,83204,POCATELLO,BANNOCK,42.84256222,-112.4506302,16005,
443,state,Idaho,SAINT ANTHONY WORK CAMP,2022-02-14,https://www.idoc.idaho.gov/content/careers/covid-19,,31,,,,,,1,253,,194,,,,184,,,,,Prison,125 N 8TH W,83445,ST ANTHONY,FREMONT,43.96809846,-111.6935417,16043,
444,state,Idaho,SOUTH BOISE WOMENS CORRECTIONAL CENTER,2022-02-14,https://www.idoc.idaho.gov/content/careers/covid-19,,35,,,,,,0,293,,164,,,,120,,,,,Prison,13200 S PLEASANT VALLEY RD,83634,KUNA,ADA,43.48338,-116.23392,16001,
445,state,Idaho,SOUTH IDAHO CORRECTIONAL INSTIUTION,2022-02-14,https://www.idoc.idaho.gov/content/careers/covid-19,,63,,,,,,1,1473,,675,,,,622,,,,,Prison,13500 S PLEASANT VALLEY RD,83634,KUNA,ADA,43.47938786,-116.2189574,16001,
447,state,Idaho,TREASURE VALLEY COMMUNITY REENTRY CENTER,2022-02-14,https://www.idoc.idaho.gov/content/careers/covid-19,,3,,,,,,0,102,,66,,,,64,,,,,Prison,14195 S PLEASANT VALLEY RD,83634,KUNA,ADA,43.6574178,-116.6678165,16001,
449,state,Illinois,BIG MUDDY RIVER CORRECTIONAL CENTER,2022-02-14,https://www2.illinois.gov/idoc/facilities/Pages/Covid19Response.aspx,775,282,,,41150,,68,8,1218,,,,,,,,,,,Prison,251 NORTH ILLINOIS HIGHWAY 37,62846,INA,JEFFERSON,38.13064497,-88.90835135,17081,
451,state,Illinois,CENTRALIA CORRECTIONAL CENTER,2022-02-14,https://www2.illinois.gov/idoc/facilities/Pages/Covid19Response.aspx,542,378,,,70515,,35,3,1209,,,,,,,,,,,Prison,9330 SHATTUC ROAD,62801,CENTRALIA,CLINTON,38.55384409,-89.19170102,17027,
454,county,Illinois,COOK COUNTY JAIL,2022-02-14,https://www.cookcountysheriff.org/covid-19-cases-at-ccdoc/,1651,2425,10,7,,,42,,8216,,,,,,,,,,,County,2700 SOUTH CALIFORNIA AVENUE,60608,CHICAGO,COOK,41.8425,-87.6971,17031,
455,state,Illinois,CROSSROADS ADULT TRANSITION CENTER,2022-02-14,https://www2.illinois.gov/idoc/facilities/Pages/Covid19Response.aspx,5,7,,,1818,,0,6,325,,,,,,,,,,,Prison,3210 WEST ARTHINGTON STREET,60624,CHICAGO,COOK,41.87048357,-87.70635938,17031,
456,state,Illinois,DANVILLE CORRECTIONAL CENTER,2022-02-14,https://www2.illinois.gov/idoc/facilities/Pages/Covid19Response.aspx,1228,332,,,52303,,49,5,1605,,,,,,,,,,,Prison,3820 EAST MAIN STREET,61834,DANVILLE,VERMILION,40.12956679,-87.53645593,17183,
457,state,Illinois,DECATUR CORRECTIONAL CENTER,2022-02-14,https://www2.illinois.gov/idoc/facilities/Pages/Covid19Response.aspx,226,137,,,8986,,3,6,535,,,,,,,,,,,Prison,2310 EAST MOUND ROAD,62524,DECATUR,MACON,39.89511506,-88.92662636,17115,
458,state,Illinois,DIXON CORRECTIONAL INSTITUTE,2022-02-14,https://www2.illinois.gov/idoc/facilities/Pages/Covid19Response.aspx,864,508,,,65701,,24,16,2051,,,,,,,,,,,Prison,2600 NORTH BRINTON AVENUE,61021,DIXON,LEE,41.8737451,-89.47817317,17103,
459,state,Illinois,EAST MOLINE CORRECTIONAL CENTER,2022-02-14,https://www2.illinois.gov/idoc/facilities/Pages/Covid19Response.aspx,590,213,,,30431,,20,6,1175,,,,,,,,,,,Prison,100 HILLCREST ROAD,61244,EAST MOLINE,ROCK ISLAND,41.53372905,-90.41912151,17161,
460,state,Illinois,ELGIN TREATMENT CENTER,2022-02-14,https://www2.illinois.gov/idoc/facilities/Pages/Covid19Response.aspx,1,36,,,633,,0,1,18,,,,,,,,,,,Prison,750 SOUTH STATE STREET,60123,ELGIN,KANE,42.02130557,-88.28448575,17089,
461,state,Illinois,FOX VALLEY ADULT TRANSITION CENTER,2022-02-14,https://www2.illinois.gov/idoc/facilities/Pages/Covid19Response.aspx,41,13,,,921,,0,0,127,,,,,,,,,,,Prison,1329 N LAKE ST,60506,AURORA,KANE,41.78792125,-88.3202916,17089,
462,state,Illinois,GENERAL OFFICE,2022-02-14,https://www2.illinois.gov/idoc/facilities/Pages/Covid19Response.aspx,0,50,,,0,,0,4,,,,,,,,,,,,Prison,,,,,,,,
463,state,Illinois,GRAHAM CORRECTIONAL CENTER,2022-02-14,https://www2.illinois.gov/idoc/facilities/Pages/Covid19Response.aspx,1343,404,,,36559,,60,15,1803,,,,,,,,,,,Prison,12078 ILLINOIS ROUTE 185,62049,HILLSBORO,MONTGOMERY,39.12648969,-89.47493262,17135,
465,state,Illinois,HILL CORRECTIONAL CENTER,2022-02-14,https://www2.illinois.gov/idoc/facilities/Pages/Covid19Response.aspx,1061,235,,,43886,,2,13,1643,,,,,,,,,,,Prison,600 SOUTH LINWOOD ROAD,61401,GALESBURG,KNOX,40.93974548,-90.40695799,17095,
466,state,Illinois,ILLINOIS RIVER CORRECTIONAL CENTER,2022-02-14,https://www2.illinois.gov/idoc/facilities/Pages/Covid19Response.aspx,799,355,,,55716,,9,6,1810,,,,,,,,,,,Prison,1300 WEST LOCUST STREET,61520,CANTON,FULTON,40.55672719,-90.08258486,17057,
467,state,Illinois,JACKSONVILLE CORRECTIONAL CENTER,2022-02-14,https://www2.illinois.gov/idoc/facilities/Pages/Covid19Response.aspx,886,311,,,15776,,16,15,965,,,,,,,,,,,Prison,2268 EAST MORTON AVENUE,62650,JACKSONVILLE,MORGAN,39.72668976,-90.17561449,17137,
468,state,Illinois,JOLIET TREATMENT CENTER,2022-02-14,https://www2.illinois.gov/idoc/facilities/Pages/Covid19Response.aspx,90,250,,,10572,,1,4,196,,,,,,,,,,,Prison,2848 WEST MCDONOUGH,60436,JOLIET,WILL,41.51234669,-88.15264614,17197,
469,state,Illinois,KEWANEE LIFE SKILLS REENTRY CENTER,2022-02-14,https://www2.illinois.gov/idoc/facilities/Pages/Covid19Response.aspx,46,110,,,7361,,0,7,278,,,,,,,,,,,Prison,2021 KENTVILLE ROAD,61443,KEWANEE,HENRY,41.25333209,-89.89171233,17073,
470,state,Illinois,LAWRENCE CORRECTIONAL CENTER,2022-02-14,https://www2.illinois.gov/idoc/facilities/Pages/Covid19Response.aspx,1146,470,,,59737,,34,11,2042,,,,,,,,,,,Prison,10940 LAWRENCE ROAD,62466,SUMNER,LAWRENCE,38.72823,-87.90591,17101,
471,state,Illinois,LINCOLN CORRECTIONAL CENTER,2022-02-14,https://www2.illinois.gov/idoc/facilities/Pages/Covid19Response.aspx,592,184,,,15682,,7,12,964,,,,,,,,,,,Prison,1098 1350TH STREET,62656,LINCOLN,LOGAN,40.11823756,-89.38908259,17107,
472,state,Illinois,LOGAN CORRECTIONAL CENTER,2022-02-14,https://www2.illinois.gov/idoc/facilities/Pages/Covid19Response.aspx,1210,557,,,41917,,4,7,1588,,,,,,,,,,,Prison,1096 1350TH STREET,62656,LINCOLN,LOGAN,40.1140649,-89.3881401,17107,
474,state,Illinois,MENARD CORRECTIONAL CENTER,2022-02-14,https://www2.illinois.gov/idoc/facilities/Pages/Covid19Response.aspx,1515,690,,,94183,,18,11,1834,,,,,,,,,,,Prison,711 KASKASKIA STREET,62259,MENARD,RANDOLPH,37.912685690000004,-89.84197817,17157,
476,state,Illinois,MURPHYSBORO CORRECTIONAL CENTER,2022-02-14,https://www2.illinois.gov/idoc/facilities/Pages/Covid19Response.aspx,88,81,,,2010,,0,3,171,,,,,,,,,,,Prison,,,,,,,,
477,state,Illinois,NORTH LAWNDALE ADULT TRANSITION CENTER,2022-02-14,https://www2.illinois.gov/idoc/facilities/Pages/Covid19Response.aspx,15,15,,,908,,0,0,200,,,,,,,,,,,Prison,2839 WEST FILLMORE STREET,60612,CHICAGO,COOK,41.868038,-87.697785,17031,
478,state,Illinois,PAROLE,2022-02-14,https://www2.illinois.gov/idoc/facilities/Pages/Covid19Response.aspx,0,118,,,0,,0,1,,,,,,,,,,,,Prison,,,,,,,,
480,state,Illinois,PEORIA ADULT TRANSITION CENTER,2022-02-14,https://www2.illinois.gov/idoc/facilities/Pages/Covid19Response.aspx,40,29,,,2228,,1,0,244,,,,,,,,,,,Prison,,,PEORIA,,,,,
481,state,Illinois,PINCKNEYVILLE CORRECTIONAL CENTER,2022-02-14,https://www2.illinois.gov/idoc/facilities/Pages/Covid19Response.aspx,1436,374,,,43587,,67,9,1901,,,,,,,,,,,Prison,5835 STATE ROUTE 154,62274,PINCKNEYVILLE,PERRY,38.0866456,-89.3272605,17145,
482,state,Illinois,PONTIAC CORRECTIONAL CENTER,2022-02-14,https://www2.illinois.gov/idoc/facilities/Pages/Covid19Response.aspx,920,718,,,40649,,10,18,1160,,,,,,,,,,,Prison,700 WEST LINCOLN STREET,61764,PONTIAC,LIVINGSTON,40.86928355,-88.63603689,17105,
483,state,Illinois,ROBINSON CORRECTIONAL CENTER,2022-02-14,https://www2.illinois.gov/idoc/facilities/Pages/Covid19Response.aspx,986,237,,,25864,,38,7,1121,,,,,,,,,,,Prison,13423 EAST 1150TH AVENUE,62454,ROBINSON,CRAWFORD,39.01935425,-87.69758953,17033,
485,state,Illinois,SHAWNEE CORRECTIONAL CENTER,2022-02-14,https://www2.illinois.gov/idoc/facilities/Pages/Covid19Response.aspx,898,318,,,46066,,113,22,1576,,,,,,,,,,,Prison,6665 STATE ROUTE 146 EAST,62995,VIENNA,JOHNSON,37.40038459,-88.77535417,17087,
486,state,Illinois,SHERIDAN CORRECTIONAL CENTER,2022-02-14,https://www2.illinois.gov/idoc/facilities/Pages/Covid19Response.aspx,1164,353,,,45669,,2,6,1670,,,,,,,,,,,Prison,4017 EAST 2603 ROAD,60551,SHERIDAN,LA SALLE,41.51604912,-88.68465975,17099,
487,state,Illinois,SOUTHWESTERN ILLINOIS CORRECTIONAL CENTER,2022-02-14,https://www2.illinois.gov/idoc/facilities/Pages/Covid19Response.aspx,218,186,,,7181,,0,2,598,,,,,,,,,,,Prison,950 KINGSHIGHWAY ST,62203,EAST ST LOUIS,ST CLAIR,38.61691302,-90.0908182,17163,
488,state,Illinois,STATEVILLE CORRECTIONAL CENTER,2022-02-14,https://www2.illinois.gov/idoc/facilities/Pages/Covid19Response.aspx,887,447,,,47357,,0,7,1262,,,,,,,,,,,Prison,16830 SOUTH BROADWAY STREET,60434,JOLIET,WILL,41.57873778,-88.09456267,17197,
489,state,Illinois,STATEVILLE NORTHERN RECEPTION AND CLASSIFICATION CENTER,2022-02-14,https://www2.illinois.gov/idoc/facilities/Pages/Covid19Response.aspx,871,423,,,56310,,12,5,1302,,,,,,,,,,,Prison,16830 SOUTH BROADWAY STREET,60434,JOLIET,WILL,41.57873778,-88.09456267,17197,
490,state,Illinois,TAYLORVILLE CORRECTIONAL CENTER,2022-02-14,https://www2.illinois.gov/idoc/facilities/Pages/Covid19Response.aspx,1114,280,,,18714,,6,4,1028,,,,,,,,,,,Prison,1144 ILLINOIS ROUTE 29,62568,TAYLORVILLE,CHRISTIAN,39.51525785,-89.2264661,17021,
492,state,Illinois,VANDALIA CORRECTIONAL CENTER,2022-02-14,https://www2.illinois.gov/idoc/facilities/Pages/Covid19Response.aspx,746,319,,,12415,,4,7,1068,,,,,,,,,,,Prison,ROUTE 51 NORTH,62471,VANDALIA,FAYETTE,39.01089284,-89.09608515,17051,
493,state,Illinois,VIENNA CORRECTIONAL CENTER,2022-02-14,https://www2.illinois.gov/idoc/facilities/Pages/Covid19Response.aspx,387,330,,,14157,,69,10,920,,,,,,,,,,,Prison,6695 STATE ROUTE 146 EAST,62995,VIENNA,JOHNSON,37.40562486,-88.7701425,17087,
494,state,Illinois,WESTERN ILLINOIS CORRECTIONAL CENTER,2022-02-14,https://www2.illinois.gov/idoc/facilities/Pages/Covid19Response.aspx,1128,345,,,37287,,10,5,1633,,,,,,,,,,,Prison,2500 RT. 99 SOUTH,62353,MOUNT STERLING,BROWN,39.96285696,-90.75396657,17009,
495,state,Indiana,BRANCHVILLE CORRECTIONAL FACILITY,2022-02-14,https://www.in.gov/idoc/3780.htm,298,144,1,0,964,,1,0,1387,,,,,,,,,,,Prison,21390 OLD STATE RD 37,47514,BRANCHVILLE,PERRY,38.15137828,-86.59980056,18123,
497,state,Indiana,CENTRAL OFFICE,2022-02-14,https://www.in.gov/idoc/3780.htm,,67,,0,,,,3,,,,,,,,,,,,Prison,,,,,,,,
498,state,Indiana,CHAIN OLAKES CORRECTIONAL FACILITY,2022-02-14,https://www.in.gov/idoc/3780.htm,89,11,0,0,232,,0,0,135,,,,,,,,,,,Prison,3516 E 75 SOUTH,46701,ALBION,NOBLE,41.33701028,-85.35310253,18113,
500,state,Indiana,CORRECTIONAL INDUSTRIAL FACILITY,2022-02-14,https://www.in.gov/idoc/3780.htm,187,163,3,0,779,,0,5,1458,,,,,,,,,,,Prison,5124 W REFORMATORY RD,46064,PENDLETON,MADISON,39.97598494,-85.77135909,18095,
501,state,Indiana,EDINBURGH CORRECTIONAL FACILITY,2022-02-14,https://www.in.gov/idoc/3780.htm,47,39,0,0,790,,5,1,340,,,,,,,,,,,Prison,"P.O. BOX 470, 23RD & SCHOOLHOUSE RD",46124,EDINBURGH,JOHNSON,39.35145302,-86.0386027,18081,
502,state,Indiana,HERITAGE TRAIL CORRECTIONAL FACILITY,2022-02-14,https://www.in.gov/idoc/3780.htm,102,73,0,0,862,,0,0,857,,,,,,,,,,,Prison,501 WEST MAIN STREET,46168,PLAINFIELD,HENDRICKS,39.69366223,-86.40761718,18063,
503,state,Indiana,INDIANA STATE PRISON,2022-02-14,https://www.in.gov/idoc/3780.htm,104,203,2,0,621,,0,0,2364,,,,,,,,,,,Prison,1 PARK ROW,46360,MICHIGAN CITY,LAPORTE,41.70343089,-86.9173169,18091,
504,state,Indiana,INDIANA WOMENS PRISON,2022-02-14,https://www.in.gov/idoc/3780.htm,228,79,0,1,1621,,2,3,696,,,,,,,,,,,Prison,2596 GIRLS SCHOOL ROAD,46214,INDIANAPOLIS,MARION,39.80094018,-86.29189795,18097,
505,state,Indiana,LAPORTE JUVENILE CORRECTIONAL FACILITY,2022-02-14,https://www.in.gov/idoc/3780.htm,33,31,0,0,334,,0,0,21,,,,,,,,,,,Juvenile,"809 STATE ST, SUITE 201A",46350,LA PORTE,LAPORTE,41.61206231,-86.72292259,18091,
507,state,Indiana,LOGANSPORT JUVENILE CORRECTIONAL FACILITY,2022-02-14,https://www.in.gov/idoc/3780.htm,62,90,0,0,858,,0,4,23,,,,,,,,,,,Juvenile,1118 S STATE RD 25,46947,LOGANSPORT,CASS,40.74154606,-86.40152309,18017,
508,state,Indiana,MADISON CORRECTIONAL FACILITY,2022-02-14,https://www.in.gov/idoc/3780.htm,440,98,0,0,4549,,5,9,709,,,,,,,,,,,Prison,1130 MSH 4TH STREET,47250,MADISON,JEFFERSON,38.74778116,-85.40047051,18077,
509,state,Indiana,MIAMI CORRECTIONAL FACILITY,2022-02-14,https://www.in.gov/idoc/3780.htm,285,228,11,2,1490,,13,12,3111,,,,,,,,,,,Prison,3038 W 850 S,46914,BUNKER HILL,MIAMI,40.6459301,-86.13530041,18103,
510,state,Indiana,NEW CASTLE CORRECTIONAL FACILITY,2022-02-14,https://www.in.gov/idoc/3780.htm,400,194,10,1,1559,,5,13,3130,,,,,,,,,,,Prison,1000 VAN NUYS RD,47362,NEW CASTLE,HENRY,39.96237788,-85.37022541,18065,
511,state,Indiana,PENDLETON CORRECTIONAL FACILITY,2022-02-14,https://www.in.gov/idoc/3780.htm,261,184,5,0,1356,,0,8,1862,,,,,,,,,,,Prison,4490 W REFORMATORY RD,46064,PENDLETON,MADISON,39.98338112,-85.76085702,18095,
512,state,Indiana,PENDLETON JUVENILE CORRECTIONAL FACILITY,2022-02-14,https://www.in.gov/idoc/3780.htm,107,128,0,0,775,,0,3,200,,,,,,,,,,,Juvenile,9310 S STATE RD 67,46064,PENDLETON,MADISON,39.96907067,-85.77458045,18095,
513,state,Indiana,PLAINFIELD CORRECTIONAL FACILITY,2022-02-14,https://www.in.gov/idoc/3780.htm,183,158,9,0,1297,,16,9,1499,,,,,,,,,,,Prison,737 MOON RD,46168,PLAINFIELD,HENDRICKS,39.68899972,-86.41604046,18063,
515,state,Indiana,PUTNAMVILLE CORRECTIONAL FACILITY,2022-02-14,https://www.in.gov/idoc/3780.htm,355,253,3,1,3079,,2,18,2163,,,,,,,,,,,Prison,1946 W US HWY 40,46135,GREENCASTLE,PUTNAM,39.56503726,-86.88666488,18133,
516,state,Indiana,RECEPTION AND DIAGNOSTIC CENTER,2022-02-14,https://www.in.gov/idoc/3780.htm,721,135,2,1,5926,,10,8,655,,,,,,,,,,,Prison,737 MOON RD,46168,PLAINFIELD,HENDRICKS,39.68899972,-86.41604046,18063,
517,state,Indiana,ROCKVILLE CORRECTIONAL FACILITY,2022-02-14,https://www.in.gov/idoc/3780.htm,472,168,0,0,5956,,19,5,1139,,,,,,,,,,,Prison,811 W 50 N,47872,ROCKVILLE,PARKE,39.77431571,-87.25434717,18121,
519,state,Indiana,SOUTH BEND REENTRY CENTER,2022-02-14,https://www.in.gov/idoc/3780.htm,32,13,0,0,395,,0,1,186,,,,,,,,,,,Prison,,,,,,,,
524,state,Indiana,WABASH VALLEY CORRECTIONAL FACILITY,2022-02-14,https://www.in.gov/idoc/3780.htm,364,349,3,1,1606,,24,22,2102,,,,,,,,,,,Prison,6908 S OLD US HWY 41,47838,CARLISLE,SULLIVAN,38.97792912,-87.40030287,18153,
525,state,Indiana,WESTVILLE CORRECTIONAL FACILITY,2022-02-14,https://www.in.gov/idoc/3780.htm,279,309,6,0,1084,,2,7,2989,,,,,,,,,,,Prison,5501 S 1100 W,46391,WESTVILLE,LAPORTE,41.52575257,-86.90808495,18091,
526,state,Iowa,ANAMOSA STATE PENITENTIARY,2022-02-14,https://doc.iowa.gov/COVID19,919,278,6,,2747,,32,6,969,912,,,,,,,,,,Prison,406 N HIGH ST,52205,ANAMOSA,JONES,42.11129071,-91.29127202,19105,
527,state,Iowa,CLARINDA CORRECTIONAL FACILITY,2022-02-14,https://doc.iowa.gov/COVID19,637,128,1,,5495,,1,6,987,974,,,,,,,,,,Prison,2000 NORTH 16TH STREET,51632,CLARINDA,PAGE,40.76249094,-95.03582563,19145,
528,state,Iowa,FORT DODGE CORRECTIONAL FACILITY,2022-02-14,https://doc.iowa.gov/COVID19,575,158,4,,7434,,3,1,1252,1267,,,,,,,,,,Prison,1550 L STREET,50501,FORT DODGE,WEBSTER,42.48489252,-94.19609253,19187,
529,state,Iowa,IOWA CORRECTIONAL INSTIUTION FOR WOMEN,2022-02-14,https://doc.iowa.gov/COVID19,89,81,0,,3828,,5,16,641,540,,,,,,,,,,Prison,420 MILL STREET SOUTHWEST,50169,MITCHELLVILLE,POLK,41.66299579,-93.3661037,19153,
530,state,Iowa,IOWA MEDICAL AND CLASSIFICATION CENTER,2022-02-14,https://doc.iowa.gov/COVID19,935,251,5,,19059,,12,4,991,829,,,,,,,,,,Prison,2700 CORAL RIDGE AVE,52241,CORALVILLE,JOHNSON,41.71369597,-91.61182585,19103,
531,state,Iowa,IOWA STATE PENITENTIARY,2022-02-14,https://doc.iowa.gov/COVID19,273,256,5,,2535,,10,5,702,718,,,,,,,,,,Prison,2111 330TH AVENUE,52627,FORT MADISON,LEE,40.65361883,-91.30326789,19111,
532,state,Iowa,MT PLEASANT CORRECTIONAL FACILITY,2022-02-14,https://doc.iowa.gov/COVID19,877,125,0,,6202,,1,2,1018,882,,,,,,,,,,Prison,1200 EAST WASHINGTON STREET,52641,MOUNT PLEASANT,HENRY,40.95581384,-91.53617358,19087,
533,state,Iowa,NEWTON CORRECTIONAL FACILITY,2022-02-14,https://doc.iowa.gov/COVID19,862,147,1,,6220,,4,14,924,1245,,,,,,,,,,Prison,307 SOUTH 60TH AVENUE WEST,50208,NEWTON,JASPER,41.627170219999996,-93.05696851,19099,
534,state,Iowa,NORTH CENTRAL,2022-02-14,https://doc.iowa.gov/COVID19,453,65,0,,1418,,0,1,493,494,,,,,,,,,,Prison,313 LANEDALE,50579,ROCKWELL CITY,CALHOUN,42.39222762,-94.60437667,19025,
535,county,Iowa,POLK COUNTY JAIL,2022-02-14,https://www.polkcountyiowa.gov/county-sheriff/news-press-releases/,4,3,,,4140,,,,911,,,,,,,,,,,County,1985 NE 51ST PL,50309,DES MOINES,POLK,41.65332,-93.58793,19153,
538,state,Kansas,EL DORADO CORRECTIONAL FACILITY,2022-02-14,https://www.doc.ks.gov/kdoc-coronavirus-updates/kdoc-covid-19-status,1163,385,2,1,,,3,3,2026,1445,1870,285,,,,,,,,Prison,1737 SOUTHEAST UNITED STATES HIGHWAY 54,67042,EL DORADO,BUTLER,37.80325673,-96.81713261,20015,
539,state,Kansas,ELLSWORTH CORRECTIONAL FACILITY,2022-02-14,https://www.doc.ks.gov/kdoc-coronavirus-updates/kdoc-covid-19-status,648,169,3,0,,,3,4,909,805,718,134,,,,,,,,Prison,1607 STATE STREET,67439,ELLSWORTH,ELLSWORTH,38.74301147,-98.23215008,20053,
541,state,Kansas,HUTCHINSON CORRECTIONAL FACILITY,2022-02-14,https://www.doc.ks.gov/kdoc-coronavirus-updates/kdoc-covid-19-status,1448,505,3,1,,,2,6,1898,1672,1312,212,,,,,,,,Prison,500 REFORMATORY STREET,67504,HUTCHINSON,RENO,38.04458476,-97.91073579,20155,
542,state,Kansas,KANSAS JUVENILE CORRECTIONAL COMPLEX,2022-02-14,https://www.doc.ks.gov/kdoc-coronavirus-updates/kdoc-covid-19-status,100,175,0,0,,,0,3,167,,120,204,,,,,,,,Juvenile,1430 NORTHWEST 25TH STREET,66618,TOPEKA,SHAWNEE,39.09678729,-95.68423367,20177,
543,state,Kansas,LANSING CORRECTIONAL FACILITY,2022-02-14,https://www.doc.ks.gov/kdoc-coronavirus-updates/kdoc-covid-19-status,1310,260,6,2,,,3,0,1683,1852,1295,334,,,,,,,,Prison,301 EAST KANSAS AVE,66043,LANSING,LEAVENWORTH,39.25190411,-94.89130455,20103,
544,state,Kansas,LARNED CORRECTIONAL FACILITY,2022-02-14,https://www.doc.ks.gov/kdoc-coronavirus-updates/kdoc-covid-19-status,381,163,1,0,,,0,0,571,465,511,106,,,,,,,,Prison,1318 STATE HIGHWAY 264,67550,LARNED,PAWNEE,38.17710787,-99.15101294,20145,
546,state,Kansas,NORTON CORRECTIONAL FACILITY,2022-02-14,https://www.doc.ks.gov/kdoc-coronavirus-updates/kdoc-covid-19-status,1107,257,0,0,,,0,1,971,846,742,80,,,,,,,,Prison,ROAD EAST 4 AND UNITED STATES HIGHWAY 36,67654,NORTON,NORTON,39.84416321,-99.81637284,20137,
549,state,Kansas,TOPEKA CORRECTIONAL FACILITY,2022-02-14,https://www.doc.ks.gov/kdoc-coronavirus-updates/kdoc-covid-19-status,636,198,0,1,,,2,0,899,692,795,215,,,,,,,,Prison,815 SOUTHEAST RICE ROAD,66607,TOPEKA,SHAWNEE,39.04069275,-95.6254707,20177,
550,state,Kansas,WICHITA WORK RELEASE,2022-02-14,https://www.doc.ks.gov/kdoc-coronavirus-updates/kdoc-covid-19-status,126,36,0,0,,,0,0,251,103,,,,,,,,,,Prison,401 SOUTH EMPORIA STREET,67202,WICHITA,SEDGWICK,37.68209659,-97.33329523,20173,
551,state,Kansas,WINFIELD CORRECTIONAL FACILITY,2022-02-14,https://www.doc.ks.gov/kdoc-coronavirus-updates/kdoc-covid-19-status,633,161,2,1,,,0,1,612,416,569,173,,,,,,,,Prison,1806 PINECREST CIRCLE,67156,WINFIELD,COWLEY,37.26426587,-96.97365125,20035,
553,state,Kentucky,BELL COUNTY FORESTRY CAMP,2022-02-14,https://corrections.ky.gov/Facilities/Pages/covid19.aspx,187,41,0,0,,,0,3,300,127,,,,,,,,,,Prison,560 CORRECTIONAL DR,40977,PINEVILLE,BELL,36.6689938,-83.85169233,21013,
555,state,Kentucky,BLACKBURN CORRECTIONAL COMPLEX,2022-02-14,https://corrections.ky.gov/Facilities/Pages/covid19.aspx,244,48,1,0,,,22,9,317,205,,,,,,,,,,Prison,3111 SPURR RD,40511,LEXINGTON,FAYETTE,38.11315935,-84.53720452,21067,
558,state,Kentucky,EASTERN KENTUCKY CORRECTIONAL COMPLEX,2022-02-14,https://corrections.ky.gov/Facilities/Pages/covid19.aspx,1163,223,1,0,,,33,16,1891,1607,,,,,,,,,,Prison,200 ROAD TO JUSTICE,41472,WEST LIBERTY,MORGAN,37.90388911,-83.26930995,21175,
559,state,Kentucky,GREEN RIVER CORRECTIONAL COMPLEX,2022-02-14,https://corrections.ky.gov/Facilities/Pages/covid19.aspx,368,85,3,0,,,133,16,958,408,,,,,,,,,,Prison,1200 RIVER RD,42330,CENTRAL CITY,MUHLENBERG,37.3143803,-87.11341674,21177,
560,state,Kentucky,KENTUCKY CORRECTIONAL INSTITUTION FOR WOMEN,2022-02-14,https://corrections.ky.gov/Facilities/Pages/covid19.aspx,553,92,0,0,,,60,8,711,568,,,,,,,,,,Prison,3000 ASH AVE,40056,PEWEE VALLEY,SHELBY,38.2854756,-85.45711972,21211,
561,state,Kentucky,KENTUCKY STATE PENITENTIARY,2022-02-14,https://corrections.ky.gov/Facilities/Pages/covid19.aspx,681,123,1,0,,,60,29,848,415,,,,,,,,,,Prison,266 WATER ST,42038,EDDYVILLE,LYON,37.04927104,-88.07574221,21143,
562,state,Kentucky,KENTUCKY STATE REFORMATORY,2022-02-14,https://corrections.ky.gov/Facilities/Pages/covid19.aspx,535,105,28,3,,,40,6,978,835,,,,,,,,,,Prison,3001 W HWY 146,40032,LAGRANGE,OLDHAM,38.40389133,-85.41658269,21185,
563,state,Kentucky,LEE ADJUSTMENT CENTER,2022-02-14,https://corrections.ky.gov/Facilities/Pages/covid19.aspx,704,78,1,0,,,2,4,840,721,,,,,,,,,,Prison,168 LEE ADJUSTMENT CENTER DRIVE,41311,BEATTYVILLE,LEE,37.6066831,-83.70579564,21129,
565,state,Kentucky,LITTLE SANDY CORRECTIONAL COMPLEX,2022-02-14,https://corrections.ky.gov/Facilities/Pages/covid19.aspx,576,87,1,0,,,191,20,1039,854,,,,,,,,,,Prison,505 PRISON CONNECTOR,41171,SANDY HOOK,ELLIOTT,38.13392033,-83.08100422,21063,
566,state,Kentucky,LUTHER LUCKETT CORRECTIONAL COMPLEX,2022-02-14,https://corrections.ky.gov/Facilities/Pages/covid19.aspx,987,122,2,1,,,243,7,1173,1016,,,,,,,,,,Prison,1612 DAWKINS RD,40031,LAGRANGE,OLDHAM,38.41243087,-85.42599085,21185,
569,state,Kentucky,NORTHPOINT TRAINING CENTER,2022-02-14,https://corrections.ky.gov/Facilities/Pages/covid19.aspx,937,150,6,1,,,449,18,1245,1147,,,,,,,,,,Prison,710 WALTER REED RD,40310,BURGIN,BOYLE,37.71002092,-84.74635681,21021,
570,state,Kentucky,ROEDERER CORRECTIONAL COMPLEX,2022-02-14,https://corrections.ky.gov/Facilities/Pages/covid19.aspx,771,95,0,1,,,92,7,1227,901,,,,,,,,,,Prison,P.O. BOX 69,40031,LAGRANGE,OLDHAM,38.40312799,-85.42976305,21185,
572,state,Kentucky,WESTERN KENTUCKY CORRECTIONAL COMPLEX,2022-02-14,https://corrections.ky.gov/Facilities/Pages/covid19.aspx,437,114,4,2,,,198,16,664,454,,,,,,,,,,Prison,374 NEW BETHEL CHURCH RD,42411,FREDONIA,LYON,37.13645979,-88.04014801,21143,
573,state,Louisiana,ALLEN CORRECTIONAL CENTER,2022-02-14,https://doc.louisiana.gov/doc-covid-19-testing/,266,43,0,0,,,1,0,1579,,,,,,,,,,,Prison,3751 LAUDERDALE WOODYARD RD,70648,KINDER,ALLEN,30.56148319,-92.78967268,22003,
574,state,Louisiana,DAVID WADE CORRECTIONAL CENTER,2022-02-14,https://doc.louisiana.gov/doc-covid-19-testing/,93,91,0,0,,,23,0,1227,,,,,,,,,,,Prison,670 BELL HILL RD,71040,HOMER,CLAIBORNE,32.90173088,-93.01954439,22027,
575,state,Louisiana,DIXON CORRECTIONAL INSTITUTE,2022-02-14,https://doc.louisiana.gov/doc-covid-19-testing/,904,100,9,0,,,6,1,1778,,,,,,,,,,,Prison,5568 STATE HWY 68,70748,JACKSON,EAST FELICIANA,30.81323901,-91.20751374,22037,
576,state,Louisiana,ELAYN HUNT CORRECTIONAL CENTER,2022-02-14,https://doc.louisiana.gov/doc-covid-19-testing/,234,122,2,0,,,10,3,1999,,,,,,,,,,,Prison,6925 HWY 74,70776,ST GABRIEL,IBERVILLE,30.26563691,-91.08621341,22047,
578,state,Louisiana,LOUISIANA CORRECTIONAL INSTITUTE FOR WOMEN HUNT,2022-02-14,https://doc.louisiana.gov/doc-covid-19-testing/,169,100,2,0,,,0,0,573,,,,,,,,,,,Prison,7205 STATE HWY 74,70776,ST GABRIEL,IBERVILLE,30.263188799999998,-91.07374348,22047,
579,state,Louisiana,LOUISIANA CORRECTIONAL INSTITUTE FOR WOMEN JETSON,2022-02-14,https://doc.louisiana.gov/doc-covid-19-testing/,185,,0,,,,0,1,,,,,,,,,,,,Prison,,,,,30.2603498,-91.0746222,,
580,state,Louisiana,LOUISIANA STATE PENITENTIARY,2022-02-14,https://doc.louisiana.gov/doc-covid-19-testing/,603,290,18,4,,,33,5,6073,,,,,,,,,,,Prison,17544 TUNICA TRACE,70712,ANGOLA,WEST FELICIANA,30.95976935,-91.59732559,22125,
586,state,Louisiana,RAYBURN CORRECTIONAL CENTER,2022-02-14,https://doc.louisiana.gov/doc-covid-19-testing/,160,104,2,0,,,6,4,1313,,,,,,,,,,,Prison,27268 STATE HWY 21 N,70426,ANGIE,WASHINGTON,30.92169823,-89.81584273,22117,
587,state,Louisiana,RAYMOND LABORDE CORRECTIONAL CENTER,2022-02-14,https://doc.louisiana.gov/doc-covid-19-testing/,596,104,3,2,,,3,5,1754,,,,,,,,,,,Prison,1630 PRISON RD,71327,COTTONPORT,AVOYELLES,30.97442232,-92.02522705,22009,
591,state,Maine,BOLDUC CORRECTIONAL FACILITY,2022-02-14,https://www.maine.gov/corrections/covid-19-resources,93,,,,,,,,183,,,,,,,,,,,Prison,516 CUSHING RD,04864,WARREN,KNOX,44.0676097,-69.21744666,23013,
594,state,Maine,MAINE STATE PRISON,2022-02-14,https://www.maine.gov/corrections/covid-19-resources,79,,,,,,,,873,,,,,,,,,,,Prison,807 CUSHING RD,04864,WARREN,KNOX,44.0654412,-69.23040775,23013,
595,state,Maine,MOUNTAIN VIEW CORRECTIONAL FACILITY,2022-02-14,https://www.maine.gov/corrections/covid-19-resources,126,,,,,,,,346,,,,,,,,,,,Prison,1182 DOVER RD,04422,CHARLESTON,PENOBSCOT,45.09252047,-69.09444972,23019,
599,state,Maryland,BALTIMORE CENTRAL BOOKING INTAKE CENTER,2022-02-10,https://news.maryland.gov/dpscs/covid-19/,553,550,0,4,,,,,798,,,,,,,,,,,Prison,300 E MADISON ST,21202,BALTIMORE,BALTIMORE CITY,39.2990497,-76.6104617,24510,
600,state,Maryland,BALTIMORE CITY CORRECTIONAL CENTER,2022-02-10,https://news.maryland.gov/dpscs/covid-19/,222,72,0,1,,,,,446,,,,,,,,,,,Prison,901 GREENMOUNT AVE,21202,BALTIMORE,BALTIMORE CITY,39.3003053,-76.606507,24510,
602,state,Maryland,CHESAPEAKE DETENTION FACILITY,2022-02-10,https://news.maryland.gov/dpscs/covid-19/,295,161,0,0,,,,,358,,,,,,,,,,,Prison,401 E MADISON ST,21202,BALTIMORE,BALTIMORE CITY,39.29832772,-76.60941485,24510,
603,state,Maryland,CMCF CENTRAL MARYLAND CF,2022-02-10,https://news.maryland.gov/dpscs/covid-19/,148,62,2,0,,,,,,,,,,,,,,,,Prison,,,,,,,17015,
605,state,Maryland,DORSEY RUN CORRECTIONAL FACILITY,2022-02-10,https://news.maryland.gov/dpscs/covid-19/,132,150,1,0,,,,,915,,,,,,,,,,,Prison,2020 TOULSON ROAD,20794,JESSUP,ANNE ARUNDEL,39.13906251,-76.77697334,24003,
608,state,Maryland,EASTERN CORRECTIONAL INSTITUTION,2022-02-10,https://news.maryland.gov/dpscs/covid-19/,1207,622,2,0,,,,,2678,,,,,,,,,,,Prison,30420 REVELLS NECK RD,21890,WESTOVER,SOMERSET,38.15738518,-75.70440049,24039,
609,state,Maryland,EASTERN PRERELEASE UNIT,2022-02-10,https://news.maryland.gov/dpscs/covid-19/,3,6,0,0,,,,,240,,,,,,,,,,,Prison,,,CHURCH HILL,,,,,
611,state,Maryland,JESSUP CORRECTIONAL INSTITUTION,2022-02-10,https://news.maryland.gov/dpscs/covid-19/,445,288,3,0,,,,,1820,,,,,,,,,,,Prison,"P O BOX 549, HOUSE OF CORRECTION RD",20794,JESSUP,ANNE ARUNDEL,39.1416755,-76.7703613,24003,
613,state,Maryland,MARYLAND CORRECTIONAL INSTITUTION FOR WOMEN,2022-02-10,https://news.maryland.gov/dpscs/covid-19/,121,228,0,1,,,,,698,,,,,,,,,,,Prison,7943 BROCK BRIDGE RD,20794,JESSUP,ANNE ARUNDEL,39.132672,-76.775413,24003,
614,state,Maryland,MARYLAND CORRECTIONAL INSTITUTION HAGERSTOWN,2022-02-10,https://news.maryland.gov/dpscs/covid-19/,243,267,5,0,,,,,630,,,,,,,,,,,Prison,,,HAGERSTOWN,,,,24043,
615,state,Maryland,MARYLAND CORRECTIONAL TRAINING CENTER HAGERSTOWN,2022-02-10,https://news.maryland.gov/dpscs/covid-19/,314,394,3,1,,,,,2883,,,,,,,,,,,Prison,18800 ROXBURY RD,21746,HAGERSTOWN,WASHINGTON,39.56483486,-77.71487398,24043,
616,state,Maryland,MARYLAND RECEPTION DIAGNOSTICS AND CLASSICIATION CENTER,2022-02-10,https://news.maryland.gov/dpscs/covid-19/,142,190,0,0,,,,,445,,,,,,,,,,,Prison,550 E MADISON ST,21202,BALTIMORE,BALTIMORE CITY,39.2991796,-76.6068221,24510,
617,state,Maryland,METROPOLITAN TRANSITION CENTER BALTIMORE,2022-02-10,https://news.maryland.gov/dpscs/covid-19/,328,360,1,0,,,,,730,,,,,,,,,,,Prison,954 FORREST ST,21202,BALTIMORE,BALTIMORE CITY,39.30006162,-76.60856614,24510,
